{"title":"al hilal entertainment city","address":"3832 al imam abi hanifah - Middle Oraija Dist.","district":"Middle Oraija ","latitude":"24.604682649","longitude":"46.6201102460002","id":"10100003128"}
{"title":"fanatir international entertainmen","address":"3948 al malik abdullah ibn abdulaziz rd - King Fahd Dist.","district":"King Fahd ","latitude":"24.7342519052837","longitude":"46.6780977829663","id":"10100003017"}
{"title":"al rimal entertainment restauran","address":"2925 ath thumamah rd - Al Munisiyah Dist.","district":"Al Munisiyah ","latitude":"24.8505710070002","longitude":"46.7693166810002","id":"10100003140"}
{"title":"al hokair entertainment and sports","address":"4004 umar ibn abdul aziz branch rd - Al Rabwah Dist.","district":"Al Rabwah ","latitude":"24.6925357077015","longitude":"46.7647698612286","id":"10100003047"}
{"title":"home entertainment systems","address":"2960 as sail al kabir - Al Ghadeer Dist.","district":"Al Ghadeer ","latitude":"24.7706639821298","longitude":"46.6483540297983","id":"10100003109"}
{"title":"cristal entertainment ha","address":"4189 al amir musaid ibn abdul rahman ibn faisal rd - Middle Oraija Dist.","district":"Middle Oraija ","latitude":"24.6156388310001","longitude":"46.650088843","id":"10100003128"}