[{"Unnamed: 0":0,"title":"مركز الرعاية الصحية الأولية","address":"7560 abi ath thana al maghribi - Al Uraija Dist.","district":"Al Uraija ","latitude":24.627221599,"longitude":46.663509122,"id":10100003127},{"Unnamed: 0":1,"title":"مركز الرعاية الصحية الأولية","address":"4486 abdullah ibn sufyan - Al Nafel Dist.","district":"Al Nafel ","latitude":24.778352303,"longitude":46.6846592526,"id":10100003083},{"Unnamed: 0":2,"title":"مركز الرعاية الصحية الأولية","address":"2876 namly - Al Murabba Dist.","district":"Al Murabba ","latitude":24.668526534,"longitude":46.708105715,"id":10100003021},{"Unnamed: 0":3,"title":"مركز الرعاية الصحية الأولية","address":"6660 abdul muhsin al faram - Al Badeah Dist.","district":"Al Badeah ","latitude":24.618850842,"longitude":46.680632825,"id":10100003071},{"Unnamed: 0":4,"title":"مركز الرعاية الصحية الأولية","address":"3214 al amir musaid ibn abdul rahman ibn faisal rd - West Oraija Dist.","district":"West Oraija ","latitude":24.589153179,"longitude":46.606555617,"id":10100003126},{"Unnamed: 0":5,"title":"مركز الرعاية الصحية الأولية","address":"7839 ath thuqba - Al Jazeerah Dist.","district":"Al Jazeerah ","latitude":24.683297221,"longitude":46.7968322268,"id":10100003035},{"Unnamed: 0":6,"title":"مركز الرعاية الصحية الأولية","address":"6311 al amir abdullah ibn abdul rahman ibn faisal - Manfuha Al Jadidah Dist.","district":"Manfuha Al Jadidah ","latitude":24.607624616,"longitude":46.711033988,"id":10100003005},{"Unnamed: 0":7,"title":"مركز الرعاية الصحية الأولية","address":"4069 as sihah - Irqah","district":"Irqah","latitude":24.689799109,"longitude":46.602817984,"id":10100003142},{"Unnamed: 0":8,"title":"مركز الرعاية الصحية الأولية","address":"3064 al hareeq - Dirab Dist.","district":"ab ","latitude":24.4959371689,"longitude":46.6224275765,"id":10100003058},{"Unnamed: 0":9,"title":"مركز الرعاية الصحية الأولية","address":"3676 rawdat al faras - Middle Oraija Dist.","district":"Middle Oraija ","latitude":24.608581043,"longitude":46.631611806,"id":10100003128},{"Unnamed: 0":10,"title":"مركز الرعاية الصحية الأولية","address":"3793 nasser bin abdullah al hussein - Al Shifa Dist.","district":"Al Shifa ","latitude":24.556861738,"longitude":46.688211214,"id":10100003061},{"Unnamed: 0":11,"title":"مركز الرعاية الصحية الأولية","address":"3118 al amir fahd ibn faisal ibn farhan al saud - Olaishah Dist.","district":"Olaishah ","latitude":24.625726783,"longitude":46.686034665,"id":10100003053},{"Unnamed: 0":12,"title":"مركز الرعاية الصحية الأولية","address":"8958 Al Suwais - Al Wisham Dist.","district":"Al Wisham ","latitude":24.639359192,"longitude":46.701052813,"id":10100003114},{"Unnamed: 0":13,"title":"مركز الرعاية الصحية الأولية","address":"7246 al mallah - West Oraija Dist.","district":"West Oraija ","latitude":24.61266603,"longitude":46.605977222,"id":10100003126},{"Unnamed: 0":14,"title":"مركز الرعاية الصحية الأولية","address":"7434 at turbah - Al Munisiyah Dist.","district":"Al Munisiyah ","latitude":24.8278908892,"longitude":46.7859311226,"id":10100003140},{"Unnamed: 0":15,"title":"مركز الرعاية الصحية الأولية","address":"7117 rammah - Al Muruj Dist.","district":"Al Muruj ","latitude":24.7559518446,"longitude":46.6744529526,"id":10100003110},{"Unnamed: 0":16,"title":"مركز الرعاية الصحية الأولية","address":"3557 hasan al jadi - Qurtubah Dist.","district":"Qurtubah ","latitude":24.8006495227,"longitude":46.7293887054,"id":10100003101},{"Unnamed: 0":17,"title":"مركز الرعاية الصحية الأولية","address":"7369  - Al Muhammadiyah Dist.","district":"Al Muhammadiyah ","latitude":24.7327736681,"longitude":46.6582597687,"id":10100003062},{"Unnamed: 0":18,"title":"مركز الرعاية الصحية الأولية","address":"7342 Kaab Bin Zuhair - Al Suwaidi Dist.","district":"Al Suwaidi ","latitude":24.593440308,"longitude":46.660197358,"id":10100003018},{"Unnamed: 0":19,"title":"مركز الرعاية الصحية الأولية","address":"6986 Jaafar Bin Abi Taleb - Al Sulaimaniyah Dist.","district":"Al Sulaimaniyah ","latitude":24.705233254,"longitude":46.695678673,"id":10100003063},{"Unnamed: 0":20,"title":"مركز الرعاية الصحية الأولية","address":"3380 uthman al jamal - Al Khaleej Dist.","district":"Al Khaleej ","latitude":24.7688582325,"longitude":46.7899226066,"id":10100003055},{"Unnamed: 0":21,"title":"مركز الرعاية الصحية الأولية","address":"6342 Yazeed Bin Mazeed - Sultanah Dist.","district":"Sultanah ","latitude":24.599987728,"longitude":46.691541361,"id":10100003069},{"Unnamed: 0":22,"title":"مركز الرعاية الصحية الأولية","address":"6633 hadbat najd - Dhahrat Al Badeah Dist.","district":"hahrat Al Badeah ","latitude":24.586121648,"longitude":46.632585161,"id":10100003091},{"Unnamed: 0":23,"title":"مركز الرعاية الصحية الأولية","address":"2665 maklat - Al Uraija Dist.","district":"Al Uraija ","latitude":24.627089159,"longitude":46.663822873,"id":10100003127},{"Unnamed: 0":24,"title":"مركز الرعاية الصحية الأولية","address":"3867 al balqa - Al Munisiyah Dist.","district":"Al Munisiyah ","latitude":24.8280564997,"longitude":46.7859177977,"id":10100003140}]