[{"Unnamed: 0":0,"title":"مسجد","address":"7619 Baghdad - Al Yarmuk Dist.","district":"Al Yarmuk ","latitude":"24.8057950955403","longitude":"46.7646884930764","id":"10100003139"},{"Unnamed: 0":1,"title":"مسجد","address":"6485 ibn yasmini - Al Aziziyah Dist.","district":"Al Aziziyah ","latitude":"24.5790823022925","longitude":"46.7886825295095","id":"10100003029"},{"Unnamed: 0":2,"title":"مسجد","address":"6480 abi al faraj ad dawadmi - Middle Oraija Dist.","district":"Middle Oraija ","latitude":"24.6055408640001","longitude":"46.6156480020001","id":"10100003128"},{"Unnamed: 0":3,"title":"مسجد","address":"2921 ad dammam rd - Al Janadriyah Dist.","district":"Al Janadriyah ","latitude":"24.9106153656415","longitude":"46.9284835493819","id":"10100003136"},{"Unnamed: 0":4,"title":"مسجد","address":"4731 abi al ashbal - Jareer Dist.","district":"Jareer ","latitude":"24.6874153600978","longitude":"46.753703437133","id":"10100003048"},{"Unnamed: 0":5,"title":"مسجد","address":"3307  - Dhahrat Al Badeah Dist.","district":"hahrat Al Badeah ","latitude":"24.5942047950002","longitude":"46.6372390200001","id":"10100003091"},{"Unnamed: 0":6,"title":"مسجد","address":"7689 ibn abi al birr - Middle Oraija Dist.","district":"Middle Oraija ","latitude":"24.6158309170002","longitude":"46.636588965","id":"10100003128"},{"Unnamed: 0":7,"title":"مسجد","address":"2601 al faydhiya - Irqah","district":"Irqah","latitude":"24.6859791400001","longitude":"46.5882585610001","id":"10100003142"},{"Unnamed: 0":8,"title":"مسجد","address":"6870 ibn tahir - Al Murabba Dist.","district":"Al Murabba ","latitude":"24.6726072220002","longitude":"46.7077719810001","id":"10100003021"},{"Unnamed: 0":9,"title":"مسجد","address":"6622 al bashair - Al Suwaidi Dist.","district":"Al Suwaidi ","latitude":"24.5868971440001","longitude":"46.6641991060002","id":"10100003018"},{"Unnamed: 0":10,"title":"مسجد","address":"8820 muhammad ibn abi al azhar - Dhahrat Al Badeah Dist.","district":"hahrat Al Badeah ","latitude":"24.6066678180001","longitude":"46.6696845890001","id":"10100003091"},{"Unnamed: 0":11,"title":"مسجد","address":"7717 at tarfiyah - Middle Oraija Dist.","district":"Middle Oraija ","latitude":"24.6160407270001","longitude":"46.6417556870001","id":"10100003128"},{"Unnamed: 0":12,"title":"مسجد","address":"7387 muhammad ibn muqrin - Middle Oraija Dist.","district":"Middle Oraija ","latitude":"24.6012010900002","longitude":"46.6205568790001","id":"10100003128"},{"Unnamed: 0":13,"title":"مسجد","address":"7993 wag valley - Al Malqa Dist.","district":"Al Malqa ","latitude":"24.8041685881564","longitude":"46.6162536514008","id":"10100003145"},{"Unnamed: 0":14,"title":"مسجد","address":"4211 khulais - Middle Oraija Dist.","district":"Middle Oraija ","latitude":"24.6060341890001","longitude":"46.6368870040001","id":"10100003128"},{"Unnamed: 0":15,"title":"مسجد","address":"8057 King Fahd - Al Muruj Dist.","district":"Al Muruj ","latitude":"24.7462677588669","longitude":"46.6580946753155","id":"10100003110"},{"Unnamed: 0":16,"title":"مسجد","address":"7772 as saharawi - Al Zahrah Dist.","district":"Al Zahrah ","latitude":"24.5769758280001","longitude":"46.6581163180002","id":"10100003067"},{"Unnamed: 0":17,"title":"مسجد","address":"6577 street no. 314 - Al Munisiyah Dist.","district":"Al Munisiyah ","latitude":"24.8368136453369","longitude":"46.7739289380444","id":"10100003140"},{"Unnamed: 0":18,"title":"مسجد","address":"4483 al muraqish al asghar - West Oraija Dist.","district":"West Oraija ","latitude":"24.577551418","longitude":"46.6004640970001","id":"10100003126"},{"Unnamed: 0":19,"title":"مسجد","address":"4206 Belal Bin Rabah - Tuwaiq Dist.","district":"Tuwaiq ","latitude":"24.5802434020001","longitude":"46.5514787660001","id":"10100003102"},{"Unnamed: 0":20,"title":"مسجد","address":"6679 yusuf ath thaqafi - West Suwaidi Dist.","district":"West Suwaidi ","latitude":"24.5665261450001","longitude":"46.627518191","id":"10100003057"},{"Unnamed: 0":21,"title":"مسجد","address":"3405 Anas Bin Malek - Al Malqa Dist.","district":"Al Malqa ","latitude":"24.8078776506404","longitude":"46.6186208793794","id":"10100003145"},{"Unnamed: 0":22,"title":"مسجد","address":"2896 dirab branch rd - Namar Dist.","district":"Namar ","latitude":"24.562191349","longitude":"46.6804001740001","id":"10100003060"},{"Unnamed: 0":23,"title":"مسجد عبدالله العقيل ووالديه","address":"2993 muhammad al manofi - Al Narjis Dist.","district":"Al Narjis ","latitude":"24.8795630491403","longitude":"46.6379960436158","id":"10100003150"},{"Unnamed: 0":24,"title":"مسجد","address":"3488 no. 408 - Al Malqa Dist.","district":"Al Malqa ","latitude":"24.8101860608826","longitude":"46.6107154545217","id":"10100003145"},{"Unnamed: 0":25,"title":"مسجد","address":"4802 Al Shihab Al Tayib - West Oraija Dist.","district":"West Oraija ","latitude":"24.5968258190001","longitude":"46.5890821480001","id":"10100003126"},{"Unnamed: 0":26,"title":"مسجد","address":"4187 Zarqaa Al Yamama - Al Murabba Dist.","district":"Al Murabba ","latitude":"24.656589326","longitude":"46.7101329700001","id":"10100003021"},{"Unnamed: 0":27,"title":"مسجد","address":"6725 al makhzumi - Al Yarmuk Dist.","district":"Al Yarmuk ","latitude":"24.7974800138306","longitude":"46.7754541799741","id":"10100003139"},{"Unnamed: 0":28,"title":"مسجد","address":"8344 al khalifah al mamun - Badr Dist.","district":"Badr ","latitude":"24.530774396","longitude":"46.6942745300001","id":"10100003164"},{"Unnamed: 0":29,"title":"مسجد","address":"3325 al khuzam - Dirab Dist.","district":"ab ","latitude":"24.4896676460681","longitude":"46.6160940659788","id":"10100003058"},{"Unnamed: 0":30,"title":"مسجد","address":"3121 as sail al kabir - Al Ghadeer Dist.","district":"Al Ghadeer ","latitude":"24.7706538297629","longitude":"46.6498972688913","id":"10100003109"},{"Unnamed: 0":31,"title":"مسجد","address":"4201 al ajmi - Shubra Dist.","district":"Shubra ","latitude":"24.5676799510002","longitude":"46.6518545430001","id":"10100003066"},{"Unnamed: 0":32,"title":"مسجد","address":"7739 abi al fadl ad darir - West Oraija Dist.","district":"West Oraija ","latitude":"24.588221042","longitude":"46.5938357950001","id":"10100003126"},{"Unnamed: 0":33,"title":"مسجد","address":"8250 al wafra - Al Zahrah Dist.","district":"Al Zahrah ","latitude":"24.581324147","longitude":"46.6548479970002","id":"10100003067"},{"Unnamed: 0":34,"title":"مسجد","address":"4131 southern ring rd - Namar Dist.","district":"Namar ","latitude":"24.5661615830001","longitude":"46.6547153340001","id":"10100003060"},{"Unnamed: 0":35,"title":"abdullah bin abbas","address":"may allah be pleased with him mosqu","district":"Street': 'ahamad bin al khattab","latitude":"UnitNumber': Non","longitude":"atitude': '24.5631017918352","id":"PKAddressID': '1451532866181"},{"Unnamed: 0":36,"title":"مسجد","address":"3589 al mashtal - Al Hazm Dist.","district":"Al Hazm ","latitude":"24.546764094","longitude":"46.649177862","id":"10100003019"},{"Unnamed: 0":37,"title":"مسجد","address":"6466 la jamuh - Tuwaiq Dist.","district":"Tuwaiq ","latitude":"24.589679845","longitude":"46.5553116880001","id":"10100003102"},{"Unnamed: 0":38,"title":"مسجد","address":"6998 ammarat ibn safwan - West Suwaidi Dist.","district":"West Suwaidi ","latitude":"24.5693098180001","longitude":"46.6335920000001","id":"10100003057"},{"Unnamed: 0":39,"title":"مسجد","address":"4445 as sihah - Irqah","district":"Irqah","latitude":"24.6905866320001","longitude":"46.6065500930001","id":"10100003142"},{"Unnamed: 0":40,"title":"مسجد","address":"3329 baydah - Al Aqeeq Dist.","district":"Al Aqeeq ","latitude":"24.7741506203339","longitude":"46.6343060219198","id":"10100003107"},{"Unnamed: 0":41,"title":"مسجد","address":"4117 jabal as suda - Middle Oraija Dist.","district":"Middle Oraija ","latitude":"24.613158435","longitude":"46.649344872","id":"10100003128"},{"Unnamed: 0":42,"title":"مسجد","address":"3625 prince abdullah ibn saud ibn abdullah ath thunayy - Al Sahafah Dist.","district":"Al Sahafah ","latitude":"24.8073941512522","longitude":"46.6395162033762","id":"10100003123"},{"Unnamed: 0":43,"title":"مسجد","address":"4014 abi al hasan al masri - Al Hamra Dist.","district":"Al Hamra ","latitude":"24.7698622925635","longitude":"46.7504314950706","id":"10100003129"},{"Unnamed: 0":44,"title":"مسجد","address":"6701 ash shuwimis - Al Zahrah Dist.","district":"Al Zahrah ","latitude":"24.5674700100001","longitude":"46.6424732900001","id":"10100003067"},{"Unnamed: 0":45,"title":"مسجد","address":"3639 zamil ibn salim - Al Rawabi Dist.","district":"Al Rawabi ","latitude":"24.6952008248119","longitude":"46.7897343367183","id":"10100003089"},{"Unnamed: 0":46,"title":"مسجد","address":"3740 ahmad al ghafi - Al Rahmaniyah Dist.","district":"Al Rahmaniyah ","latitude":"24.7245272494179","longitude":"46.6640640736261","id":"10100003013"},{"Unnamed: 0":47,"title":"مسجد","address":"7289 ad dir al arabi - Al Saadah Dist.","district":"Al Saadah ","latitude":"24.6892632298402","longitude":"46.8305331855872","id":"10100003036"},{"Unnamed: 0":48,"title":"مسجد","address":"7212 wadi thumamah - West Oraija Dist.","district":"West Oraija ","latitude":"24.6021036650002","longitude":"46.6007132130001","id":"10100003126"},{"Unnamed: 0":49,"title":"مسجد","address":"3386 prince faysal abdullah ibn abdulrahman - Hitteen Dist.","district":"Hitteen ","latitude":"24.7703231020183","longitude":"46.5860291450048","id":"10100003144"},{"Unnamed: 0":50,"title":"مسجد","address":"7345 al awwadi - West Suwaidi Dist.","district":"West Suwaidi ","latitude":"24.5726191410001","longitude":"46.6188356070002","id":"10100003057"},{"Unnamed: 0":51,"title":"مسجد","address":"4936 al madhnab - Al Sulaimaniyah Dist.","district":"Al Sulaimaniyah ","latitude":"24.706123973","longitude":"46.7041066320001","id":"10100003063"},{"Unnamed: 0":52,"title":"مسجد","address":"6421 eastern ring branch rd - Al Hamra Dist.","district":"Al Hamra ","latitude":"24.7637213100257","longitude":"46.7381297592323","id":"10100003129"},{"Unnamed: 0":53,"title":"مسجد","address":"7418 abi bakr as siddiq branch - Al Maseef Dist.","district":"Al Maseef ","latitude":"24.7661559810363","longitude":"46.6916581502383","id":"10100003084"},{"Unnamed: 0":54,"title":"مسجد","address":"7344 ash shaikh sulaiman ibn abdullah ibn muhammad - Al Khaleej Dist.","district":"Al Khaleej ","latitude":"24.768851349492","longitude":"46.7948644567833","id":"10100003055"},{"Unnamed: 0":55,"title":"مسجد","address":"3304 Al Zubair Bin Al Awwam - Al Rawabi Dist.","district":"Al Rawabi ","latitude":"24.6921534221426","longitude":"46.7864215946023","id":"10100003089"},{"Unnamed: 0":56,"title":"مسجد","address":"3509 al nassefa - Al Sahafah Dist.","district":"Al Sahafah ","latitude":"24.8153638501665","longitude":"46.6374979250227","id":"10100003123"},{"Unnamed: 0":57,"title":"مسجدأبوعبيده","address":"3190  - Al Narjis Dist.","district":"Al Narjis ","latitude":"24.8704137495003","longitude":"46.6476757551231","id":"10100003150"},{"Unnamed: 0":58,"title":"مسجدالدخيل","address":"3612 ushba - Al Shohda Dist.","district":"Al Shohda ","latitude":"24.7950483043424","longitude":"46.7381099261954","id":"10100003016"},{"Unnamed: 0":59,"title":"مسجد","address":"6757 al jahidh - Al Hamra Dist.","district":"Al Hamra ","latitude":"24.7666052167649","longitude":"46.7410707730354","id":"10100003129"},{"Unnamed: 0":60,"title":"مسجد","address":"3577 mawdud arsalan - West Oraija Dist.","district":"West Oraija ","latitude":"24.5819437110001","longitude":"46.591505925","id":"10100003126"},{"Unnamed: 0":61,"title":"مسجد","address":"8051 bakr ibn an nutah - Al Sulaimaniyah Dist.","district":"Al Sulaimaniyah ","latitude":"24.698532375","longitude":"46.6962457110001","id":"10100003063"},{"Unnamed: 0":62,"title":"مسجد","address":"9310 Al Diyaa - Al Rayan Dist.","district":"Al Rayan ","latitude":"24.7243619064801","longitude":"46.7847736319467","id":"10100003090"},{"Unnamed: 0":63,"title":"مسجد","address":"3854 urwah ibn udhaina - Al Zahrah Dist.","district":"Al Zahrah ","latitude":"24.5718357490001","longitude":"46.6483685990002","id":"10100003067"},{"Unnamed: 0":64,"title":"مسجد","address":"3840 ad dahin - Al Manar Dist.","district":"Al Manar ","latitude":"24.7276299344764","longitude":"46.8015532234852","id":"10100003079"},{"Unnamed: 0":65,"title":"مسجد","address":"4816 as sulaylan - Shubra Dist.","district":"Shubra ","latitude":"24.5691431820002","longitude":"46.6577605850001","id":"10100003066"},{"Unnamed: 0":66,"title":"مسجد","address":"4785 al hammadah - Al Suwaidi Dist.","district":"Al Suwaidi ","latitude":"24.593250928","longitude":"46.6712463750002","id":"10100003018"},{"Unnamed: 0":67,"title":"مسجد","address":"3860 king fahad branch rd - Al Malqa Dist.","district":"Al Malqa ","latitude":"24.807246996678","longitude":"46.6231635318043","id":"10100003145"},{"Unnamed: 0":68,"title":"مسجد","address":"8099 muhammad al khattab - Al Marwah Dist.","district":"Al Marwah ","latitude":"24.5439635620001","longitude":"46.6658284020002","id":"10100003064"},{"Unnamed: 0":69,"title":"مسجد","address":"3059 umar ibn abdul aziz branch rd - Al Rabwah Dist.","district":"Al Rabwah ","latitude":"24.6913673923477","longitude":"46.7648893101709","id":"10100003047"},{"Unnamed: 0":70,"title":"مسجد","address":"7323 al bohayrat - Middle Oraija Dist.","district":"Middle Oraija ","latitude":"24.6005226990001","longitude":"46.6297458130001","id":"10100003128"},{"Unnamed: 0":71,"title":"مسجد","address":"9022 ata ibn abi rubah - Al Murabba Dist.","district":"Al Murabba ","latitude":"24.6499734600001","longitude":"46.7069274860001","id":"10100003021"},{"Unnamed: 0":72,"title":"مسجد","address":"6565 rawdat - Badr Dist.","district":"Badr ","latitude":"24.5336687850001","longitude":"46.6986156220001","id":"10100003164"},{"Unnamed: 0":73,"title":"مسجد","address":"6575 Othman Bin Affan - Al Falah Dist.","district":"Al Falah ","latitude":"24.7902290412443","longitude":"46.7026361610576","id":"10100003022"},{"Unnamed: 0":74,"title":"مسجد","address":"4089 Tameem Al Dari - Shubra Dist.","district":"Shubra ","latitude":"24.5835272510001","longitude":"46.6785965770001","id":"10100003066"},{"Unnamed: 0":75,"title":"مسجد","address":"7373 al aziziah rd - Al Aziziyah Dist.","district":"Al Aziziyah ","latitude":"24.5984419211474","longitude":"46.772313922533","id":"10100003029"},{"Unnamed: 0":76,"title":"مسجد","address":"7401 street no. 75 - Al Yasmeen Dist.","district":"Al Yasmeen ","latitude":"24.8153486567671","longitude":"46.6467793101086","id":"10100003147"},{"Unnamed: 0":77,"title":"مسجد","address":"3957 said ibn musib - West Umm Al Hamam Dist.","district":"West Umm Al Hamam ","latitude":"24.6915233670001","longitude":"46.6490102370001","id":"10100003012"},{"Unnamed: 0":78,"title":"مسجد","address":"6322 Al Haytham Bin Obaid - Al Duraihemiyah Dist.","district":"Al Duraihemiyah ","latitude":"24.588342313","longitude":"46.6935645280002","id":"10100003076"},{"Unnamed: 0":79,"title":"مسجد","address":"3805 muhna ibn isa - Dhahrat Al Badeah Dist.","district":"hahrat Al Badeah ","latitude":"24.5937562460001","longitude":"46.6421797860002","id":"10100003091"},{"Unnamed: 0":80,"title":"مسجد","address":"7224 al hair rd - Al Haer Dist.","district":"Al Haer ","latitude":"24.3967439677312","longitude":"46.8336852412116","id":"10100003159"},{"Unnamed: 0":81,"title":"مسجد","address":"8546 abi al faraj al katib - West Umm Al Hamam Dist.","district":"West Umm Al Hamam ","latitude":"24.69763177","longitude":"46.64247697","id":"10100003012"},{"Unnamed: 0":82,"title":"مسجد","address":"7025 al washimah - Tuwaiq Dist.","district":"Tuwaiq ","latitude":"24.5819563910001","longitude":"46.5795192240001","id":"10100003102"},{"Unnamed: 0":83,"title":"مسجد","address":"7561 farsan - East Umm Al Hamam Dist.","district":"East Umm Al Hamam ","latitude":"24.6888039390001","longitude":"46.6531917770001","id":"10100003008"},{"Unnamed: 0":84,"title":"مسجد","address":"4639 abi ar ruh ash shafi - West Suwaidi Dist.","district":"West Suwaidi ","latitude":"24.5753877200001","longitude":"46.6310641130001","id":"10100003057"},{"Unnamed: 0":85,"title":"مسجد","address":"8501 al wafra - Al Zahrah Dist.","district":"Al Zahrah ","latitude":"24.5835966970001","longitude":"46.6539841530001","id":"10100003067"},{"Unnamed: 0":86,"title":"مسجد","address":"8192  - Al Sulaimaniyah Dist.","district":"Al Sulaimaniyah ","latitude":"24.6844751050001","longitude":"46.7078994310001","id":"10100003063"},{"Unnamed: 0":87,"title":"مسجد","address":"7261 mahfudh ash shafi - Al Suwaidi Dist.","district":"Al Suwaidi ","latitude":"24.5926101080001","longitude":"46.6681986500002","id":"10100003018"},{"Unnamed: 0":88,"title":"مسجد","address":"7257 street no. 20 - Al Yasmeen Dist.","district":"Al Yasmeen ","latitude":"24.8139907885021","longitude":"46.650181017005","id":"10100003147"},{"Unnamed: 0":89,"title":"مسجد","address":"7667 al salim - Dhahrat Al Badeah Dist.","district":"hahrat Al Badeah ","latitude":"24.5953719320001","longitude":"46.6401095570002","id":"10100003091"},{"Unnamed: 0":90,"title":"مسجدالخير","address":"7372 al ashi bin khais - Qurtubah Dist.","district":"Qurtubah ","latitude":"24.8049859016906","longitude":"46.7214022668327","id":"10100003101"},{"Unnamed: 0":91,"title":"مسجد","address":"7374 abi al alaa al maari - Al Malaz Dist.","district":"Al Malaz ","latitude":"24.6731381895176","longitude":"46.7333288106377","id":"10100003051"},{"Unnamed: 0":92,"title":"مسجد","address":"7821 Maymun Bint Al Harith - Dhahrat Al Badeah Dist.","district":"hahrat Al Badeah ","latitude":"24.5978133560002","longitude":"46.6542425940001","id":"10100003091"},{"Unnamed: 0":93,"title":"مسجد","address":"5324 Khadeejah Bint Khuwaylid - West Oraija Dist.","district":"West Oraija ","latitude":"24.5908185500002","longitude":"46.5938899400002","id":"10100003126"},{"Unnamed: 0":94,"title":"مسجد","address":"3074  - Al Badeah Dist.","district":"Al Badeah ","latitude":"24.6150516600001","longitude":"46.6853911000002","id":"10100003071"},{"Unnamed: 0":95,"title":"مسجد","address":"7974 abi al hasan al qassar - Al Zahrah Dist.","district":"Al Zahrah ","latitude":"24.5789156500002","longitude":"46.6455494420001","id":"10100003067"},{"Unnamed: 0":96,"title":"مسجد","address":"6372 masoud bin dahmash - Al Qairawan Dist.","district":"Al Qairawan ","latitude":"24.8222745384281","longitude":"46.6002694517459","id":"10100003146"},{"Unnamed: 0":97,"title":"مسجد","address":"3899 al jadwal - Al Dar Al Baida Dist.","district":"Al Dar Al Baida ","latitude":"24.5556549162807","longitude":"46.7902509765003","id":"10100003130"},{"Unnamed: 0":98,"title":"مسجد","address":"7579 al babeya - Al Dar Al Baida Dist.","district":"Al Dar Al Baida ","latitude":"24.5697396163609","longitude":"46.7983727363393","id":"10100003130"},{"Unnamed: 0":99,"title":"مسجد","address":"3455 northern ring rd - Al Taawun Dist.","district":"Al Taawun ","latitude":"24.7828481116319","longitude":"46.7008420656023","id":"10100003085"},{"Unnamed: 0":100,"title":"مسجد","address":"8134 king abdulaziz branch rd - Al Woroud Dist.","district":"Al Woroud ","latitude":"24.7326164590112","longitude":"46.6866445568782","id":"10100003026"},{"Unnamed: 0":101,"title":"مسجد","address":"3325 no. 420 - Al Malqa Dist.","district":"Al Malqa ","latitude":"24.8073743291445","longitude":"46.6090847424763","id":"10100003145"},{"Unnamed: 0":102,"title":"مسجد","address":"4149 Salman Al Hanbali - West Oraija Dist.","district":"West Oraija ","latitude":"24.5960191090002","longitude":"46.6163986430001","id":"10100003126"},{"Unnamed: 0":103,"title":"مسجد","address":"6833 no. 353 - Al Malqa Dist.","district":"Al Malqa ","latitude":"24.810047661516","longitude":"46.6035829527387","id":"10100003145"},{"Unnamed: 0":104,"title":"مسجد","address":"4620 al farisah - Al Jarradiyah Dist.","district":"Al Jarradiyah ","latitude":"24.6156960060001","longitude":"46.6960607510001","id":"10100003003"},{"Unnamed: 0":105,"title":"مسجد","address":"2737 muthibah - Al Shifa Dist.","district":"Al Shifa ","latitude":"24.5783118760001","longitude":"46.7033385800001","id":"10100003061"},{"Unnamed: 0":106,"title":"مسجد","address":"2741 abi firas al hamdani - Al Raed Dist.","district":"Al Raed ","latitude":"24.704766887","longitude":"46.63042661","id":"10100003125"},{"Unnamed: 0":107,"title":"مسجد","address":"2649 king salman bin abdul aziz rd - Al Malqa Dist.","district":"Al Malqa ","latitude":"24.8211371521908","longitude":"46.6024983819461","id":"10100003145"},{"Unnamed: 0":108,"title":"مسجد","address":"8882 prince abdulaziz ibn musaid ibn jalawi - Al Olaya Dist.","district":"Al Olaya ","latitude":"24.67435676","longitude":"46.7019677050001","id":"10100003075"},{"Unnamed: 0":109,"title":"مسجد","address":"7672 al amir mitib ibn abdul aziz - Al Rabwah Dist.","district":"Al Rabwah ","latitude":"24.7033173641337","longitude":"46.7583607675155","id":"10100003047"},{"Unnamed: 0":110,"title":"مسجد","address":"4604 al madinah al munawarah - West Oraija Dist.","district":"West Oraija ","latitude":"24.5867805810001","longitude":"46.6206075700001","id":"10100003126"},{"Unnamed: 0":111,"title":"مسجد","address":"7046 Unayzah - Al Rawabi Dist.","district":"Al Rawabi ","latitude":"24.6888705067515","longitude":"46.7881979187463","id":"10100003089"},{"Unnamed: 0":112,"title":"مسجد","address":"7220 al matar - Al Fayha Dist.","district":"Al Fayha ","latitude":"24.678871679052","longitude":"46.8064180438491","id":"10100003133"},{"Unnamed: 0":113,"title":"مسجد","address":"6966 yusuf ibn an nahwi - West Oraija Dist.","district":"West Oraija ","latitude":"24.5812243290001","longitude":"46.5948603740002","id":"10100003126"},{"Unnamed: 0":114,"title":"مسجد","address":"6778 al irwanah - West Oraija Dist.","district":"West Oraija ","latitude":"24.5981467290002","longitude":"46.5965347740002","id":"10100003126"},{"Unnamed: 0":115,"title":"مسجد","address":"8137 Hayat Bin Qays - Al Jarradiyah Dist.","district":"Al Jarradiyah ","latitude":"24.6176670500001","longitude":"46.6981949050001","id":"10100003003"},{"Unnamed: 0":116,"title":"مسجد","address":"2918 al ardiyyah - Al Rabwah Dist.","district":"Al Rabwah ","latitude":"24.6924260638665","longitude":"46.7541045763801","id":"10100003047"},{"Unnamed: 0":117,"title":"مسجد","address":"2612 yusuf abi al muhasin - Al Shifa Dist.","district":"Al Shifa ","latitude":"24.5741914850001","longitude":"46.7018497020001","id":"10100003061"},{"Unnamed: 0":118,"title":"مسجد","address":"3068 abdulaziz al bawardi - Al Khaleej Dist.","district":"Al Khaleej ","latitude":"24.7767528809766","longitude":"46.7870568531516","id":"10100003055"},{"Unnamed: 0":119,"title":"مسجد","address":"4236 prince saad ibn abdulrahman al awal rd - Al Salam Dist.","district":"Al Salam ","latitude":"24.6962503405254","longitude":"46.8165979897267","id":"10100003078"},{"Unnamed: 0":120,"title":"مسجد","address":"3848 as sanhaji - Shubra Dist.","district":"Shubra ","latitude":"24.5802891840001","longitude":"46.675828003","id":"10100003066"},{"Unnamed: 0":121,"title":"مسجد","address":"3409 wadi as sarh - Al Wadi Dist.","district":"Al Wadi ","latitude":"24.7896407832029","longitude":"46.6918487018364","id":"10100003082"},{"Unnamed: 0":122,"title":"مسجد","address":"3927 al hayari - Dirab Dist.","district":"ab ","latitude":"24.4879657365836","longitude":"46.6220275494296","id":"10100003058"},{"Unnamed: 0":123,"title":"مسجد","address":"8429 abdul rahman ibn salim - Al Rafeah Dist.","district":"Al Rafeah ","latitude":"24.6471668600001","longitude":"46.6689357010001","id":"10100003015"},{"Unnamed: 0":124,"title":"مسجد","address":"5236  - Oraid Dist.","district":"Oraid ","latitude":"24.4777591881067","longitude":"46.7725660034118","id":"10100003163"},{"Unnamed: 0":125,"title":"مسجد","address":"8717 abi al manaqib ad dainuri - West Suwaidi Dist.","district":"West Suwaidi ","latitude":"24.5850012940001","longitude":"46.6210763390001","id":"10100003057"},{"Unnamed: 0":126,"title":"مسجد","address":"7131 al wadiy - West Oraija Dist.","district":"West Oraija ","latitude":"24.594029945","longitude":"46.5908165980001","id":"10100003126"},{"Unnamed: 0":127,"title":"مسجد","address":"6643 Kaab Bin Zuhair - Al Suwaidi Dist.","district":"Al Suwaidi ","latitude":"24.587067495","longitude":"46.6659855230001","id":"10100003018"},{"Unnamed: 0":128,"title":"مسجد","address":"8773 dirab rd - Al Marwah Dist.","district":"Al Marwah ","latitude":"24.5499848440001","longitude":"46.6702238910001","id":"10100003064"},{"Unnamed: 0":129,"title":"مسجد","address":"3502 sadir - Al Suwaidi Dist.","district":"Al Suwaidi ","latitude":"24.5843070710001","longitude":"46.6727872060001","id":"10100003018"},{"Unnamed: 0":130,"title":"مسجد","address":"7237 al mahd - West Suwaidi Dist.","district":"West Suwaidi ","latitude":"24.5715881630001","longitude":"46.6254833280001","id":"10100003057"},{"Unnamed: 0":131,"title":"مسجد","address":"3516 yathrib - Shubra Dist.","district":"Shubra ","latitude":"24.5830933480001","longitude":"46.6728587620001","id":"10100003066"},{"Unnamed: 0":132,"title":"مسجد","address":"2660 al bahar al ahmar - Al Wadi Dist.","district":"Al Wadi ","latitude":"24.7860737050883","longitude":"46.6844446022453","id":"10100003082"},{"Unnamed: 0":133,"title":"مسجد","address":"7075 al fanus - Al Fayha Dist.","district":"Al Fayha ","latitude":"24.6776866145613","longitude":"46.8161459595065","id":"10100003133"},{"Unnamed: 0":134,"title":"مسجد","address":"3166 abi zarah - Al Murabba Dist.","district":"Al Murabba ","latitude":"24.6696200200001","longitude":"46.7002244190001","id":"10100003021"},{"Unnamed: 0":135,"title":"مسجد","address":"7428 al umara - Al Aziziyah Dist.","district":"Al Aziziyah ","latitude":"24.5742738202825","longitude":"46.7727567480671","id":"10100003029"},{"Unnamed: 0":136,"title":"مسجد","address":"7394 abi al hasan an nidham - West Oraija Dist.","district":"West Oraija ","latitude":"24.60376925","longitude":"46.5980133240001","id":"10100003126"},{"Unnamed: 0":137,"title":"مسجد","address":"3165 ash shaikh abdullah ibn muhammad - Sultanah Dist.","district":"Sultanah ","latitude":"24.6036404550001","longitude":"46.6815017600001","id":"10100003069"},{"Unnamed: 0":138,"title":"مسجد","address":"4086 Northern Ring Rd - Al Falah Dist.","district":"Al Falah ","latitude":"24.791100524139","longitude":"46.7167832273444","id":"10100003022"},{"Unnamed: 0":139,"title":"مسجد","address":"3305 abdul halim ibn al faras - West Suwaidi Dist.","district":"West Suwaidi ","latitude":"24.5750298870001","longitude":"46.6179098450001","id":"10100003057"},{"Unnamed: 0":140,"title":"مسجد","address":"3126 Shaqraa - Al Rabwah Dist.","district":"Al Rabwah ","latitude":"24.70006821013","longitude":"46.7562608931776","id":"10100003047"},{"Unnamed: 0":141,"title":"مسجد","address":"4395 Al Ashaj - Al Rayan Dist.","district":"Al Rayan ","latitude":"24.7185883727337","longitude":"46.785546465946","id":"10100003090"},{"Unnamed: 0":142,"title":"مسجد","address":"7525 as sahra al kubra - Al Ghadeer Dist.","district":"Al Ghadeer ","latitude":"24.7744324138401","longitude":"46.6556114255239","id":"10100003109"},{"Unnamed: 0":143,"title":"مسجد","address":"8140 jabal nuam - Al Olaya Dist.","district":"Al Olaya ","latitude":"24.7071491971149","longitude":"46.6668381816525","id":"10100003075"},{"Unnamed: 0":144,"title":"مسجد","address":"7970 al ashbal - Al Sahafah Dist.","district":"Al Sahafah ","latitude":"24.8114523219976","longitude":"46.6340612890202","id":"10100003123"},{"Unnamed: 0":145,"title":"مسجد","address":"2774 marakish - Al Quds Dist.","district":"Al Quds ","latitude":"24.758301676341","longitude":"46.7464876358737","id":"10100003081"},{"Unnamed: 0":146,"title":"مسجد","address":"2883 yusuf ibn abi ishaq - West Naseem Dist.","district":"West Naseem ","latitude":"24.7178943065415","longitude":"46.8237795135585","id":"10100003167"},{"Unnamed: 0":147,"title":"مسجد","address":"4113 nahr al baraduni - Al Sahafah Dist.","district":"Al Sahafah ","latitude":"24.8029448645353","longitude":"46.643278771157","id":"10100003123"},{"Unnamed: 0":148,"title":"مسجد","address":"8184 mohammed rasheed rda - Al Aziziyah Dist.","district":"Al Aziziyah ","latitude":"24.581237280266","longitude":"46.7559560812147","id":"10100003029"},{"Unnamed: 0":149,"title":"مسجد","address":"3435 masafi - Al Falah Dist.","district":"Al Falah ","latitude":"24.8005412487356","longitude":"46.7103782705954","id":"10100003022"},{"Unnamed: 0":150,"title":"مسجد","address":"7057 washi - Al Rabwah Dist.","district":"Al Rabwah ","latitude":"24.6978077221743","longitude":"46.7625402907717","id":"10100003047"},{"Unnamed: 0":151,"title":"مسجد","address":"3753 yahya as sayrafi - East Naseem Dist.","district":"East Naseem ","latitude":"24.7166103285169","longitude":"46.8473546008822","id":"10100003080"},{"Unnamed: 0":152,"title":"مسجد","address":"7542 King Abdulaziz - Al Rabie Dist.","district":"Al Rabie ","latitude":"24.7917631322706","longitude":"46.6568295509574","id":"10100003104"},{"Unnamed: 0":153,"title":"مسجد","address":"7784 Haroun Al Rasheed - Al Jazeerah Dist.","district":"Al Jazeerah ","latitude":"24.6828712975147","longitude":"46.7972028278871","id":"10100003035"},{"Unnamed: 0":154,"title":"مسجد","address":"6749 an nahdah rd - Al Rabwah Dist.","district":"Al Rabwah ","latitude":"24.6797508090822","longitude":"46.7583781640705","id":"10100003047"},{"Unnamed: 0":155,"title":"مسجد","address":"2917 atalalah - Al Rawabi Dist.","district":"Al Rawabi ","latitude":"24.6994209358779","longitude":"46.7830359137052","id":"10100003089"},{"Unnamed: 0":156,"title":"مسجد","address":"4163 jabir ibn jubarah - Al Mughrazat Dist.","district":"Al Mughrazat ","latitude":"24.76008701186","longitude":"46.7339540888248","id":"10100003105"},{"Unnamed: 0":157,"title":"مسجد","address":"6533 abi al fadl al alimi - Al Rabwah Dist.","district":"Al Rabwah ","latitude":"24.6930311921518","longitude":"46.7626211924469","id":"10100003047"},{"Unnamed: 0":158,"title":"مسجد","address":"7066 al abu haimid - Al Nuzha Dist.","district":"Al Nuzha ","latitude":"24.7537598475774","longitude":"46.7155124689102","id":"10100003025"},{"Unnamed: 0":159,"title":"مسجد","address":"2433 ayn rim - West Naseem Dist.","district":"West Naseem ","latitude":"24.7236884527214","longitude":"46.8194271224596","id":"10100003167"},{"Unnamed: 0":160,"title":"مسجد","address":"7070 al bihar - Al Hamra Dist.","district":"Al Hamra ","latitude":"24.7773388528917","longitude":"46.7613434541225","id":"10100003129"},{"Unnamed: 0":161,"title":"مسجد","address":"3159 al athya - Middle Oraija Dist.","district":"Middle Oraija ","latitude":"24.610377242","longitude":"46.6398162060001","id":"10100003128"},{"Unnamed: 0":162,"title":"مسجد","address":"8148 jabal aban - West Naseem Dist.","district":"West Naseem ","latitude":"24.722446195394","longitude":"46.8244433671027","id":"10100003167"},{"Unnamed: 0":163,"title":"مسجد","address":"6938 eastern ring rd - Al Mughrazat Dist.","district":"Al Mughrazat ","latitude":"24.7600253045046","longitude":"46.7376229797497","id":"10100003105"},{"Unnamed: 0":164,"title":"مسجد","address":"2948 ahmad al hasbani - Al Rabwah Dist.","district":"Al Rabwah ","latitude":"24.6946431266581","longitude":"46.7544751774315","id":"10100003047"},{"Unnamed: 0":165,"title":"مسجد","address":"3046 abi dhar al ghaffari - Al Rabwah Dist.","district":"Al Rabwah ","latitude":"24.6837208772512","longitude":"46.7646128202377","id":"10100003047"},{"Unnamed: 0":166,"title":"مسجد","address":"7175 kuda - Al Rabwah Dist.","district":"Al Rabwah ","latitude":"24.6989427445322","longitude":"46.7508771499429","id":"10100003047"},{"Unnamed: 0":167,"title":"مسجد","address":"6733 ibn al baghdadi - Al Mughrazat Dist.","district":"Al Mughrazat ","latitude":"24.7583309696377","longitude":"46.7287858995202","id":"10100003105"},{"Unnamed: 0":168,"title":"مسجد","address":"6533 as sahabah - Al Munisiyah Dist.","district":"Al Munisiyah ","latitude":"24.8200578383962","longitude":"46.7741292577909","id":"10100003140"},{"Unnamed: 0":169,"title":"مسجد","address":"7555 al amir matab ibn abdul aziz - Al Rabwah Dist.","district":"Al Rabwah ","latitude":"24.6870018984059","longitude":"46.7661100128786","id":"10100003047"},{"Unnamed: 0":170,"title":"مسجد","address":"3662 abu ubaydah amir ibn al jarrah - Al Fayha Dist.","district":"Al Fayha ","latitude":"24.6712302236396","longitude":"46.8123532381201","id":"10100003133"},{"Unnamed: 0":171,"title":"مسجد","address":"7465 Al Thuray - Al Nakheel Dist.","district":"Al Nakheel ","latitude":"24.7484520658194","longitude":"46.6357494640891","id":"10100003108"},{"Unnamed: 0":172,"title":"مسجد","address":"3082 abi al fath ar rasi - West Naseem Dist.","district":"West Naseem ","latitude":"24.7247946242628","longitude":"46.825878289165","id":"10100003167"},{"Unnamed: 0":173,"title":"مسجد","address":"2604 al imam muhammad ibn saud ibn muqrin - Al Dirah Dist.","district":"Al Dirah ","latitude":"24.6296893090002","longitude":"46.7076114340002","id":"10100003007"},{"Unnamed: 0":174,"title":"مسجد","address":"3245 hamad ibn musa - Al Rabwah Dist.","district":"Al Rabwah ","latitude":"24.6920923444599","longitude":"46.7573876377027","id":"10100003047"},{"Unnamed: 0":175,"title":"مسجد","address":"3384 Murrat - Al Rabwah Dist.","district":"Al Rabwah ","latitude":"24.6987785422647","longitude":"46.7587022201694","id":"10100003047"},{"Unnamed: 0":176,"title":"مسجد","address":"7399 ash shaikh hasan ibn hussain ibn ali - Ishbiliyah Dist.","district":"Ishbiliyah ","latitude":"24.7890422788868","longitude":"46.7682346402426","id":"10100003137"},{"Unnamed: 0":177,"title":"مسجد","address":"2491 al imam abdullah ibn saud ibn abdul aziz rd - Ishbiliyah Dist.","district":"Ishbiliyah ","latitude":"24.7925534561619","longitude":"46.7712451690077","id":"10100003137"},{"Unnamed: 0":178,"title":"مسجد","address":"2272 Jareer - Al Malaz Dist.","district":"Al Malaz ","latitude":"24.6706974178827","longitude":"46.7291556724754","id":"10100003051"},{"Unnamed: 0":179,"title":"مسجد","address":"8393 al bughdadi - Al Rayan Dist.","district":"Al Rayan ","latitude":"24.7162902804441","longitude":"46.7723632950416","id":"10100003090"},{"Unnamed: 0":180,"title":"مسجد","address":"6975 dhat al harmal - Al Rabwah Dist.","district":"Al Rabwah ","latitude":"24.6971956252886","longitude":"46.7523292160218","id":"10100003047"},{"Unnamed: 0":181,"title":"مسجد","address":"8157 Al Abbas Bin Al Ahnaf - Al Mursalat Dist.","district":"Al Mursalat ","latitude":"24.7558721905165","longitude":"46.6952584657176","id":"10100003024"},{"Unnamed: 0":182,"title":"مسجد","address":"8506 Othman Bin Affan - Al Nada Dist.","district":"Al Nada ","latitude":"24.8164673814318","longitude":"46.6878410662496","id":"10100003023"},{"Unnamed: 0":183,"title":"مسجد","address":"2451  - Al Rabwah Dist.","district":"Al Rabwah ","latitude":"24.7041861248038","longitude":"46.7496094920918","id":"10100003047"},{"Unnamed: 0":184,"title":"مسجد","address":"3378 ibn sina - Al Maseef Dist.","district":"Al Maseef ","latitude":"24.7650787044459","longitude":"46.6819980482462","id":"10100003084"},{"Unnamed: 0":185,"title":"مسجد","address":"7131 eastern ring branch rd - Al Jazeerah Dist.","district":"Al Jazeerah ","latitude":"24.6769664202621","longitude":"46.7790220032733","id":"10100003035"},{"Unnamed: 0":186,"title":"مسجد","address":"7016 al ajali - Al Quds Dist.","district":"Al Quds ","latitude":"24.7490505885294","longitude":"46.7600539543093","id":"10100003081"},{"Unnamed: 0":187,"title":"مسجد","address":"7089 al khaznzh - Ishbiliyah Dist.","district":"Ishbiliyah ","latitude":"24.7859334974175","longitude":"46.7817353492349","id":"10100003137"},{"Unnamed: 0":188,"title":"مسجد","address":"3264 Northern Ring Rd - Al Falah Dist.","district":"Al Falah ","latitude":"24.787783732899","longitude":"46.7085347247136","id":"10100003022"},{"Unnamed: 0":189,"title":"مسجد","address":"6592 abi huraiyrah - East Naseem Dist.","district":"East Naseem ","latitude":"24.7184828770817","longitude":"46.850914821823","id":"10100003080"},{"Unnamed: 0":190,"title":"مسجد","address":"6733 inabah - Al Rabwah Dist.","district":"Al Rabwah ","latitude":"24.6949476976669","longitude":"46.7575494410513","id":"10100003047"},{"Unnamed: 0":191,"title":"مسجد","address":"7741  - Al Arid Dist.","district":"Al Arid ","latitude":"24.8666059314012","longitude":"46.6209254380897","id":"10100003148"},{"Unnamed: 0":192,"title":"مسجد","address":"3518 amr al kindi - Al Quds Dist.","district":"Al Quds ","latitude":"24.7602160908939","longitude":"46.7538550782334","id":"10100003081"},{"Unnamed: 0":193,"title":"مسجد","address":"7505 eastern ring branch rd - Al Rawabi Dist.","district":"Al Rawabi ","latitude":"24.6935384125684","longitude":"46.7768745362836","id":"10100003089"},{"Unnamed: 0":194,"title":"مسجد","address":"4050 muhammad ibn muqrin - West Naseem Dist.","district":"West Naseem ","latitude":"24.7371522717153","longitude":"46.8037572531757","id":"10100003167"},{"Unnamed: 0":195,"title":"مسجد","address":"3377 abi sadiq al qudai - Al Quds Dist.","district":"Al Quds ","latitude":"24.7500792902046","longitude":"46.7523882629336","id":"10100003081"},{"Unnamed: 0":196,"title":"مسجد","address":"7127 muatah - Al Yasmeen Dist.","district":"Al Yasmeen ","latitude":"24.8129415651715","longitude":"46.6573698445958","id":"10100003147"},{"Unnamed: 0":197,"title":"مسجد","address":"6259 abdul muhsin al faram - Al Badeah Dist.","district":"Al Badeah ","latitude":"24.6151917770001","longitude":"46.6827840540001","id":"10100003071"},{"Unnamed: 0":198,"title":"مسجد","address":"4017 al amir sultan ibn salman ibn abdul aziz - Al Rahmaniyah Dist.","district":"Al Rahmaniyah ","latitude":"24.7197724307774","longitude":"46.6667511578927","id":"10100003013"},{"Unnamed: 0":199,"title":"مسجد","address":"7567 Ayshah Bin Abi Bakr - Middle Oraija Dist.","district":"Middle Oraija ","latitude":"24.6148336337158","longitude":"46.6337405444279","id":"10100003128"},{"Unnamed: 0":200,"title":"مسجد","address":"3662 street no. 164 - Al Yasmeen Dist.","district":"Al Yasmeen ","latitude":"24.8297726255255","longitude":"46.651793208263","id":"10100003147"},{"Unnamed: 0":201,"title":"مسجد","address":"4310 no. 458 - Al Malqa Dist.","district":"Al Malqa ","latitude":"24.8111741320652","longitude":"46.6188889030767","id":"10100003145"},{"Unnamed: 0":202,"title":"مسجد","address":"6356 street no. 408 - Al Malqa Dist.","district":"Al Malqa ","latitude":"24.805773903672","longitude":"46.6052808885233","id":"10100003145"},{"Unnamed: 0":203,"title":"مسجد","address":"7399 al arin - Al Hamra Dist.","district":"Al Hamra ","latitude":"24.7723488293146","longitude":"46.7515795850059","id":"10100003129"},{"Unnamed: 0":204,"title":"مسجد","address":"7086 wadi ar rashad - Shubra Dist.","district":"Shubra ","latitude":"24.5793562570001","longitude":"46.669700565","id":"10100003066"},{"Unnamed: 0":205,"title":"مسجد","address":"7697 abdullah almakhzomi - West Suwaidi Dist.","district":"West Suwaidi ","latitude":"24.5758860480001","longitude":"46.611828813","id":"10100003057"},{"Unnamed: 0":206,"title":"مسجد","address":"7041 ayn mahrah - Al Aziziyah Dist.","district":"Al Aziziyah ","latitude":"24.5966486365909","longitude":"46.7680088535414","id":"10100003029"},{"Unnamed: 0":207,"title":"مسجد","address":"7286 ibn al wardi - Al Shifa Dist.","district":"Al Shifa ","latitude":"24.55068467","longitude":"46.6918465950001","id":"10100003061"},{"Unnamed: 0":208,"title":"مسجد","address":"5200 no. 296 - Al Malqa Dist.","district":"Al Malqa ","latitude":"24.8005534317173","longitude":"46.5965164004701","id":"10100003145"},{"Unnamed: 0":209,"title":"مسجد","address":"2443 obaidallah al thaqafi - Al Dar Al Baida Dist.","district":"Al Dar Al Baida ","latitude":"24.5569398037724","longitude":"46.762320075178","id":"10100003130"},{"Unnamed: 0":210,"title":"مسجد","address":"4288 Al Deyafah - Al Raed Dist.","district":"Al Raed ","latitude":"24.7016096250001","longitude":"46.6447756930001","id":"10100003125"},{"Unnamed: 0":211,"title":"مسجد","address":"2991 al khatamah - Middle Oraija Dist.","district":"Middle Oraija ","latitude":"24.5962079640001","longitude":"46.6248233110002","id":"10100003128"},{"Unnamed: 0":212,"title":"مسجد","address":"3437 Asad Bin Obaid - Dhahrat Al Badeah Dist.","district":"hahrat Al Badeah ","latitude":"24.5992054300001","longitude":"46.6580136990001","id":"10100003091"},{"Unnamed: 0":213,"title":"مسجد","address":"7944 al hadirah - Al Suwaidi Dist.","district":"Al Suwaidi ","latitude":"24.5987182370002","longitude":"46.6732662310002","id":"10100003018"},{"Unnamed: 0":214,"title":"مسجد","address":"3161 al kisai - Al Zahrah Dist.","district":"Al Zahrah ","latitude":"24.5810887980002","longitude":"46.6417702870001","id":"10100003067"},{"Unnamed: 0":215,"title":"مسجد","address":"7493 amr ibn shaiban - Shubra Dist.","district":"Shubra ","latitude":"24.5744359610001","longitude":"46.6598683190001","id":"10100003066"},{"Unnamed: 0":216,"title":"مسجد","address":"4015 street no. 28 - Al Yasmeen Dist.","district":"Al Yasmeen ","latitude":"24.8202420818375","longitude":"46.6635145671305","id":"10100003147"},{"Unnamed: 0":217,"title":"مسجد","address":"2816 al asakir - Al Nuzha Dist.","district":"Al Nuzha ","latitude":"24.7495917077436","longitude":"46.7025807017553","id":"10100003025"},{"Unnamed: 0":218,"title":"مسجد","address":"3085 abi abdullah al barjuni - West Oraija Dist.","district":"West Oraija ","latitude":"24.5795892220001","longitude":"46.605531619","id":"10100003126"},{"Unnamed: 0":219,"title":"مسجد","address":"2643 al khold - Al Dar Al Baida Dist.","district":"Al Dar Al Baida ","latitude":"24.5678888715894","longitude":"46.7915220301566","id":"10100003130"},{"Unnamed: 0":220,"title":"مسجد","address":"8352 ad darb - Al Fayha Dist.","district":"Al Fayha ","latitude":"24.6890405424078","longitude":"46.8134873018681","id":"10100003133"},{"Unnamed: 0":221,"title":"مسجد","address":"3766 ayn qasari - Middle Oraija Dist.","district":"Middle Oraija ","latitude":"24.6049802040001","longitude":"46.6195178430001","id":"10100003128"},{"Unnamed: 0":222,"title":"مسجد","address":"6770 ad dawadmi - King Faisal Dist.","district":"King Faisal ","latitude":"24.7539722690603","longitude":"46.7732044780249","id":"10100003027"},{"Unnamed: 0":223,"title":"مسجد","address":"6303 idris ash shuma - Al Quds Dist.","district":"Al Quds ","latitude":"24.7428370127751","longitude":"46.749934267265","id":"10100003081"},{"Unnamed: 0":224,"title":"مسجد","address":"7143 muhammad al hussain - Al Shifa Dist.","district":"Al Shifa ","latitude":"24.5494236560002","longitude":"46.6956047750002","id":"10100003061"},{"Unnamed: 0":225,"title":"مسجد","address":"3374 al qayyas - Ishbiliyah Dist.","district":"Ishbiliyah ","latitude":"24.7942409393705","longitude":"46.7799111949413","id":"10100003137"},{"Unnamed: 0":226,"title":"مسجد","address":"7228 al dar - Al Aziziyah Dist.","district":"Al Aziziyah ","latitude":"24.5858703258965","longitude":"46.7831331064576","id":"10100003029"},{"Unnamed: 0":227,"title":"مسجدعيدالبدراني","address":"6699 abdul wahid al azji - Qurtubah Dist.","district":"Qurtubah ","latitude":"24.8228598490869","longitude":"46.7414371979035","id":"10100003101"},{"Unnamed: 0":228,"title":"مسجد","address":"3617 al qawiyah - Al Rabie Dist.","district":"Al Rabie ","latitude":"24.7827903290296","longitude":"46.64653423608","id":"10100003104"},{"Unnamed: 0":229,"title":"مسجد","address":"7283 abdullah ibn az zubairq - West Oraija Dist.","district":"West Oraija ","latitude":"24.6027198890002","longitude":"46.602748036","id":"10100003126"},{"Unnamed: 0":230,"title":"مسجد","address":"7152 al suwailim - Al Dirah Dist.","district":"Al Dirah ","latitude":"24.6331870980001","longitude":"46.709046749","id":"10100003007"},{"Unnamed: 0":231,"title":"مسجد","address":"3980 kharis branch rd - Al Rawdah Dist.","district":"Al Rawdah ","latitude":"24.7245117790556","longitude":"46.7755695924979","id":"10100003088"},{"Unnamed: 0":232,"title":"مسجد","address":"7115 ibn mudhaffar - Al Ezdihar Dist.","district":"Al Ezdihar ","latitude":"24.7784117974634","longitude":"46.721719481318","id":"10100003086"},{"Unnamed: 0":233,"title":"مسجد","address":"8460 al qadi at tilmisani - Dhahrat Al Badeah Dist.","district":"hahrat Al Badeah ","latitude":"24.603432561","longitude":"46.663590427","id":"10100003091"},{"Unnamed: 0":234,"title":"مسجد","address":"3558  - King Saud University","district":"King Saud University","latitude":"24.7151829520947","longitude":"46.6261653823108","id":"10100003166"},{"Unnamed: 0":235,"title":"مسجد","address":"7669 abi hamid as saadi - Al Zahrah Dist.","district":"Al Zahrah ","latitude":"24.576189786","longitude":"46.636341006","id":"10100003067"},{"Unnamed: 0":236,"title":"مسجد","address":"8496 abdullah al matrudi - Al Zahrah Dist.","district":"Al Zahrah ","latitude":"24.5836025470001","longitude":"46.6481350300001","id":"10100003067"},{"Unnamed: 0":237,"title":"مسجد","address":"3326 al mizan - Al Falah Dist.","district":"Al Falah ","latitude":"24.7970046260995","longitude":"46.7089077636937","id":"10100003022"},{"Unnamed: 0":238,"title":"مسجد","address":"3162 wadi ar rimma - Al Sahafah Dist.","district":"Al Sahafah ","latitude":"24.8035568916493","longitude":"46.6339142536523","id":"10100003123"},{"Unnamed: 0":239,"title":"مسجد","address":"7400 Asafan - Al Ezdihar Dist.","district":"Al Ezdihar ","latitude":"24.7810158795882","longitude":"46.726644489708","id":"10100003086"},{"Unnamed: 0":240,"title":"مسجد","address":"4118 at turath - Al Ghadeer Dist.","district":"Al Ghadeer ","latitude":"24.7823639906285","longitude":"46.6599889287382","id":"10100003109"},{"Unnamed: 0":241,"title":"مسجد","address":"3444 al hamran - Ghirnatah Dist.","district":"Ghirnatah ","latitude":"24.8041743632863","longitude":"46.7546061871695","id":"10100003155"},{"Unnamed: 0":242,"title":"مسجد","address":"8060 an najah - Ishbiliyah Dist.","district":"Ishbiliyah ","latitude":"24.7998337849991","longitude":"46.8049232711384","id":"10100003137"},{"Unnamed: 0":243,"title":"مسجد","address":"2637 al imam saud ibn abdul aziz rd - Al Mursalat Dist.","district":"Al Mursalat ","latitude":"24.7556932953098","longitude":"46.683058567397","id":"10100003024"},{"Unnamed: 0":244,"title":"مسجد","address":"6816 street no. 144 - Al Munisiyah Dist.","district":"Al Munisiyah ","latitude":"24.8313979192168","longitude":"46.7607165817541","id":"10100003140"},{"Unnamed: 0":245,"title":"مسجد","address":"2798 eastern ring branch rd - Al Jazeerah Dist.","district":"Al Jazeerah ","latitude":"24.6562751041213","longitude":"46.792933437031","id":"10100003035"},{"Unnamed: 0":246,"title":"مسجد","address":"5196 prince saad ibn abdulrahman al awal rd - Al Rawabi Dist.","district":"Al Rawabi ","latitude":"24.6911563427882","longitude":"46.8049681988774","id":"10100003089"},{"Unnamed: 0":247,"title":"مسجد","address":"7949 al henakiya - Al Hamra Dist.","district":"Al Hamra ","latitude":"24.7772646906875","longitude":"46.749543094831","id":"10100003129"},{"Unnamed: 0":248,"title":"مسجد","address":"9382 Othman Bin Affan - Al Wahah Dist.","district":"Al Wahah ","latitude":"24.7509977880791","longitude":"46.7208946451261","id":"10100003042"},{"Unnamed: 0":249,"title":"مسجد","address":"7611 al mahd - Ghirnatah Dist.","district":"Ghirnatah ","latitude":"24.798307603888","longitude":"46.7460289242528","id":"10100003155"},{"Unnamed: 0":250,"title":"مسجد","address":"6812 dokhna - Al Fayha Dist.","district":"Al Fayha ","latitude":"24.6752177243942","longitude":"46.8076767644324","id":"10100003133"},{"Unnamed: 0":251,"title":"مسجد","address":"4062 al amoudiya - Ishbiliyah Dist.","district":"Ishbiliyah ","latitude":"24.8032876738816","longitude":"46.8046749205217","id":"10100003137"},{"Unnamed: 0":252,"title":"مسجد","address":"6848 street no. 59 - Al Malqa Dist.","district":"Al Malqa ","latitude":"24.7822548949739","longitude":"46.5883257471863","id":"10100003145"},{"Unnamed: 0":253,"title":"مسجد","address":"4017 Husayn Bin Marwan - Al Salam Dist.","district":"Al Salam ","latitude":"24.7016943093615","longitude":"46.8145844898241","id":"10100003078"},{"Unnamed: 0":254,"title":"مسجد","address":"7409 abdul aziz ibn shabanah - Al Aziziyah Dist.","district":"Al Aziziyah ","latitude":"24.5998892283043","longitude":"46.7687072545139","id":"10100003029"},{"Unnamed: 0":255,"title":"مسجد","address":"7157 abi al maali az zaki - Middle Oraija Dist.","district":"Middle Oraija ","latitude":"24.599129676","longitude":"46.6189923540001","id":"10100003128"},{"Unnamed: 0":256,"title":"مسجد","address":"2837 ayn as sufra - Al Aqeeq Dist.","district":"Al Aqeeq ","latitude":"24.7777415949923","longitude":"46.6207890123389","id":"10100003107"},{"Unnamed: 0":257,"title":"مسجد","address":"2444 al amanah al qaysi - Hitteen Dist.","district":"Hitteen ","latitude":"24.7617260145831","longitude":"46.6075004420166","id":"10100003144"},{"Unnamed: 0":258,"title":"مسجد","address":"7881 al barqa - Sultanah Dist.","district":"Sultanah ","latitude":"24.5979973970001","longitude":"46.6822632860002","id":"10100003069"},{"Unnamed: 0":259,"title":"مسجد","address":"3005 al imam saud ibn faisal rd - Al Aqeeq Dist.","district":"Al Aqeeq ","latitude":"24.7896649267292","longitude":"46.6227389951155","id":"10100003107"},{"Unnamed: 0":260,"title":"مسجد","address":"3684 al amir majid ibn abdul aziz - Al Rayan Dist.","district":"Al Rayan ","latitude":"24.712112376984","longitude":"46.7784539169641","id":"10100003090"},{"Unnamed: 0":261,"title":"مسجد","address":"6845 al rona - Al Saadah Dist.","district":"Al Saadah ","latitude":"24.6852990478044","longitude":"46.8283060100858","id":"10100003036"},{"Unnamed: 0":262,"title":"مسجد","address":"6958 al imam saud ibn faisal rd - Al Malqa Dist.","district":"Al Malqa ","latitude":"24.7864595587738","longitude":"46.6118140544222","id":"10100003145"},{"Unnamed: 0":263,"title":"مسجد","address":"7975 Al Bawadri - Al Ghadeer Dist.","district":"Al Ghadeer ","latitude":"24.7787919677223","longitude":"46.6495093042072","id":"10100003109"},{"Unnamed: 0":264,"title":"مسجد","address":"3411 at tahliyyah - Al Aqeeq Dist.","district":"Al Aqeeq ","latitude":"24.7817261055567","longitude":"46.6265477888236","id":"10100003107"},{"Unnamed: 0":265,"title":"مسجد","address":"7357 al ulaya - Al Ghadeer Dist.","district":"Al Ghadeer ","latitude":"24.7733343963015","longitude":"46.6453211355756","id":"10100003109"},{"Unnamed: 0":266,"title":"مسجد","address":"7676  - Dahiyat Namar Dist.","district":"ahiyat Namar ","latitude":"24.4885059638581","longitude":"46.5966643526729","id":"10100003097"},{"Unnamed: 0":267,"title":"مسجد","address":"2879 al imam turki ibn abdullah ibn muhammad - Al Dirah Dist.","district":"Al Dirah ","latitude":"24.6307848160001","longitude":"46.7106973550001","id":"10100003007"},{"Unnamed: 0":268,"title":"مسجد","address":"2302 Ibn Al Tafil - Al Mursalat Dist.","district":"Al Mursalat ","latitude":"24.750502802101","longitude":"46.679605884423","id":"10100003024"},{"Unnamed: 0":269,"title":"مسجد","address":"3403 qalat at tur - West Oraija Dist.","district":"West Oraija ","latitude":"24.5965070480001","longitude":"46.6089035520002","id":"10100003126"},{"Unnamed: 0":270,"title":"مسجد","address":"7605 abdullah  al sahmi street - Assafarat Dist.","district":"Assafarat ","latitude":"24.6818735929359","longitude":"46.6227657040833","id":"10100003099"},{"Unnamed: 0":271,"title":"مسجد","address":"2282 street no. 306 - Al Yasmeen Dist.","district":"Al Yasmeen ","latitude":"24.832768428942","longitude":"46.638120584133","id":"10100003147"},{"Unnamed: 0":272,"title":"مسجد","address":"7768 Labeed Bin Rabeah - Al Zahrah Dist.","district":"Al Zahrah ","latitude":"24.577032241","longitude":"46.6381545810001","id":"10100003067"},{"Unnamed: 0":273,"title":"مسجد","address":"8258 khalifah ibn khayyat - Al Shifa Dist.","district":"Al Shifa ","latitude":"24.5716188650001","longitude":"46.6950533290002","id":"10100003061"},{"Unnamed: 0":274,"title":"مسجد","address":"3451 al imam abi hanifah - West Oraija Dist.","district":"West Oraija ","latitude":"24.5974905920002","longitude":"46.6093806630001","id":"10100003126"},{"Unnamed: 0":275,"title":"مسجد","address":"6887 ramlan - Al Salam Dist.","district":"Al Salam ","latitude":"24.7008445562183","longitude":"46.8047381049959","id":"10100003078"},{"Unnamed: 0":276,"title":"مسجد","address":"7450  - Al Rahmaniyah Dist.","district":"Al Rahmaniyah ","latitude":"24.7177731758756","longitude":"46.657615704557","id":"10100003013"},{"Unnamed: 0":277,"title":"مسجد","address":"6165 salbukh rd - Al Malqa Dist.","district":"Al Malqa ","latitude":"24.7762389191305","longitude":"46.5732921323414","id":"10100003145"},{"Unnamed: 0":278,"title":"مسجد","address":"4143 al jabarti - Badr Dist.","district":"Badr ","latitude":"24.5424106230001","longitude":"46.7097461560001","id":"10100003164"},{"Unnamed: 0":279,"title":"مسجد","address":"7787 Thumama Bin Oday - East Naseem Dist.","district":"East Naseem ","latitude":"24.752513575434","longitude":"46.8282846699132","id":"10100003080"},{"Unnamed: 0":280,"title":"مسجد","address":"7038 abdullah al kharji - Al Malqa Dist.","district":"Al Malqa ","latitude":"24.7955237376403","longitude":"46.6240509914444","id":"10100003145"},{"Unnamed: 0":281,"title":"مسجد","address":"7177 al fadilah - Tuwaiq Dist.","district":"Tuwaiq ","latitude":"24.582126799","longitude":"46.573814374","id":"10100003102"},{"Unnamed: 0":282,"title":"مسجد","address":"3983 no. 550 - Al Malqa Dist.","district":"Al Malqa ","latitude":"24.8189721135709","longitude":"46.6156042147974","id":"10100003145"},{"Unnamed: 0":283,"title":"مسجد","address":"8752 ali ibn abdul karim - Ishbiliyah Dist.","district":"Ishbiliyah ","latitude":"24.8060612005791","longitude":"46.8059840487471","id":"10100003137"},{"Unnamed: 0":284,"title":"مسجد","address":"2904 Hassan Bin Manae - Al Quds Dist.","district":"Al Quds ","latitude":"24.7519494077534","longitude":"46.7476484559253","id":"10100003081"},{"Unnamed: 0":285,"title":"مسجد","address":"6602 Malek Bin Hamzah - Dhahrat Al Badeah Dist.","district":"hahrat Al Badeah ","latitude":"24.585891362","longitude":"46.6285995100001","id":"10100003091"},{"Unnamed: 0":286,"title":"مسجد","address":"6387 al hasan al wasiti - Al Salam Dist.","district":"Al Salam ","latitude":"24.6961932334611","longitude":"46.8142780152457","id":"10100003078"},{"Unnamed: 0":287,"title":"مسجد","address":"6273 al jabiri - Middle Oraija Dist.","district":"Middle Oraija ","latitude":"24.603115003","longitude":"46.643001859","id":"10100003128"},{"Unnamed: 0":288,"title":"مسجد","address":"3478 Al Waleed Bin Moslem - Hitteen Dist.","district":"Hitteen ","latitude":"24.7632552862401","longitude":"46.617792737145","id":"10100003144"},{"Unnamed: 0":289,"title":"مسجد","address":"8663 King Fahd - Al Muruj Dist.","district":"Al Muruj ","latitude":"24.7533407577042","longitude":"46.6546905720059","id":"10100003110"},{"Unnamed: 0":290,"title":"مسجد","address":"6977 al bahar al mutawassit - Al Aqeeq Dist.","district":"Al Aqeeq ","latitude":"24.7785884167737","longitude":"46.6283610443739","id":"10100003107"},{"Unnamed: 0":291,"title":"مسجد","address":"3910 Prince Mohammed Ibn Salman Ibn Abdulaziz Rd - Imam Muhammed Bin Saud Islamic University","district":"Imam Muhammed Bin Saud Islamic University","latitude":"24.809448919366","longitude":"46.7062318894759","id":"10100003151"},{"Unnamed: 0":292,"title":"مسجد","address":"8558 al bareya - Al Aziziyah Dist.","district":"Al Aziziyah ","latitude":"24.584473004317","longitude":"46.7642032523726","id":"10100003029"},{"Unnamed: 0":293,"title":"مسجد","address":"7173 musahar ibn an numan - Dhahrat Al Badeah Dist.","district":"hahrat Al Badeah ","latitude":"24.5919923230001","longitude":"46.6531664730001","id":"10100003091"},{"Unnamed: 0":294,"title":"مسجد","address":"3100 al faliq - West Oraija Dist.","district":"West Oraija ","latitude":"24.600230716","longitude":"46.5938648510001","id":"10100003126"},{"Unnamed: 0":295,"title":"مسجد","address":"2462 al kurah - Al Dirah Dist.","district":"Al Dirah ","latitude":"24.6372575480002","longitude":"46.7066486400001","id":"10100003007"},{"Unnamed: 0":296,"title":"مسجد","address":"6314 muhammad al jamaz - Dhahrat Al Badeah Dist.","district":"hahrat Al Badeah ","latitude":"24.583254189","longitude":"46.6310944740001","id":"10100003091"},{"Unnamed: 0":297,"title":"مسجد","address":"3932 al melisan - Al Yarmuk Dist.","district":"Al Yarmuk ","latitude":"24.80037076152","longitude":"46.7771439938651","id":"10100003139"},{"Unnamed: 0":298,"title":"مسجد","address":"3104 ibrahim ibn musharrif - Al Shifa Dist.","district":"Al Shifa ","latitude":"24.5670458890001","longitude":"46.6926869540001","id":"10100003061"},{"Unnamed: 0":299,"title":"مسجد","address":"3797 hibatullah ad dafari - Middle Oraija Dist.","district":"Middle Oraija ","latitude":"24.6111471100002","longitude":"46.6461631190001","id":"10100003128"},{"Unnamed: 0":300,"title":"مسجد","address":"7233 abi muhammad al ilaf - Al Zahrah Dist.","district":"Al Zahrah ","latitude":"24.5723013040002","longitude":"46.6452597260001","id":"10100003067"},{"Unnamed: 0":301,"title":"مسجد","address":"3424 al abdul qadir - Sultanah Dist.","district":"Sultanah ","latitude":"24.5997388280002","longitude":"46.6840060820002","id":"10100003069"},{"Unnamed: 0":302,"title":"مسجد","address":"7011 skaka - Al Olaya Dist.","district":"Al Olaya ","latitude":"24.6838859520001","longitude":"46.677098164","id":"10100003075"},{"Unnamed: 0":303,"title":"مسجد","address":"3660 qas ibn saidah - King Faisal Dist.","district":"King Faisal ","latitude":"24.7636992545202","longitude":"46.7755563294445","id":"10100003027"},{"Unnamed: 0":304,"title":"مسجد","address":"3096 al qariya - Ishbiliyah Dist.","district":"Ishbiliyah ","latitude":"24.7779775274346","longitude":"46.7769672323908","id":"10100003137"},{"Unnamed: 0":305,"title":"مسجد","address":"7716 abi al maali an nuqash - Al Sulaimaniyah Dist.","district":"Al Sulaimaniyah ","latitude":"24.6955182920001","longitude":"46.6982698020001","id":"10100003063"},{"Unnamed: 0":306,"title":"مسجد","address":"2533 ahmad ibn hashim - Ishbiliyah Dist.","district":"Ishbiliyah ","latitude":"24.796936592936","longitude":"46.7895084783053","id":"10100003137"},{"Unnamed: 0":307,"title":"مسجد","address":"3755 Nahmoud Al Azji - West Oraija Dist.","district":"West Oraija ","latitude":"24.5900012860001","longitude":"46.6122860080001","id":"10100003126"},{"Unnamed: 0":308,"title":"مسجد","address":"4336 muhammad al khashab - Al Rayan Dist.","district":"Al Rayan ","latitude":"24.7206585038088","longitude":"46.7849658774606","id":"10100003090"},{"Unnamed: 0":309,"title":"مسجد","address":"7544 Kaab Bin Zuhair - Al Suwaidi Dist.","district":"Al Suwaidi ","latitude":"24.5837584710002","longitude":"46.667178091","id":"10100003018"},{"Unnamed: 0":310,"title":"مسجد","address":"3461 al rayah - Al Zahrah Dist.","district":"Al Zahrah ","latitude":"24.576324776","longitude":"46.6446235490001","id":"10100003067"},{"Unnamed: 0":311,"title":"مسجد","address":"4792 abi al hasan ibn masud - Al Quds Dist.","district":"Al Quds ","latitude":"24.7522067732261","longitude":"46.766381554876","id":"10100003081"},{"Unnamed: 0":312,"title":"مسجد","address":"3301 al hatar - West Oraija Dist.","district":"West Oraija ","latitude":"24.5908301210002","longitude":"46.6078150630001","id":"10100003126"},{"Unnamed: 0":313,"title":"مسجد","address":"8432 al shaikh jabir al ahmed al shaba - Al Khaleej Dist.","district":"Al Khaleej ","latitude":"24.7891525464346","longitude":"46.8222101227759","id":"10100003055"},{"Unnamed: 0":314,"title":"مسجد","address":"7408 Al Mowaffaq Al Sabooni - Al Zahrah Dist.","district":"Al Zahrah ","latitude":"24.5737778710001","longitude":"46.6441330820001","id":"10100003067"},{"Unnamed: 0":315,"title":"مسجد","address":"6441 hamad bin kabbaa - Shubra Dist.","district":"Shubra ","latitude":"24.5650418960001","longitude":"46.6489779720001","id":"10100003066"},{"Unnamed: 0":316,"title":"مسجد","address":"7892 Al Mowaffaq Al Sabooni - Al Zahrah Dist.","district":"Al Zahrah ","latitude":"24.578218282","longitude":"46.6408963850001","id":"10100003067"},{"Unnamed: 0":317,"title":"مسجد","address":"4108 ahmad bin muhammad al natfi - West Oraija Dist.","district":"West Oraija ","latitude":"24.5787258140001","longitude":"46.5967049240001","id":"10100003126"},{"Unnamed: 0":318,"title":"مسجد","address":"6847 King Fahd - Al Yasmeen Dist.","district":"Al Yasmeen ","latitude":"24.8173259310005","longitude":"46.619651903796","id":"10100003147"},{"Unnamed: 0":319,"title":"مسجد","address":"6519 al khair rd - Al Aqeeq Dist.","district":"Al Aqeeq ","latitude":"24.7580816918584","longitude":"46.6276657869954","id":"10100003107"},{"Unnamed: 0":320,"title":"مسجد","address":"3625 ad dawimah - Middle Oraija Dist.","district":"Middle Oraija ","latitude":"24.6094096440001","longitude":"46.6443614800002","id":"10100003128"},{"Unnamed: 0":321,"title":"مسجد","address":"3724 jabal tariq - West Umm Al Hamam Dist.","district":"West Umm Al Hamam ","latitude":"24.6872888660001","longitude":"46.646647671","id":"10100003012"},{"Unnamed: 0":322,"title":"مسجد","address":"6340 ashrah - Al Hamra Dist.","district":"Al Hamra ","latitude":"24.7707430198585","longitude":"46.7617174878573","id":"10100003129"},{"Unnamed: 0":323,"title":"مسجد","address":"5166 al amir fahad ibn faisal ibn farhan al saud - Al Rafeah Dist.","district":"Al Rafeah ","latitude":"24.6255770330001","longitude":"46.6747574150001","id":"10100003015"},{"Unnamed: 0":324,"title":"مسجد","address":"8459 dirab branch rd - Ohod Dist.","district":"Ohod ","latitude":"24.488121936358","longitude":"46.6247858584911","id":"10100003059"},{"Unnamed: 0":325,"title":"مسجد","address":"4641 Ahmad Bin Sahl - West Oraija Dist.","district":"West Oraija ","latitude":"24.58903014","longitude":"46.620997194","id":"10100003126"},{"Unnamed: 0":326,"title":"مسجد","address":"9740  - Al Rimal Dist.","district":"Al Rimal ","latitude":"25.0739680586865","longitude":"46.7135125251693","id":"10100003153"},{"Unnamed: 0":327,"title":"مسجد","address":"7720 al safrat - King Abdullah Dist.","district":"King Abdullah ","latitude":"24.746157712567","longitude":"46.72578798289","id":"10100003041"},{"Unnamed: 0":328,"title":"مسجد","address":"3447 al ward - Al Rayan Dist.","district":"Al Rayan ","latitude":"24.7203446448592","longitude":"46.7761402368192","id":"10100003090"},{"Unnamed: 0":329,"title":"مسجد","address":"7939  - West Oraija Dist.","district":"West Oraija ","latitude":"24.6086126950001","longitude":"46.6023840410002","id":"10100003126"},{"Unnamed: 0":330,"title":"مسجد خالد بن الوليد","address":"2841 al shawka valley - Qurtubah Dist.","district":"Qurtubah ","latitude":"24.8106149839473","longitude":"46.7402424231728","id":"10100003101"},{"Unnamed: 0":331,"title":"مسجد","address":"2805 ad darb - Al Yasmeen Dist.","district":"Al Yasmeen ","latitude":"24.8062002240648","longitude":"46.6514133104174","id":"10100003147"},{"Unnamed: 0":332,"title":"مسجد","address":"8141 salmah al adawi - Al Zahrah Dist.","district":"Al Zahrah ","latitude":"24.5804438420001","longitude":"46.644273974","id":"10100003067"},{"Unnamed: 0":333,"title":"مسجد","address":"2760 Maymun Bint Al Harith - Dhahrat Al Badeah Dist.","district":"hahrat Al Badeah ","latitude":"24.6011280760002","longitude":"46.651290224","id":"10100003091"},{"Unnamed: 0":334,"title":"مسجد","address":"7673 salmah al adawi - Al Zahrah Dist.","district":"Al Zahrah ","latitude":"24.576161792","longitude":"46.6475478020002","id":"10100003067"},{"Unnamed: 0":335,"title":"مسجد","address":"3641 abdullah ibn muammar - West Umm Al Hamam Dist.","district":"West Umm Al Hamam ","latitude":"24.6958080780001","longitude":"46.6459249610001","id":"10100003012"},{"Unnamed: 0":336,"title":"مسجد","address":"7235 luiy ibn shuraih - Al Shifa Dist.","district":"Al Shifa ","latitude":"24.572788862","longitude":"46.7061144660001","id":"10100003061"},{"Unnamed: 0":337,"title":"مسجد","address":"4176  - West Umm Al Hamam Dist.","district":"West Umm Al Hamam ","latitude":"24.7006139420001","longitude":"46.6512704460002","id":"10100003012"},{"Unnamed: 0":338,"title":"مسجد","address":"8034 ibn zahr - Al Suwaidi Dist.","district":"Al Suwaidi ","latitude":"24.588046477","longitude":"46.6774472470001","id":"10100003018"},{"Unnamed: 0":339,"title":"مسجد","address":"8423  - West Oraija Dist.","district":"West Oraija ","latitude":"24.598550172","longitude":"46.6142709070001","id":"10100003126"},{"Unnamed: 0":340,"title":"مسجد","address":"6530  - Al Aqeeq Dist.","district":"Al Aqeeq ","latitude":"24.7613603507818","longitude":"46.63891416769","id":"10100003107"},{"Unnamed: 0":341,"title":"مسجد","address":"4298 umm al hamam - West Umm Al Hamam Dist.","district":"West Umm Al Hamam ","latitude":"24.7009751690002","longitude":"46.6524919780002","id":"10100003012"},{"Unnamed: 0":342,"title":"مسجد","address":"2722 Al Malek Saud - Al Murabba Dist.","district":"Al Murabba ","latitude":"24.6456308560001","longitude":"46.709159766","id":"10100003021"},{"Unnamed: 0":343,"title":"مسجد","address":"4333 al mudhaffar ibn saban - King Faisal Dist.","district":"King Faisal ","latitude":"24.7555316554735","longitude":"46.7821274093004","id":"10100003027"},{"Unnamed: 0":344,"title":"مسجد","address":"4034 abi abdullah ibn abdul jabbar - Al Shifa Dist.","district":"Al Shifa ","latitude":"24.5651681960001","longitude":"46.7019469440001","id":"10100003061"},{"Unnamed: 0":345,"title":"مسجد","address":"4207 al ammar - East Umm Al Hamam Dist.","district":"East Umm Al Hamam ","latitude":"24.695090757","longitude":"46.6514979790001","id":"10100003008"},{"Unnamed: 0":346,"title":"مسجد","address":"3308 ali al bahili - West Oraija Dist.","district":"West Oraija ","latitude":"24.6003645100001","longitude":"46.5782116820001","id":"10100003126"},{"Unnamed: 0":347,"title":"مسجد","address":"6342 at taj - Laban Dist.","district":"Laban ","latitude":"24.6325710660001","longitude":"46.6036579030001","id":"10100003014"},{"Unnamed: 0":348,"title":"مسجد","address":"3922 zaidal khyr - Al Rawdah Dist.","district":"Al Rawdah ","latitude":"24.7294748030598","longitude":"46.7743246255165","id":"10100003088"},{"Unnamed: 0":349,"title":"مسجد","address":"3469 dar as safa - Sultanah Dist.","district":"Sultanah ","latitude":"24.602818861","longitude":"46.6844338870001","id":"10100003069"},{"Unnamed: 0":350,"title":"مسجد","address":"3103  - Al Nasiriyah Dist.","district":"Al Nasiriyah ","latitude":"24.6492397840001","longitude":"46.6827351210001","id":"10100003037"},{"Unnamed: 0":351,"title":"مسجد","address":"3210 ismail al baghdadi - Al Yarmuk Dist.","district":"Al Yarmuk ","latitude":"24.7992672765641","longitude":"46.7698715381343","id":"10100003139"},{"Unnamed: 0":352,"title":"مسجد","address":"6561 ad dar - Middle Oraija Dist.","district":"Middle Oraija ","latitude":"24.593675409","longitude":"46.6233236830001","id":"10100003128"},{"Unnamed: 0":353,"title":"مسجد","address":"7336 al jeera - Dirab Dist.","district":"ab ","latitude":"24.5029923180001","longitude":"46.6304757950001","id":"10100003058"},{"Unnamed: 0":354,"title":"مسجد","address":"3801 yathrib - Al Falah Dist.","district":"Al Falah ","latitude":"24.7960762715333","longitude":"46.7139918882348","id":"10100003022"},{"Unnamed: 0":355,"title":"مسجد","address":"3138 no. 408 - Al Malqa Dist.","district":"Al Malqa ","latitude":"24.8088339321661","longitude":"46.6072348979355","id":"10100003145"},{"Unnamed: 0":356,"title":"مسجد","address":"3587 wadi zaymar - West Oraija Dist.","district":"West Oraija ","latitude":"24.5941129490002","longitude":"46.6106873380002","id":"10100003126"},{"Unnamed: 0":357,"title":"مسجد","address":"8230 an nahar - Hitteen Dist.","district":"Hitteen ","latitude":"24.7562588982867","longitude":"46.6044949942257","id":"10100003144"},{"Unnamed: 0":358,"title":"مسجد","address":"3977 al barra - Al Wahah Dist.","district":"Al Wahah ","latitude":"24.7413752338913","longitude":"46.7227080482216","id":"10100003042"},{"Unnamed: 0":359,"title":"مسجد","address":"7007 al zafaran - Dhahrat Al Badeah Dist.","district":"hahrat Al Badeah ","latitude":"24.5893766090002","longitude":"46.6406275880001","id":"10100003091"},{"Unnamed: 0":360,"title":"مسجد","address":"7834 ibn maknun - West Oraija Dist.","district":"West Oraija ","latitude":"24.6077058630001","longitude":"46.5993142320001","id":"10100003126"},{"Unnamed: 0":361,"title":"مسجد","address":"4241 Saad Bin Wael - West Naseem Dist.","district":"West Naseem ","latitude":"24.7326428276427","longitude":"46.8258686492809","id":"10100003167"},{"Unnamed: 0":362,"title":"مسجد","address":"3901 Prince Mohammed Ibn Salman Ibn Abdulaziz Rd - Hitteen Dist.","district":"Hitteen ","latitude":"24.7607344026981","longitude":"46.6010067638778","id":"10100003144"},{"Unnamed: 0":363,"title":"مسجد","address":"3008 abdul rahman al haji - Dhahrat Al Badeah Dist.","district":"hahrat Al Badeah ","latitude":"24.5972731060001","longitude":"46.6536822150002","id":"10100003091"},{"Unnamed: 0":364,"title":"مسجد","address":"5002 abdul rahman ibn mihanna - Al Quds Dist.","district":"Al Quds ","latitude":"24.754205044579","longitude":"46.7684729821269","id":"10100003081"},{"Unnamed: 0":365,"title":"مسجد","address":"7619 quraynat - Al Khaleej Dist.","district":"Al Khaleej ","latitude":"24.7712729580313","longitude":"46.7963417053195","id":"10100003055"},{"Unnamed: 0":366,"title":"مسجد","address":"3171 al hasan - Al Yarmuk Dist.","district":"Al Yarmuk ","latitude":"24.8138897723348","longitude":"46.7873053155288","id":"10100003139"},{"Unnamed: 0":367,"title":"مسجد","address":"8493 abi huraiyrah - East Naseem Dist.","district":"East Naseem ","latitude":"24.735866807742","longitude":"46.8390410967568","id":"10100003080"},{"Unnamed: 0":368,"title":"مسجد","address":"7188 muqbil uawida jabir al hajuri - Al Shohda Dist.","district":"Al Shohda ","latitude":"24.7867724199911","longitude":"46.7386604779512","id":"10100003016"},{"Unnamed: 0":369,"title":"مسجد","address":"3285 abdullah ibn shayiq - Qurtubah Dist.","district":"Qurtubah ","latitude":"24.8228414346772","longitude":"46.7262922419588","id":"10100003101"},{"Unnamed: 0":370,"title":"مسجد","address":"4267 hafsah bint umar - Al Rawdah Dist.","district":"Al Rawdah ","latitude":"24.7344236060597","longitude":"46.7777757957594","id":"10100003088"},{"Unnamed: 0":371,"title":"مسجد","address":"3061 street no. 211 - Al Munisiyah Dist.","district":"Al Munisiyah ","latitude":"24.8287395398223","longitude":"46.7781869526441","id":"10100003140"},{"Unnamed: 0":372,"title":"مسجد","address":"6666 al washm - Al Yarmuk Dist.","district":"Al Yarmuk ","latitude":"24.8124119820038","longitude":"46.8042426402099","id":"10100003139"},{"Unnamed: 0":373,"title":"مسجد","address":"4037 abi sufian ibn harb - Al Nuzha Dist.","district":"Al Nuzha ","latitude":"24.7593208858942","longitude":"46.7146873908064","id":"10100003025"},{"Unnamed: 0":374,"title":"مسجد","address":"7925  - Qurtubah Dist.","district":"Qurtubah ","latitude":"24.817493029994","longitude":"46.7468736245236","id":"10100003101"},{"Unnamed: 0":375,"title":"مسجد","address":"3926 al khazam - Ishbiliyah Dist.","district":"Ishbiliyah ","latitude":"24.7885730632547","longitude":"46.7852003401804","id":"10100003137"},{"Unnamed: 0":376,"title":"مسجد","address":"3469 al qarn al abyad - Al Shohda Dist.","district":"Al Shohda ","latitude":"24.7852650314438","longitude":"46.7367664269907","id":"10100003016"},{"Unnamed: 0":377,"title":"مسجد","address":"8053 nahawnd - Qurtubah Dist.","district":"Qurtubah ","latitude":"24.8187548833818","longitude":"46.7496725215073","id":"10100003101"},{"Unnamed: 0":378,"title":"مسجد","address":"3812 marj al qalaa - Al Rimal Dist.","district":"Al Rimal ","latitude":"24.8331479135682","longitude":"46.8032577566959","id":"10100003153"},{"Unnamed: 0":379,"title":"مسجد","address":"6899 Al Morooj - Al Hamra Dist.","district":"Al Hamra ","latitude":"24.7680184579717","longitude":"46.7380133441026","id":"10100003129"},{"Unnamed: 0":380,"title":"مسجد","address":"7616 kualalampur - Al Yarmuk Dist.","district":"Al Yarmuk ","latitude":"24.8136203776911","longitude":"46.7818552790675","id":"10100003139"},{"Unnamed: 0":381,"title":"مسجد","address":"6535 dhahban - Al Quds Dist.","district":"Al Quds ","latitude":"24.7448576157221","longitude":"46.7545566152597","id":"10100003081"},{"Unnamed: 0":382,"title":"مسجد","address":"8423 muhammad ibn ar rabi - Ishbiliyah Dist.","district":"Ishbiliyah ","latitude":"24.8030559413288","longitude":"46.8103884310689","id":"10100003137"},{"Unnamed: 0":383,"title":"مسجد","address":"2769 al hafidh al amawi - King Faisal Dist.","district":"King Faisal ","latitude":"24.7636934513564","longitude":"46.7667737596218","id":"10100003027"},{"Unnamed: 0":384,"title":"مسجد","address":"7836 Yusuf Al Aquli - Al Manar Dist.","district":"Al Manar ","latitude":"24.7290192849493","longitude":"46.7996890749043","id":"10100003079"},{"Unnamed: 0":385,"title":"مسجد","address":"6713 Ibn Hibban - Al Yamamah Dist.","district":"Al Yamamah ","latitude":"24.5915457999112","longitude":"46.7179624298786","id":"10100003070"},{"Unnamed: 0":386,"title":"مسجد","address":"3292 Prince Saud Ibn Mohammed Ibn Moqran - Al Rimal Dist.","district":"Al Rimal ","latitude":"24.8419002167083","longitude":"46.7905289178687","id":"10100003153"},{"Unnamed: 0":387,"title":"مسجد","address":"7498 ad duah - Al Hamra Dist.","district":"Al Hamra ","latitude":"24.7732796048862","longitude":"46.7416442231379","id":"10100003129"},{"Unnamed: 0":388,"title":"مسجد","address":"7489 al jibal - Al Hamra Dist.","district":"Al Hamra ","latitude":"24.7733662965824","longitude":"46.7340872334429","id":"10100003129"},{"Unnamed: 0":389,"title":"مسجد","address":"7209 ahmad ibn al ashari - East Naseem Dist.","district":"East Naseem ","latitude":"24.7241653611053","longitude":"46.8411351855341","id":"10100003080"},{"Unnamed: 0":390,"title":"مسجد","address":"7909 al baqrah - Al Yarmuk Dist.","district":"Al Yarmuk ","latitude":"24.8160189933581","longitude":"46.7937460405793","id":"10100003139"},{"Unnamed: 0":391,"title":"مسجد","address":"6411 muhammad al anbari - Ishbiliyah Dist.","district":"Ishbiliyah ","latitude":"24.7800382538881","longitude":"46.7783550819727","id":"10100003137"},{"Unnamed: 0":392,"title":"مسجد","address":"2815 qabis - Al Ezdihar Dist.","district":"Al Ezdihar ","latitude":"24.7837498307118","longitude":"46.7126369200282","id":"10100003086"},{"Unnamed: 0":393,"title":"مسجد","address":"3656 ibn wadih - Al Hamra Dist.","district":"Al Hamra ","latitude":"24.7810112535219","longitude":"46.7649676706673","id":"10100003129"},{"Unnamed: 0":394,"title":"مسجد","address":"7428 ahmad ibn muhammad as sadiri - Al Quds Dist.","district":"Al Quds ","latitude":"24.7533057005266","longitude":"46.7541324871661","id":"10100003081"},{"Unnamed: 0":395,"title":"مسجد","address":"7401 wadi waj - West Naseem Dist.","district":"West Naseem ","latitude":"24.7156921153806","longitude":"46.823565362068","id":"10100003167"},{"Unnamed: 0":396,"title":"مسجد","address":"2974 thabit ibn mari - West Naseem Dist.","district":"West Naseem ","latitude":"24.7414595039942","longitude":"46.813458431603","id":"10100003167"},{"Unnamed: 0":397,"title":"مسجد","address":"8087 at tabarani - Al Khaleej Dist.","district":"Al Khaleej ","latitude":"24.7859688276089","longitude":"46.82139158819","id":"10100003055"},{"Unnamed: 0":398,"title":"مسجد","address":"3202 al wajida - Al Yarmuk Dist.","district":"Al Yarmuk ","latitude":"24.8090603300446","longitude":"46.8055612472134","id":"10100003139"},{"Unnamed: 0":399,"title":"مسجد","address":"6951 mani ibn salim - Ishbiliyah Dist.","district":"Ishbiliyah ","latitude":"24.7849107555051","longitude":"46.785876954789","id":"10100003137"},{"Unnamed: 0":400,"title":"مسجد","address":"3004 al faradis - Ishbiliyah Dist.","district":"Ishbiliyah ","latitude":"24.7915826352783","longitude":"46.7761850978077","id":"10100003137"},{"Unnamed: 0":401,"title":"مسجد","address":"3510 matuq ibn abi al baqa - Al Rayan Dist.","district":"Al Rayan ","latitude":"24.7183052168741","longitude":"46.7765009449324","id":"10100003090"},{"Unnamed: 0":402,"title":"مسجد","address":"7183 abi huraiyrah - East Naseem Dist.","district":"East Naseem ","latitude":"24.7470225289626","longitude":"46.8307950845555","id":"10100003080"},{"Unnamed: 0":403,"title":"مسجد","address":"7142 al shadida - Qurtubah Dist.","district":"Qurtubah ","latitude":"24.8190842081503","longitude":"46.7294029070323","id":"10100003101"},{"Unnamed: 0":404,"title":"مسجد","address":"3460 uthman ibn isa - Al Ezdihar Dist.","district":"Al Ezdihar ","latitude":"24.7863339638319","longitude":"46.7188476691809","id":"10100003086"},{"Unnamed: 0":405,"title":"مسجد","address":"4308 at tuwailah - King Faisal Dist.","district":"King Faisal ","latitude":"24.7650549722572","longitude":"46.7820664157833","id":"10100003027"},{"Unnamed: 0":406,"title":"مسجد","address":"8507 sulaiman ibn batti - King Faisal Dist.","district":"King Faisal ","latitude":"24.769527764083","longitude":"46.7789969110858","id":"10100003027"},{"Unnamed: 0":407,"title":"مسجد","address":"8609 asim ibn haram - King Faisal Dist.","district":"King Faisal ","latitude":"24.7705974507782","longitude":"46.7694917575213","id":"10100003027"},{"Unnamed: 0":408,"title":"مسجد","address":"8387 amr ibn utab - Al Wahah Dist.","district":"Al Wahah ","latitude":"24.7418021837522","longitude":"46.7135085364234","id":"10100003042"},{"Unnamed: 0":409,"title":"مسجد","address":"7050 ibn al qallas - Al Hamra Dist.","district":"Al Hamra ","latitude":"24.7772451814435","longitude":"46.7639081065956","id":"10100003129"},{"Unnamed: 0":410,"title":"مسجد","address":"6697 al haysiyah - Al Olaya Dist.","district":"Al Olaya ","latitude":"24.686310011","longitude":"46.697206907","id":"10100003075"},{"Unnamed: 0":411,"title":"مسجد","address":"7582 Shujaa Bin Wahab - Al Olaya Dist.","district":"Al Olaya ","latitude":"24.6943517630002","longitude":"46.69242448","id":"10100003075"},{"Unnamed: 0":412,"title":"مسجد","address":"3190 sulaiman ibn ali ash shaikh - Al Olaya Dist.","district":"Al Olaya ","latitude":"24.6888676100002","longitude":"46.6954697790002","id":"10100003075"},{"Unnamed: 0":413,"title":"مسجد","address":"2567 Al Rabea Bin Anas - Al Olaya Dist.","district":"Al Olaya ","latitude":"24.6910311260002","longitude":"46.6893119330002","id":"10100003075"},{"Unnamed: 0":414,"title":"مسجد","address":"2828 prince fahad ibn saad ibn abdulrahman - Al Sulaimaniyah Dist.","district":"Al Sulaimaniyah ","latitude":"24.6902973890001","longitude":"46.7071181650001","id":"10100003063"},{"Unnamed: 0":415,"title":"مسجد","address":"3560 ahmad at tartush - Al Olaya Dist.","district":"Al Olaya ","latitude":"24.692519614","longitude":"46.6991643280001","id":"10100003075"},{"Unnamed: 0":416,"title":"مسجد","address":"2282 al bishari - Al Olaya Dist.","district":"Al Olaya ","latitude":"24.696916222","longitude":"46.6866453280001","id":"10100003075"},{"Unnamed: 0":417,"title":"مسجد","address":"3033 abdullah ibn sulaiman al hamadan - Al Sulaimaniyah Dist.","district":"Al Sulaimaniyah ","latitude":"24.6990809440001","longitude":"46.693883117","id":"10100003063"},{"Unnamed: 0":418,"title":"مسجد","address":"2678 al khawarazmi - Al Olaya Dist.","district":"Al Olaya ","latitude":"24.685900684","longitude":"46.690403103","id":"10100003075"},{"Unnamed: 0":419,"title":"مسجد","address":"8074 king muhammad v - Al Sulaimaniyah Dist.","district":"Al Sulaimaniyah ","latitude":"24.6985069990001","longitude":"46.7028043100001","id":"10100003063"},{"Unnamed: 0":420,"title":"مسجد","address":"7181 as sahabah - Ishbiliyah Dist.","district":"Ishbiliyah ","latitude":"24.7921690871241","longitude":"46.7885046745963","id":"10100003137"},{"Unnamed: 0":421,"title":"مسجد","address":"7066 ash shaikh hasan ibn hussain ibn ali - Ghirnatah Dist.","district":"Ghirnatah ","latitude":"24.7931733265717","longitude":"46.7646924557653","id":"10100003155"},{"Unnamed: 0":422,"title":"مسجد","address":"3060 al masani - Al Hamra Dist.","district":"Al Hamra ","latitude":"24.7726067668812","longitude":"46.7589459950248","id":"10100003129"},{"Unnamed: 0":423,"title":"مسجد","address":"8151 al bayan - Al Hamra Dist.","district":"Al Hamra ","latitude":"24.7791380462584","longitude":"46.7464450313653","id":"10100003129"},{"Unnamed: 0":424,"title":"مسجد","address":"4217 al umraniyah - West Naseem Dist.","district":"West Naseem ","latitude":"24.7253646094521","longitude":"46.8371194881676","id":"10100003167"},{"Unnamed: 0":425,"title":"مسجد","address":"8533 iyad ibn mubad - Al Khaleej Dist.","district":"Al Khaleej ","latitude":"24.7795018268687","longitude":"46.7973850218095","id":"10100003055"},{"Unnamed: 0":426,"title":"مسجد","address":"5072  - King Khalid International Airport","district":"King Khalid International Airpo","latitude":"24.8553390231035","longitude":"46.7287743909533","id":"10100003149"},{"Unnamed: 0":427,"title":"مسجد","address":"4453 az zarqa - Al Nakheel Dist.","district":"Al Nakheel ","latitude":"24.7450496348695","longitude":"46.6146628789438","id":"10100003108"},{"Unnamed: 0":428,"title":"مسجد","address":"6781 ghazwan - Al Munisiyah Dist.","district":"Al Munisiyah ","latitude":"24.8222830706713","longitude":"46.7772701463185","id":"10100003140"},{"Unnamed: 0":429,"title":"مسجد","address":"3293 az zaytunah - Al Manar Dist.","district":"Al Manar ","latitude":"24.7331373556052","longitude":"46.796175403666","id":"10100003079"},{"Unnamed: 0":430,"title":"مسجد","address":"8054  - King Khalid International Airport","district":"King Khalid International Airpo","latitude":"24.8634065616088","longitude":"46.7233952528165","id":"10100003149"},{"Unnamed: 0":431,"title":"مسجد","address":"2951 al qamari - Ishbiliyah Dist.","district":"Ishbiliyah ","latitude":"24.7864837477752","longitude":"46.7755784938821","id":"10100003137"},{"Unnamed: 0":432,"title":"مسجد","address":"7726 Othman Bin Sulayman - Ghirnatah Dist.","district":"Ghirnatah ","latitude":"24.7992164450328","longitude":"46.7569479755542","id":"10100003155"},{"Unnamed: 0":433,"title":"مسجد","address":"7321 street no. 256 - Al Munisiyah Dist.","district":"Al Munisiyah ","latitude":"24.8271557309191","longitude":"46.7728381622492","id":"10100003140"},{"Unnamed: 0":434,"title":"مسجد","address":"3167 no. 31 - Al Shohda Dist.","district":"Al Shohda ","latitude":"24.7912274848322","longitude":"46.7339345669953","id":"10100003016"},{"Unnamed: 0":435,"title":"مسجد","address":"3094 al ukhaidarat - Al Manar Dist.","district":"Al Manar ","latitude":"24.7276648957448","longitude":"46.7941696771551","id":"10100003079"},{"Unnamed: 0":436,"title":"مسجد","address":"3296 al qutn - Al Quds Dist.","district":"Al Quds ","latitude":"24.7518125887455","longitude":"46.7513604150944","id":"10100003081"},{"Unnamed: 0":437,"title":"مسجد","address":"7387 yahya as sanhaji - Al Quds Dist.","district":"Al Quds ","latitude":"24.7524978140286","longitude":"46.7606112835928","id":"10100003081"},{"Unnamed: 0":438,"title":"مسجد","address":"2701 hilwan - Qurtubah Dist.","district":"Qurtubah ","latitude":"24.8060514430336","longitude":"46.7387377917693","id":"10100003101"},{"Unnamed: 0":439,"title":"مسجد","address":"4097 as suwaidawi - West Naseem Dist.","district":"West Naseem ","latitude":"24.7405806956781","longitude":"46.8244073191671","id":"10100003167"},{"Unnamed: 0":440,"title":"مسجد","address":"3088 street no. 69 - Al Munisiyah Dist.","district":"Al Munisiyah ","latitude":"24.8124893717677","longitude":"46.7599565277393","id":"10100003140"},{"Unnamed: 0":441,"title":"مسجد","address":"6811 himud ayid fahad al harbi - Al Shohda Dist.","district":"Al Shohda ","latitude":"24.7835164845237","longitude":"46.7338324325975","id":"10100003016"},{"Unnamed: 0":442,"title":"مسجد","address":"6640 Mohammad Al Qurtubi - Al Khaleej Dist.","district":"Al Khaleej ","latitude":"24.7624422215453","longitude":"46.796408321924","id":"10100003055"},{"Unnamed: 0":443,"title":"مسجد","address":"3631 street no. 357 - Al Munisiyah Dist.","district":"Al Munisiyah ","latitude":"24.8295455088237","longitude":"46.7586071895724","id":"10100003140"},{"Unnamed: 0":444,"title":"مسجد","address":"4123 al wasiah - Al Yarmuk Dist.","district":"Al Yarmuk ","latitude":"24.8110670088263","longitude":"46.7968940604997","id":"10100003139"},{"Unnamed: 0":445,"title":"مسجد","address":"6853 muhammad ad dimayati - Al Quds Dist.","district":"Al Quds ","latitude":"24.7477141059648","longitude":"46.7496423649329","id":"10100003081"},{"Unnamed: 0":446,"title":"مسجد","address":"4053 ibn farhun - Al Olaya Dist.","district":"Al Olaya ","latitude":"24.684671893","longitude":"46.6835747270001","id":"10100003075"},{"Unnamed: 0":447,"title":"مسجد","address":"3108 al adhra - North Mathar Dist.","district":"North Mathar ","latitude":"24.6812064660001","longitude":"46.6741625690001","id":"10100003011"},{"Unnamed: 0":448,"title":"مسجد","address":"6470 Jebal Al Sarawat - North Mathar Dist.","district":"North Mathar ","latitude":"24.6790300210001","longitude":"46.6770289680002","id":"10100003011"},{"Unnamed: 0":449,"title":"مسجد","address":"2588 al adhra - North Mathar Dist.","district":"North Mathar ","latitude":"24.6789615070001","longitude":"46.6690064640001","id":"10100003011"},{"Unnamed: 0":450,"title":"مسجد","address":"2780 al adhra - North Mathar Dist.","district":"North Mathar ","latitude":"24.6797360510002","longitude":"46.6709116100001","id":"10100003011"},{"Unnamed: 0":451,"title":"مسجد","address":"6971 skaka - Al Olaya Dist.","district":"Al Olaya ","latitude":"24.683556498","longitude":"46.6772617560001","id":"10100003075"},{"Unnamed: 0":452,"title":"مسجد","address":"2657 raml al buhuth - North Mathar Dist.","district":"North Mathar ","latitude":"24.6799219760001","longitude":"46.6696921460001","id":"10100003011"},{"Unnamed: 0":453,"title":"مسجد","address":"2938 ibn najm - North Mathar Dist.","district":"North Mathar ","latitude":"24.6792101300001","longitude":"46.6724583430001","id":"10100003011"},{"Unnamed: 0":454,"title":"مسجد","address":"2922 ar raqah - North Mathar Dist.","district":"North Mathar ","latitude":"24.6827222260001","longitude":"46.6722926940002","id":"10100003011"},{"Unnamed: 0":455,"title":"مسجد","address":"6263 al amir turki ibn abdul aziz (al awwal) branch roa - North Mathar Dist.","district":"North Mathar ","latitude":"24.6771939550002","longitude":"46.66846508","id":"10100003011"},{"Unnamed: 0":456,"title":"مسجد","address":"3338 hasan ibn rahmah - West Umm Al Hamam Dist.","district":"West Umm Al Hamam ","latitude":"24.6841101110001","longitude":"46.6427423460001","id":"10100003012"},{"Unnamed: 0":457,"title":"مسجد","address":"8061 ras as sad - West Umm Al Hamam Dist.","district":"West Umm Al Hamam ","latitude":"24.693173633","longitude":"46.6482740500001","id":"10100003012"},{"Unnamed: 0":458,"title":"مسجد","address":"4862  - East Umm Al Hamam Dist.","district":"East Umm Al Hamam ","latitude":"24.6909974730001","longitude":"46.6579497930001","id":"10100003008"},{"Unnamed: 0":459,"title":"مسجد","address":"8144 prince turki ibn abdulaziz al awwal rd - East Umm Al Hamam Dist.","district":"East Umm Al Hamam ","latitude":"24.693807884","longitude":"46.659031532","id":"10100003008"},{"Unnamed: 0":460,"title":"مسجد","address":"7740 khalf al fara - West Umm Al Hamam Dist.","district":"West Umm Al Hamam ","latitude":"24.6902898270002","longitude":"46.6457732260001","id":"10100003012"},{"Unnamed: 0":461,"title":"مسجد","address":"2978 ash shaikh muhammad ibn salih al uthaymin - West Umm Al Hamam Dist.","district":"West Umm Al Hamam ","latitude":"24.6852816180001","longitude":"46.6390814300001","id":"10100003012"},{"Unnamed: 0":462,"title":"مسجد","address":"8390  - East Umm Al Hamam Dist.","district":"East Umm Al Hamam ","latitude":"24.6961163540001","longitude":"46.6564059830001","id":"10100003008"},{"Unnamed: 0":463,"title":"مسجد","address":"4043 prince nawaf ibn abdulaziz - West Umm Al Hamam Dist.","district":"West Umm Al Hamam ","latitude":"24.6889374400001","longitude":"46.6498107910001","id":"10100003012"},{"Unnamed: 0":464,"title":"مسجد","address":"8109 Thabit Bin Hazm - East Umm Al Hamam Dist.","district":"East Umm Al Hamam ","latitude":"24.6935285690001","longitude":"46.6560070710001","id":"10100003008"},{"Unnamed: 0":465,"title":"مسجد","address":"7706 mhail - West Umm Al Hamam Dist.","district":"West Umm Al Hamam ","latitude":"24.6899850300001","longitude":"46.6477446600002","id":"10100003012"},{"Unnamed: 0":466,"title":"مسجد","address":"6654 abi al qasim al ansari - King Faisal Dist.","district":"King Faisal ","latitude":"24.7529128206905","longitude":"46.7804629763269","id":"10100003027"},{"Unnamed: 0":467,"title":"مسجد","address":"4151 hasan ibn rahmah - West Umm Al Hamam Dist.","district":"West Umm Al Hamam ","latitude":"24.6843922880001","longitude":"46.6508306110001","id":"10100003012"},{"Unnamed: 0":468,"title":"مسجد","address":"2798 no 62 - Al Olaya Dist.","district":"Al Olaya ","latitude":"24.7002081510001","longitude":"46.6797658420002","id":"10100003075"},{"Unnamed: 0":469,"title":"مسجد","address":"3370 al isa - West Umm Al Hamam Dist.","district":"West Umm Al Hamam ","latitude":"24.6873429820001","longitude":"46.6431180320001","id":"10100003012"},{"Unnamed: 0":470,"title":"مسجد","address":"3430 Jabal Ali - Ghirnatah Dist.","district":"Ghirnatah ","latitude":"24.8016402373152","longitude":"46.7544991114242","id":"10100003155"},{"Unnamed: 0":471,"title":"مسجد","address":"6891 al ulaya - Al Olaya Dist.","district":"Al Olaya ","latitude":"24.6881682430001","longitude":"46.6886484710001","id":"10100003075"},{"Unnamed: 0":472,"title":"مسجد","address":"7855 shahir - East Umm Al Hamam Dist.","district":"East Umm Al Hamam ","latitude":"24.6912443320002","longitude":"46.6509890990001","id":"10100003008"},{"Unnamed: 0":473,"title":"مسجد","address":"7011 abdulaziz an nashmi - Al Munisiyah Dist.","district":"Al Munisiyah ","latitude":"24.8242708961901","longitude":"46.78644502673","id":"10100003140"},{"Unnamed: 0":474,"title":"مسجد","address":"2367 tahir zamakhshari - Al Olaya Dist.","district":"Al Olaya ","latitude":"24.6946748190001","longitude":"46.6874939110002","id":"10100003075"},{"Unnamed: 0":475,"title":"مسجد","address":"4400 ahdath - East Umm Al Hamam Dist.","district":"East Umm Al Hamam ","latitude":"24.6907042900001","longitude":"46.6533785180002","id":"10100003008"},{"Unnamed: 0":476,"title":"مسجد","address":"7863 hadhwi - Al Khaleej Dist.","district":"Al Khaleej ","latitude":"24.77368926281","longitude":"46.7806946580565","id":"10100003055"},{"Unnamed: 0":477,"title":"مسجد","address":"3843 king abdullah ibn abdul aziz rd - Al Quds Dist.","district":"Al Quds ","latitude":"24.7662143944611","longitude":"46.7574381900719","id":"10100003081"},{"Unnamed: 0":478,"title":"مسجد","address":"2687 al imam abdullah ibn saud ibn abdulaziz rd - Ishbiliyah Dist.","district":"Ishbiliyah ","latitude":"24.8013132415837","longitude":"46.7911263112763","id":"10100003137"},{"Unnamed: 0":479,"title":"مسجد","address":"6548 ahmad ibn muhammad as sadiri - Al Quds Dist.","district":"Al Quds ","latitude":"24.7450217458367","longitude":"46.7529563592486","id":"10100003081"},{"Unnamed: 0":480,"title":"مسجد","address":"3399 al amir saud ibn abdul aziz al saud al kabir - Al Quds Dist.","district":"Al Quds ","latitude":"24.7567920465065","longitude":"46.7526939012626","id":"10100003081"},{"Unnamed: 0":481,"title":"مسجد","address":"3345 ibn sahim - Al Quds Dist.","district":"Al Quds ","latitude":"24.7635638543554","longitude":"46.7522033391558","id":"10100003081"},{"Unnamed: 0":482,"title":"مسجد","address":"4075 al junaifi - Al Maseef Dist.","district":"Al Maseef ","latitude":"24.7594127894388","longitude":"46.6887586653809","id":"10100003084"},{"Unnamed: 0":483,"title":"مسجد","address":"2240 al maymanah - Al Ezdihar Dist.","district":"Al Ezdihar ","latitude":"24.7828896655405","longitude":"46.7068141629314","id":"10100003086"},{"Unnamed: 0":484,"title":"مسجد","address":"3506 ali al iraqi - Al Mughrazat Dist.","district":"Al Mughrazat ","latitude":"24.7607022623506","longitude":"46.7275519368203","id":"10100003105"},{"Unnamed: 0":485,"title":"مسجد","address":"7669 Abi Al Azaem - Al Ezdihar Dist.","district":"Al Ezdihar ","latitude":"24.7835541002153","longitude":"46.7157346253043","id":"10100003086"},{"Unnamed: 0":486,"title":"مسجد","address":"3245 al wedian - King Abdullah Dist.","district":"King Abdullah ","latitude":"24.7341592158487","longitude":"46.7446846974693","id":"10100003041"},{"Unnamed: 0":487,"title":"مسجد","address":"7738 as sahah - Al Mughrazat Dist.","district":"Al Mughrazat ","latitude":"24.7675713759205","longitude":"46.7210358456904","id":"10100003105"},{"Unnamed: 0":488,"title":"مسجد","address":"8283 al amir mishal ibn abdul aziz - Assafarat Dist.","district":"Assafarat ","latitude":"24.6888759540001","longitude":"46.6138038400001","id":"10100003099"},{"Unnamed: 0":489,"title":"مسجد","address":"3424 al qamar - King Abdullah Dist.","district":"King Abdullah ","latitude":"24.7300189536985","longitude":"46.7464633445712","id":"10100003041"},{"Unnamed: 0":490,"title":"مسجد","address":"2432 al hussain ibn ali - Al Ezdihar Dist.","district":"Al Ezdihar ","latitude":"24.7779948237288","longitude":"46.7084349359804","id":"10100003086"},{"Unnamed: 0":491,"title":"مسجد","address":"4989 jabal al amirine - Irqah","district":"Irqah","latitude":"24.6896809610001","longitude":"46.6119821560002","id":"10100003142"},{"Unnamed: 0":492,"title":"مسجد","address":"4858  - Irqah","district":"Irqah","latitude":"24.690434191","longitude":"46.6106387780001","id":"10100003142"},{"Unnamed: 0":493,"title":"مسجد","address":"3770 al ladayed - Dhahrat Laban Dist.","district":"hahrat Laban ","latitude":"24.6549288480001","longitude":"46.5741410250001","id":"10100003143"},{"Unnamed: 0":494,"title":"مسجد","address":"3847 as sihah - Irqah","district":"Irqah","latitude":"24.6892066520002","longitude":"46.6005706340001","id":"10100003142"},{"Unnamed: 0":495,"title":"مسجد","address":"4079 wadi al baqar - Al Khuzama Dist.","district":"Al Khuzama ","latitude":"24.705658946","longitude":"46.618348118","id":"10100003141"},{"Unnamed: 0":496,"title":"مسجد","address":"8358 said ibn al harith as sahmi - Irqah","district":"Irqah","latitude":"24.6899437150001","longitude":"46.5965541890001","id":"10100003142"},{"Unnamed: 0":497,"title":"مسجد","address":"3868 ahmad ibn mani - Irqah","district":"Irqah","latitude":"24.6904272700001","longitude":"46.6009243960001","id":"10100003142"},{"Unnamed: 0":498,"title":"مسجد","address":"2461 al ashira - Dhahrat Laban Dist.","district":"hahrat Laban ","latitude":"24.6555902690001","longitude":"46.5819919570001","id":"10100003143"},{"Unnamed: 0":499,"title":"مسجد","address":"6973 Nahmoud Bin Al Mubarak - Al Zahrah Dist.","district":"Al Zahrah ","latitude":"24.5698711740002","longitude":"46.6452815980001","id":"10100003067"},{"Unnamed: 0":500,"title":"مسجد","address":"3672 yehia almoalamy - Al Rimal Dist.","district":"Al Rimal ","latitude":"24.837492601162","longitude":"46.8019542482994","id":"10100003153"},{"Unnamed: 0":501,"title":"مسجد","address":"7061 at taadiyn - Al Munisiyah Dist.","district":"Al Munisiyah ","latitude":"24.8337100555923","longitude":"46.7601068355173","id":"10100003140"},{"Unnamed: 0":502,"title":"مسجد","address":"3515 muhammad an nuwairi - West Naseem Dist.","district":"West Naseem ","latitude":"24.7330445823824","longitude":"46.8303046341177","id":"10100003167"},{"Unnamed: 0":503,"title":"مسجد","address":"6525 Ibn Al Manfaluti - Al Suwaidi Dist.","district":"Al Suwaidi ","latitude":"24.586096114","longitude":"46.6574480150002","id":"10100003018"},{"Unnamed: 0":504,"title":"مسجد","address":"6457 ibn ghannam - East Naseem Dist.","district":"East Naseem ","latitude":"24.7404237107383","longitude":"46.8298157943756","id":"10100003080"},{"Unnamed: 0":505,"title":"مسجد","address":"8387 abi falih al ansari - Al Suwaidi Dist.","district":"Al Suwaidi ","latitude":"24.5908941950001","longitude":"46.6788409430001","id":"10100003018"},{"Unnamed: 0":506,"title":"مسجد","address":"7842 al manaqeb valley - Al Qadisiyah Dist.","district":"Al Qadisiyah ","latitude":"24.8229099711351","longitude":"46.8132427632185","id":"10100003073"},{"Unnamed: 0":507,"title":"مسجد","address":"3289 abdul malik al qashuri - Al Shifa Dist.","district":"Al Shifa ","latitude":"24.5761660900002","longitude":"46.7085696020001","id":"10100003061"},{"Unnamed: 0":508,"title":"مسجد","address":"6692 al hamadhani - Al Badeah Dist.","district":"Al Badeah ","latitude":"24.6109801190001","longitude":"46.6744103140001","id":"10100003071"},{"Unnamed: 0":509,"title":"مسجد","address":"7779 ibn al mutamid - Al Suwaidi Dist.","district":"Al Suwaidi ","latitude":"24.5972579070001","longitude":"46.6768922150002","id":"10100003018"},{"Unnamed: 0":510,"title":"مسجد","address":"3194 ash shujun - Al Badeah Dist.","district":"Al Badeah ","latitude":"24.6186354020001","longitude":"46.686602092","id":"10100003071"},{"Unnamed: 0":511,"title":"مسجد","address":"8246 makki al mamuni - Dhahrat Al Badeah Dist.","district":"hahrat Al Badeah ","latitude":"24.6017032470001","longitude":"46.6486130640001","id":"10100003091"},{"Unnamed: 0":512,"title":"مسجد","address":"2631 samahat ash shaikh abdul aziz ibn baz - Al Badeah Dist.","district":"Al Badeah ","latitude":"24.6206581250001","longitude":"46.6811391920001","id":"10100003071"},{"Unnamed: 0":513,"title":"مسجد","address":"4076 ash shaikh abdul aziz ibn abdullah ibn baz - Dhahrat Al Badeah Dist.","district":"hahrat Al Badeah ","latitude":"24.6073511440001","longitude":"46.6642972280001","id":"10100003091"},{"Unnamed: 0":514,"title":"مسجد","address":"5270 as suwaidi al am - Siyah Dist.","district":"Siyah ","latitude":"24.6033291390002","longitude":"46.702300284","id":"10100003068"},{"Unnamed: 0":515,"title":"مسجد","address":"3771 Al Dir - Al Khuzama Dist.","district":"Al Khuzama ","latitude":"24.6995733410002","longitude":"46.6152925050001","id":"10100003141"},{"Unnamed: 0":516,"title":"مسجد","address":"7593 al imam al shawkani - Al Murabba Dist.","district":"Al Murabba ","latitude":"24.6646448710002","longitude":"46.7054602610001","id":"10100003021"},{"Unnamed: 0":517,"title":"مسجد","address":"3014 al zaid - Al Dirah Dist.","district":"Al Dirah ","latitude":"24.63586502","longitude":"46.712082895","id":"10100003007"},{"Unnamed: 0":518,"title":"مسجد","address":"4410 al hadithah - Al Olaya Dist.","district":"Al Olaya ","latitude":"24.6951288200001","longitude":"46.677710905","id":"10100003075"},{"Unnamed: 0":519,"title":"مسجد","address":"3234 abdul latif al khaimi - Al Murabba Dist.","district":"Al Murabba ","latitude":"24.6657678370001","longitude":"46.700891347","id":"10100003021"},{"Unnamed: 0":520,"title":"مسجد","address":"7794 abdul halim ibn al faras - Al Futah Dist.","district":"Al Futah ","latitude":"24.6389713930001","longitude":"46.710293989","id":"10100003121"},{"Unnamed: 0":521,"title":"مسجد","address":"7332 Al Balda - Al Khuzama Dist.","district":"Al Khuzama ","latitude":"24.7034622790001","longitude":"46.6175910000001","id":"10100003141"},{"Unnamed: 0":522,"title":"مسجد","address":"7664 al hafidh al kabir - Al Wizarat Dist.","district":"Al Wizarat ","latitude":"24.6796122060002","longitude":"46.7105853210001","id":"10100003045"},{"Unnamed: 0":523,"title":"مسجد","address":"2722 Shaddad Bin Aws - Al Olaya Dist.","district":"Al Olaya ","latitude":"24.6790455870001","longitude":"46.696128913","id":"10100003075"},{"Unnamed: 0":524,"title":"مسجد","address":"6581 ibn an nadim - Al Murabba Dist.","district":"Al Murabba ","latitude":"24.6699977180001","longitude":"46.7088065120001","id":"10100003021"},{"Unnamed: 0":525,"title":"مسجد","address":"7809 king fahd branch road - Al Futah Dist.","district":"Al Futah ","latitude":"24.6391728800002","longitude":"46.7043687780001","id":"10100003121"},{"Unnamed: 0":526,"title":"مسجد","address":"2460 abi umran ar rashid - Al Dirah Dist.","district":"Al Dirah ","latitude":"24.636196453","longitude":"46.7065606530002","id":"10100003007"},