[{"Unnamed: 0":0,"title":"حديقة الجبل","address":"7144 Al Maeer Sattam Bin Abdulaziz - Al Rafeah Dist.","district":"Al Rafeah ","latitude":"24.6357319790001","longitude":"46.673133527","id":"10100003015"},{"Unnamed: 0":1,"title":"حديقة الروابي الثالثة","address":"3528 Al Zubair Bin Al Awwam - Al Rawabi Dist.","district":"Al Rawabi ","latitude":"24.6940664167773","longitude":"46.7885719700167","id":"10100003089"},{"Unnamed: 0":4,"title":"حديقة العريجاء","address":"7757 shubah al anbari - West Oraija Dist.","district":"West Oraija ","latitude":"24.592378733","longitude":"46.6153523790001","id":"10100003126"},{"Unnamed: 0":5,"title":"حديقة الغدير","address":"4053 al balidah - Al Ghadeer Dist.","district":"Al Ghadeer ","latitude":"24.7820689374639","longitude":"46.6593464742666","id":"10100003109"},{"Unnamed: 0":6,"title":"حديقة اللولو","address":"8112  - Namar Dist.","district":"Namar ","latitude":"24.5674534590001","longitude":"46.6676774380001","id":"10100003060"},{"Unnamed: 0":7,"title":"حديقة الوادي","address":"7001 sultanah - Al Badeah Dist.","district":"Al Badeah ","latitude":"24.6128320040001","longitude":"46.6849564660001","id":"10100003071"},{"Unnamed: 0":8,"title":"حديقة الحاير","address":"8008  - Al Ghannamiyah Dist.","district":"Al Ghannamiyah ","latitude":"24.4605509279613","longitude":"46.8009684745582","id":"10100003162"},{"Unnamed: 0":10,"title":"منتزه الخيمة","address":"3284 Al Shaikh Abdullah Al Anqari - Al Woroud Dist.","district":"Al Woroud ","latitude":"24.7252280676593","longitude":"46.6800448826906","id":"10100003026"},{"Unnamed: 0":12,"title":"منتزه عليشة","address":"2276 Hudhayfah Bin Al Yaman - Olaishah Dist.","district":"Olaishah ","latitude":"24.6295247520002","longitude":"46.6776635100001","id":"10100003053"},{"Unnamed: 0":13,"title":"حديقة المونسية","address":"4566 ad dammam rd - Al Munisiyah Dist.","district":"Al Munisiyah ","latitude":"24.8155796529975","longitude":"46.7748512659572","id":"10100003140"},{"Unnamed: 0":15,"title":"حديقة الحمراء","address":"3162 al bustani - Al Hamra Dist.","district":"Al Hamra ","latitude":"24.7863601334846","longitude":"46.7600332404333","id":"10100003129"},{"Unnamed: 0":16,"title":"حديقة الربوة","address":"6610 al amir muhammad ibn abdul aziz al as saud - Al Rabwah Dist.","district":"Al Rabwah ","latitude":"24.6938912169804","longitude":"46.7580634046284","id":"10100003047"},{"Unnamed: 0":17,"title":"حديقة الحمراء","address":"7527 turki ibn hamid - Al Hamra Dist.","district":"Al Hamra ","latitude":"24.7814881870753","longitude":"46.7613074418019","id":"10100003129"},{"Unnamed: 0":18,"title":"حديقة النزهه","address":"7121 al qadsiyyah - Al Nuzha Dist.","district":"Al Nuzha ","latitude":"24.7542449195408","longitude":"46.7151074390407","id":"10100003025"},{"Unnamed: 0":31,"title":"حديقة العقيق","address":"3812 at tahliyah - Al Aqeeq Dist.","district":"Al Aqeeq ","latitude":"24.7832775379273","longitude":"46.6299812558771","id":"10100003107"},{"Unnamed: 0":33,"title":"حديقة","address":"hbilia\"","district":"Street': 'as sammak","latitude":"UnitNumber': Non","longitude":"atitude': '24.7891592604806","id":"PKAddressID': '1322668703774"},{"Unnamed: 0":36,"title":"حديقة ترفيهيه","address":"6815 wadi as sarh - Al Wadi Dist.","district":"Al Wadi ","latitude":"24.7845874838295","longitude":"46.6952296083986","id":"10100003082"},{"Unnamed: 0":37,"title":"حديقة الحائر","address":"7026 al hair rd - Al Haer Dist.","district":"Al Haer ","latitude":"24.4215044406697","longitude":"46.8349996951288","id":"10100003159"},{"Unnamed: 0":39,"title":"حديقة العقيق","address":"3303 abdulmalik ibn shahwin - Al Aqeeq Dist.","district":"Al Aqeeq ","latitude":"24.7817201569043","longitude":"46.6253699556257","id":"10100003107"},{"Unnamed: 0":40,"title":"حديقة إشبيلية","address":"4428 muhammad ibn ar rabi - Ishbiliyah Dist.","district":"Ishbiliyah ","latitude":"24.8035449205655","longitude":"46.8082112242485","id":"10100003137"},{"Unnamed: 0":41,"title":"حديقة المعالم","address":"7198 eastern ring rd - Al Mughrazat Dist.","district":"Al Mughrazat ","latitude":"24.7622156479326","longitude":"46.7352396769057","id":"10100003105"},{"Unnamed: 0":42,"title":"منتزه","address":"7763 al amir abdul rahman ibn abdul aziz - Al Wizarat Dist.","district":"Al Wizarat ","latitude":"24.6806346690001","longitude":"46.7089634080001","id":"10100003045"},{"Unnamed: 0":44,"title":"حديقة إشبيلية الثانية","address":"2549 al jarrani - Ishbiliyah Dist.","district":"Ishbiliyah ","latitude":"24.7943168063687","longitude":"46.7896298308166","id":"10100003137"},{"Unnamed: 0":50,"title":"منتزه","address":"2927 al qasim ibn at taylasani - Middle Oraija Dist.","district":"Middle Oraija ","latitude":"24.612647403","longitude":"46.6375511510001","id":"10100003128"},{"Unnamed: 0":54,"title":"منتزه","address":"6708 al ataya - Al Rawdah Dist.","district":"Al Rawdah ","latitude":"24.7334498971482","longitude":"46.761884084848","id":"10100003088"},{"Unnamed: 0":55,"title":"حديقة الرمال","address":"3304 al muzahmiyah - Al Rabwah Dist.","district":"Al Rabwah ","latitude":"24.7017885604374","longitude":"46.7580210994568","id":"10100003047"},{"Unnamed: 0":57,"title":"منتزه","address":"3149 abdulaziz hasan al faduli - Al Nafel Dist.","district":"Al Nafel ","latitude":"24.7731571860959","longitude":"46.6713118683803","id":"10100003083"},{"Unnamed: 0":61,"title":"حديقة الرياض","address":"2886 northern ring rd - Al Aqeeq Dist.","district":"Al Aqeeq ","latitude":"24.7563565826293","longitude":"46.6300571453062","id":"10100003107"},{"Unnamed: 0":64,"title":"حديقة سابك","address":"6575 airport branch rd - Qurtubah Dist.","district":"Qurtubah ","latitude":"24.7956634338588","longitude":"46.7248554116437","id":"10100003101"},{"Unnamed: 0":66,"title":"حديقة الروضة","address":"4031 hafsa bint umar - Al Rawdah Dist.","district":"Al Rawdah ","latitude":"24.7313724232118","longitude":"46.7754132289268","id":"10100003088"},{"Unnamed: 0":70,"title":"سكاي بارك الرياض","address":"6441 ash shaikh jabir al ahmad as sabbah - Al Rimal Dist.","district":"Al Rimal ","latitude":"24.8266539784352","longitude":"46.7968440068241","id":"10100003153"},{"Unnamed: 0":72,"title":"حديقة الشهداء","address":"3808 muhammadali junah - Al Shohda Dist.","district":"Al Shohda ","latitude":"24.790093888969","longitude":"46.7400980802162","id":"10100003016"},{"Unnamed: 0":74,"title":"حديقة الشهداء","address":"4017 abi jaafar al mansur - Al Shohda Dist.","district":"Al Shohda ","latitude":"24.7910504322933","longitude":"46.7422538718876","id":"10100003016"},{"Unnamed: 0":75,"title":"حديقة","address":"ast of riyadh","district":"Street': 'al imam abdullah ibn saud ibn abdul aziz rd","latitude":"UnitNumber': Non","longitude":"atitude': '24.8171252945251","id":"PKAddressID': '1326130066323"}]