[{"Unnamed: 0":0,"title":"\"aba'ad pharmacy\"","address":"4049 al warad - Namar Dist.","district":"Namar ","latitude":24.576553034,"longitude":46.691991322,"id":10100003060},{"Unnamed: 0":1,"title":"abbott pharmacy","address":"3140 asfan - Al Zahra Dist.","district":"Al Zahra ","latitude":24.6839999929,"longitude":46.7343848156,"id":10100003132},{"Unnamed: 0":2,"title":"abdul aziz pharmacy","address":"6196 al fostat - Al Suwaidi Dist.","district":"Al Suwaidi ","latitude":24.583132286,"longitude":46.659959749,"id":10100003018},{"Unnamed: 0":3,"title":"abdul wahab pharmacy","address":"2695 al madinah al munawwarah - West Suwaidi Dist.","district":"West Suwaidi ","latitude":24.58060784,"longitude":46.61184406,"id":10100003057},{"Unnamed: 0":4,"title":"abdullah clinic and pharmacy","address":"7371 ibn taimiah rd - Badr Dist.","district":"Badr ","latitude":24.555356484,"longitude":46.702599344,"id":10100003164},{"Unnamed: 0":5,"title":"abha pharmacy","address":"7683 umm al hamam - East Umm Al Hamam Dist.","district":"East Umm Al Hamam ","latitude":24.689725559,"longitude":46.650985006,"id":10100003008},{"Unnamed: 0":6,"title":"ADAM PHARMACY(Delivery)","address":"5200 southern ring branch rd - Al Duraihemiyah Dist.","district":"Al Duraihemiyah ","latitude":24.5847956,"longitude":46.6894986,"id":10100003076},{"Unnamed: 0":7,"title":"Adam Pharmacy(Delivery)","address":"7954 ash shaikh muhammad ibn abdul latif ibn abdul rahm - Shubra Dist.","district":"Shubra ","latitude":24.587280789,"longitude":46.683982744,"id":10100003066},{"Unnamed: 0":8,"title":"ADAM PHARMACY(Delivery)","address":"7655 Labeed Bin Rabeah - Al Zahrah Dist.","district":"Al Zahrah ","latitude":24.5760544,"longitude":46.6396901,"id":10100003067},{"Unnamed: 0":9,"title":"ADAM PHARMACY(Delivery)","address":"3675 ash shaikh ishaq ibn abdul rahman ibn hasan - Al Zahrah Dist.","district":"Al Zahrah ","latitude":24.5739991,"longitude":46.6467259,"id":10100003067},{"Unnamed: 0":10,"title":"ADAM PHARMACY(Delivery)","address":"7377 al qashashiyah - Al Nada Dist.","district":"Al Nada ","latitude":24.8061418,"longitude":46.6849171,"id":10100003023},{"Unnamed: 0":11,"title":"ADAM PHARMACY(Delivery)","address":"8331 ash shaikh muhammad ibn abdul latif ibn abdul rahm - Namar Dist.","district":"Namar ","latitude":24.581839159,"longitude":46.688320001,"id":10100003060},{"Unnamed: 0":12,"title":"adama pharmacy","address":"3499 al malik abdullah ibn abdulaziz rd - Al Woroud Dist.","district":"Al Woroud ","latitude":24.7349132503,"longitude":46.6823916122,"id":10100003026},{"Unnamed: 0":13,"title":"adama pharmacy","address":"8166 King Abdulaziz - Al Rabie Dist.","district":"Al Rabie ","latitude":24.7969218037,"longitude":46.6543192196,"id":10100003104},{"Unnamed: 0":14,"title":"adama pharmacy","address":"3767 Anas Bin Malek - Al Malqa Dist.","district":"Al Malqa ","latitude":24.8015138936,"longitude":46.6035350704,"id":10100003145},{"Unnamed: 0":15,"title":"Adama Pharmacy","address":"4388 kharis branch rd - Al Rawdah Dist.","district":"Al Rawdah ","latitude":24.7263437657,"longitude":46.7789457701,"id":10100003088},{"Unnamed: 0":16,"title":"Adama Pharmacy(Delivery)","address":"2627 makkah al mukarramah branch rd - Al Sulaimaniyah Dist.","district":"Al Sulaimaniyah ","latitude":24.685335303,"longitude":46.705834281,"id":10100003063},{"Unnamed: 0":17,"title":"adwa as saha pharmacy","address":"3034 makkah al mukarramah branch road - North Mathar Dist.","district":"North Mathar ","latitude":24.675636415,"longitude":46.673244393,"id":10100003011},{"Unnamed: 0":18,"title":"adwa as saha pharmacy","address":"7044 at takhassusi - North Mathar Dist.","district":"North Mathar ","latitude":24.684236611,"longitude":46.675249651,"id":10100003011},{"Unnamed: 0":19,"title":"adwa as saha pharmacy","address":"3131 al urubah branch rd - West Umm Al Hamam Dist.","district":"West Umm Al Hamam ","latitude":24.698362089,"longitude":46.640908197,"id":10100003012},{"Unnamed: 0":20,"title":"al abraj pharmacy","address":"8748 Ayshah Bin Abi Bakr - Al Zahrah Dist.","district":"Al Zahrah ","latitude":24.585898209,"longitude":46.654135221,"id":10100003067},{"Unnamed: 0":21,"title":"al abraq national pharmacy","address":"5354 asir - Al Shumaisi Dist.","district":"Al Shumaisi ","latitude":24.61790099,"longitude":46.703295784,"id":10100003113},{"Unnamed: 0":22,"title":"al aiwan pharmacy","address":"7775 al zaid - Al Futah Dist.","district":"Al Futah ","latitude":24.638679511,"longitude":46.711211199,"id":10100003121},{"Unnamed: 0":23,"title":"al ajjaji pharmacy","address":"7423 Asmaa Bint Abi Bakr - West Oraija Dist.","district":"West Oraija ","latitude":24.585423259,"longitude":46.586708253,"id":10100003126},{"Unnamed: 0":24,"title":"al ameen pharmacy","address":"7757 umm al hamam - East Umm Al Hamam Dist.","district":"East Umm Al Hamam ","latitude":24.690341205,"longitude":46.65084456,"id":10100003008},{"Unnamed: 0":25,"title":"al ameen pharmacy 2","address":"7554 umm al hamam - West Umm Al Hamam Dist.","district":"West Umm Al Hamam ","latitude":24.689110373,"longitude":46.650375155,"id":10100003012},{"Unnamed: 0":26,"title":"al amir pharmacy","address":"3039 al amir sultan ibn abdul aziz - Al Olaya Dist.","district":"Al Olaya ","latitude":24.692270741,"longitude":46.694044054,"id":10100003075},{"Unnamed: 0":27,"title":"al amjad flower pharmacy","address":"7093 Hamzah Bin Abdulmuttaleb - Al Zahrah Dist.","district":"Al Zahrah ","latitude":24.571028014,"longitude":46.637502072,"id":10100003067},{"Unnamed: 0":28,"title":"al amjad pharmacy","address":"7094 al amir abdullah ibn abdul rahman ibn faisal - Utayqah Dist.","district":"Utayqah ","latitude":24.595054046,"longitude":46.711204854,"id":10100003020},{"Unnamed: 0":29,"title":"al amjad pharmacy","address":"2229 al madhar - Al Nasiriyah Dist.","district":"Al Nasiriyah ","latitude":24.651780379,"longitude":46.672206519,"id":10100003037},{"Unnamed: 0":30,"title":"al amjad pharmacy","address":"3004 al urayja - Al Uraija Dist.","district":"Al Uraija ","latitude":24.626184741,"longitude":46.667154976,"id":10100003127},{"Unnamed: 0":31,"title":"al amjad pharmacy","address":"4590 dirab branch road - Namar Dist.","district":"Namar ","latitude":24.576682305,"longitude":46.697496357,"id":10100003060},{"Unnamed: 0":32,"title":"al arid pharmacy","address":"7023 Al Maeer Sattam Bin Abdulaziz - Al Badeah Dist.","district":"Al Badeah ","latitude":24.621990422,"longitude":46.676514213,"id":10100003071},{"Unnamed: 0":33,"title":"al ashban pharmacy","address":"6513 al amir abdullah ibn abdul rahman ibn faisal - Manfuha Al Jadidah Dist.","district":"Manfuha Al Jadidah ","latitude":24.60933872,"longitude":46.710770701,"id":10100003005},{"Unnamed: 0":34,"title":"al ashban pharmacy","address":"3440 al madinah al munawarah - Dhahrat Al Badeah Dist.","district":"hahrat Al Badeah ","latitude":24.591836214,"longitude":46.629009715,"id":10100003091},{"Unnamed: 0":35,"title":"al ashban pharmacy 3","address":"7317  - Manfuha Al Jadidah Dist.","district":"Manfuha Al Jadidah ","latitude":24.616555148,"longitude":46.710405998,"id":10100003005},{"Unnamed: 0":36,"title":"\"al bade'ah pharmacy\"","address":"3583 al madinah al munawarah - West Suwaidi Dist.","district":"West Suwaidi ","latitude":24.586013979,"longitude":46.620585823,"id":10100003057},{"Unnamed: 0":37,"title":"al badrani pharmacy","address":"7505 al amir abdul rahman ibn abdul aziz - Al Wizarat Dist.","district":"Al Wizarat ","latitude":24.67830879,"longitude":46.70877143,"id":10100003045},{"Unnamed: 0":38,"title":"al barak clinic and pharmacy","address":"6050 al jadah - Tuwaiq Dist.","district":"Tuwaiq ","latitude":24.585915202,"longitude":46.557549961,"id":10100003102},{"Unnamed: 0":39,"title":"al bustan pharmacy","address":"2349 al madinah al munawarah - Dhahrat Al Badeah Dist.","district":"hahrat Al Badeah ","latitude":24.590419086,"longitude":46.627676326,"id":10100003091},{"Unnamed: 0":40,"title":"al farabi pharmacy","address":"8446 umm al hamam - West Umm Al Hamam Dist.","district":"West Umm Al Hamam ","latitude":24.696656269,"longitude":46.649267144,"id":10100003012},{"Unnamed: 0":41,"title":"al farabi pharmacy","address":"4224 al madinah al munawarah - Middle Oraija Dist.","district":"Middle Oraija ","latitude":24.604832846,"longitude":46.6501768,"id":10100003128},{"Unnamed: 0":42,"title":"al farabi pharmacy 2","address":"7778 umm al hamam - West Umm Al Hamam Dist.","district":"West Umm Al Hamam ","latitude":24.690677297,"longitude":46.650330019,"id":10100003012},{"Unnamed: 0":43,"title":"al farabi pharmacy 6","address":"6628 at takhassusi - North Mathar Dist.","district":"North Mathar ","latitude":24.680459235,"longitude":46.677288367,"id":10100003011},{"Unnamed: 0":44,"title":"al fares aba al khail pharmacy","address":"6047 Hamzah Bin Abdulmuttaleb - Middle Oraija Dist.","district":"Middle Oraija ","latitude":24.601604289,"longitude":46.615053451,"id":10100003128},{"Unnamed: 0":45,"title":"al faris clinic and pharmacy","address":"4337 Belal Bin Rabah - Tuwaiq Dist.","district":"Tuwaiq ","latitude":24.579368356,"longitude":46.552768214,"id":10100003102},{"Unnamed: 0":46,"title":"al faris pharmacy","address":"6061 Hamzah Bin Abdulmuttaleb - Middle Oraija Dist.","district":"Middle Oraija ","latitude":24.60177139,"longitude":46.614947988,"id":10100003128},{"Unnamed: 0":47,"title":"al faris pharmacy","address":"2298 Khadeejah Bint Khuwaylid - Tuwaiq Dist.","district":"Tuwaiq ","latitude":24.585346627,"longitude":46.563900579,"id":10100003102},{"Unnamed: 0":48,"title":"al faris pharmacy","address":"3854 Belal Bin Rabah - Tuwaiq Dist.","district":"Tuwaiq ","latitude":24.580287649,"longitude":46.547907705,"id":10100003102},{"Unnamed: 0":49,"title":"al fath pharmacy","address":"3277 al amir mansur ibn abdul aziz - Al Wizarat Dist.","district":"Al Wizarat ","latitude":24.674139385,"longitude":46.71215972,"id":10100003045},{"Unnamed: 0":50,"title":"al harbi pharmacy","address":"3522 prince nawaf ibn abdulaziz - West Umm Al Hamam Dist.","district":"West Umm Al Hamam ","latitude":24.688551364,"longitude":46.644757666,"id":10100003012},{"Unnamed: 0":51,"title":"al hayat pharmacy","address":"7063 Maray Al Qibtiyyah - West Oraija Dist.","district":"West Oraija ","latitude":24.593365425,"longitude":46.58921031,"id":10100003126},{"Unnamed: 0":52,"title":"al hazaimi pharmacy","address":"8028 at takhassusi - North Mathar Dist.","district":"North Mathar ","latitude":24.706944597,"longitude":46.663504248,"id":10100003011},{"Unnamed: 0":53,"title":"al hazm pharmacy","address":"2127 al madhar - Al Nasiriyah Dist.","district":"Al Nasiriyah ","latitude":24.651068954,"longitude":46.671189202,"id":10100003037},{"Unnamed: 0":54,"title":"al hedayah pharmacy","address":"6605 al amir abdullah ibn abdul rahman ibn faisal - Al Yamamah Dist.","district":"Al Yamamah ","latitude":24.590653013,"longitude":46.712048917,"id":10100003070},{"Unnamed: 0":55,"title":"al hikma pharmacy","address":"3963 al imam faisal ibn turki ibn abdullah - Umm Saleem Dist.","district":"Umm Saleem ","latitude":24.636738258,"longitude":46.694431712,"id":10100003122},{"Unnamed: 0":56,"title":"al hikma pharmacy","address":"4107 al imam faisal ibn turki ibn abdullah - Umm Saleem Dist.","district":"Umm Saleem ","latitude":24.636933804,"longitude":46.696047092,"id":10100003122},{"Unnamed: 0":57,"title":"al hikma pharmacy","address":"2287 dirab branch road - Al Shifa Dist.","district":"Al Shifa ","latitude":24.576303334,"longitude":46.698728517,"id":10100003061},{"Unnamed: 0":58,"title":"al huzaimi pharmacy","address":"7407 al amir matab ibn abdul aziz - Al Rabwah Dist.","district":"Al Rabwah ","latitude":24.6856770321,"longitude":46.7667236401,"id":10100003047},{"Unnamed: 0":59,"title":"al ilm pharmacy","address":"7120 al amir abdullah ibn abdul rahman ibn faisal - Utayqah Dist.","district":"Utayqah ","latitude":24.595241287,"longitude":46.711348148,"id":10100003020},{"Unnamed: 0":60,"title":"al iwan pharmacy 2","address":"6771 Ayshah Bin Abi Bakr - Middle Oraija Dist.","district":"Middle Oraija ","latitude":24.607556435,"longitude":46.638967548,"id":10100003128},{"Unnamed: 0":61,"title":"al jamea district pharmacy","address":"2591 king abdullah ibn abdulaziz rd - Al Raed Dist.","district":"Al Raed ","latitude":24.709407594,"longitude":46.629002566,"id":10100003125},{"Unnamed: 0":62,"title":"al jamila pharmacy","address":"6608 dirab rd - Dirab Dist.","district":"ab ","latitude":24.4964517075,"longitude":46.6284107907,"id":10100003058},{"Unnamed: 0":63,"title":"al jaradia pharmacy","address":"6634 muslimah ibn abdul malik - Al Badeah Dist.","district":"Al Badeah ","latitude":24.618464056,"longitude":46.692495781,"id":10100003071},{"Unnamed: 0":64,"title":"al jaza pharmacy","address":"3484 al amir musaid ibn abdul rahman ibn faisal road - Middle Oraija Dist.","district":"Middle Oraija ","latitude":24.611143609,"longitude":46.643043825,"id":10100003128},{"Unnamed: 0":65,"title":"\"al jaze' pharmacy\"","address":"6791 al ulaya - Al Olaya Dist.","district":"Al Olaya ","latitude":24.687227771,"longitude":46.688739797,"id":10100003075},{"Unnamed: 0":66,"title":"al jazea pharmacy 20","address":"2773 muhammad al muqaddami - Al Nafel Dist.","district":"Al Nafel ","latitude":24.7801611447,"longitude":46.6676619579,"id":10100003083},{"Unnamed: 0":67,"title":"al jura pharmacy","address":"6955 umm al hamam - East Umm Al Hamam Dist.","district":"East Umm Al Hamam ","latitude":24.683165702,"longitude":46.653577575,"id":10100003008},{"Unnamed: 0":68,"title":"al khaleeji pharmacy","address":"7186 badi az zaman al hamadhani - Shubra Dist.","district":"Shubra ","latitude":24.571796124,"longitude":46.653496087,"id":10100003066},{"Unnamed: 0":69,"title":"al kharashy pharmacy","address":"2687 al madinah al munawarah - Dhahrat Al Badeah Dist.","district":"hahrat Al Badeah ","latitude":24.59238538,"longitude":46.631105127,"id":10100003091},{"Unnamed: 0":70,"title":"al kharif pharmacy","address":"6683 abdullah ibn az zubairq - West Oraija Dist.","district":"West Oraija ","latitude":24.597322085,"longitude":46.598590579,"id":10100003126},{"Unnamed: 0":71,"title":"al khayam modern pharmacy","address":"8131 at takhassusi - Al Olaya Dist.","district":"Al Olaya ","latitude":24.707182044,"longitude":46.664499944,"id":10100003075},{"Unnamed: 0":72,"title":"al khuraif pharmacy","address":"7354 Ayshah Bin Abi Bakr - Dhahrat Al Badeah Dist.","district":"hahrat Al Badeah ","latitude":24.592310547,"longitude":46.649195886,"id":10100003091},{"Unnamed: 0":73,"title":"al khuzaimy pharmacy 7","address":"4314 al madinah al munawarah - Dhahrat Al Badeah Dist.","district":"hahrat Al Badeah ","latitude":24.597274212,"longitude":46.637813782,"id":10100003091},{"Unnamed: 0":74,"title":"al khuzami pharmacy","address":"3671 Belal Bin Rabah - West Oraija Dist.","district":"West Oraija ","latitude":24.581577762,"longitude":46.592355106,"id":10100003126},{"Unnamed: 0":75,"title":"al khuzami pharmacy","address":"3627 Belal Bin Rabah - West Oraija Dist.","district":"West Oraija ","latitude":24.581319542,"longitude":46.591960248,"id":10100003126},{"Unnamed: 0":76,"title":"al lezam pharmacy","address":"8813 al ulaya - Al Olaya Dist.","district":"Al Olaya ","latitude":24.675737316,"longitude":46.694500627,"id":10100003075},{"Unnamed: 0":77,"title":"al madinah ath thanya pharmacy","address":"3386 samahat ash shaikh abdul aziz ibn baz - Olaishah Dist.","district":"Olaishah ","latitude":24.625956261,"longitude":46.688866675,"id":10100003053},{"Unnamed: 0":78,"title":"al madinah pharmacy","address":"3527 samahat ash shaikh abdul aziz ibn baz - Al Badeah Dist.","district":"Al Badeah ","latitude":24.625790067,"longitude":46.690224662,"id":10100003071},{"Unnamed: 0":79,"title":"al mahya pharmacy","address":"3183 abi bakr ar razi - Al Sulaimaniyah Dist.","district":"Al Sulaimaniyah ","latitude":24.690569911,"longitude":46.710670756,"id":10100003063},{"Unnamed: 0":80,"title":"al majd modern veterinary pharmacy","address":"7575 salam - Al Dubiyah Dist.","district":"Al Dubiyah ","latitude":24.618830785,"longitude":46.710436901,"id":10100003116},{"Unnamed: 0":81,"title":"al majid pharmacy","address":"6963 sultanah - Sultanah Dist.","district":"Sultanah ","latitude":24.60542963,"longitude":46.692283778,"id":10100003069},{"Unnamed: 0":82,"title":"al majid pharmacy","address":"6893 sultanah - Sultanah Dist.","district":"Sultanah ","latitude":24.605015715,"longitude":46.692724535,"id":10100003069},{"Unnamed: 0":83,"title":"Al Malaz national Pharmacy(Delivery)","address":"2512 umar ibn abdul aziz rd - Al Zahra Dist.","district":"Al Zahra ","latitude":24.679422358,"longitude":46.728056958,"id":10100003132},{"Unnamed: 0":84,"title":"al mansoura pharmacy","address":"7946 ash shabab - Al Aziziyah Dist.","district":"Al Aziziyah ","latitude":24.5985100594,"longitude":46.7548332682,"id":10100003029},{"Unnamed: 0":85,"title":"al marzouq pharmacy","address":"4682 dirab branch road - Namar Dist.","district":"Namar ","latitude":24.577263484,"longitude":46.698406776,"id":10100003060},{"Unnamed: 0":86,"title":"\"al mas'udi pharmacy\"","address":"7080 ibn taimiah rd - Al Shifa Dist.","district":"Al Shifa ","latitude":24.548944215,"longitude":46.696218287,"id":10100003061},{"Unnamed: 0":87,"title":"al mawal pharmacy","address":"6249 Asmaa Bint Abi Bakr - West Oraija Dist.","district":"West Oraija ","latitude":24.586116677,"longitude":46.586252574,"id":10100003126},{"Unnamed: 0":88,"title":"al miswal pharmacy","address":"3050 al amid - Tuwaiq Dist.","district":"Tuwaiq ","latitude":24.590445271,"longitude":46.571433131,"id":10100003102},{"Unnamed: 0":89,"title":"al mubarak pharmacy","address":"3855 king faisal - Al Murabba Dist.","district":"Al Murabba ","latitude":24.656626516,"longitude":46.707079971,"id":10100003021},{"Unnamed: 0":90,"title":"al muhaidib veterinary pharmacy","address":"2631 madina munwarah rd - Al Dubiyah Dist.","district":"Al Dubiyah ","latitude":24.624138518,"longitude":46.711144773,"id":10100003116},{"Unnamed: 0":91,"title":"Al Mujtama Pharmacy(Delivery)","address":"7290 zuhir ibn abi salma - Al Maseef Dist.","district":"Al Maseef ","latitude":24.765032625,"longitude":46.680137221,"id":10100003084},{"Unnamed: 0":92,"title":"Al Mujtama Pharmacy(Delivery)","address":"7095 imarat arqa - Irqah","district":"Irqah","latitude":24.6786859,"longitude":46.5901272,"id":10100003142},{"Unnamed: 0":93,"title":"Al Mujtama Pharmacy(Delivery)","address":"6651 Ayshah Bin Abi Bakr - Al Suwaidi Dist.","district":"Al Suwaidi ","latitude":24.5872625,"longitude":46.6539687,"id":10100003018},{"Unnamed: 0":94,"title":"Al Mujtama Pharmacy(Delivery)","address":"8254 ask shaikh hasan ibn hussain ibn ali - Ghirnatah Dist.","district":"Ghirnatah ","latitude":24.804166667,"longitude":46.759472222,"id":10100003155},{"Unnamed: 0":95,"title":"Al Mujtama Pharmacy(Delivery)","address":"6949 Al Shaikh Jabir Al Ahmed Al Shaba - Al Rimal Dist.","district":"Al Rimal ","latitude":24.8472459,"longitude":46.7818981,"id":10100003153},{"Unnamed: 0":96,"title":"Al Mujtama Pharmacy(Delivery)","address":"4240 Prince Mohammed Ibn Salman Ibn Abdulaziz Rd - Hitteen Dist.","district":"Hitteen ","latitude":24.7690644,"longitude":46.6180737,"id":10100003144},{"Unnamed: 0":97,"title":"Al Mujtama Pharmacy(Delivery)","address":"4726 al imam ahmad ibn hanbal - Al Rayan Dist.","district":"Al Rayan ","latitude":24.709111111,"longitude":46.788638889,"id":10100003090},{"Unnamed: 0":98,"title":"Al Mujtama Pharmacy(Delivery)","address":"7988 abi al aswad ad duali - East Naseem Dist.","district":"East Naseem ","latitude":24.7311301,"longitude":46.8488839,"id":10100003080},{"Unnamed: 0":99,"title":"Al Mujtama Pharmacy(Delivery)","address":"7054 mohammed rasheed rda - Al Aziziyah Dist.","district":"Al Aziziyah ","latitude":24.5707536,"longitude":46.769985,"id":10100003029},{"Unnamed: 0":100,"title":"\"al murabba' pharmacy\"","address":"2875 al farawi - Al Murabba Dist.","district":"Al Murabba ","latitude":24.671791728,"longitude":46.708238533,"id":10100003021},{"Unnamed: 0":101,"title":"al muslim pharmacy","address":"3506 al madinah al munawarah - West Oraija Dist.","district":"West Oraija ","latitude":24.579932958,"longitude":46.609685516,"id":10100003126},{"Unnamed: 0":102,"title":"al nahdi pharmacy","address":"6641 at takhassusi - Al Muhammadiyah Dist.","district":"Al Muhammadiyah ","latitude":24.7269974075,"longitude":46.6527005943,"id":10100003062},{"Unnamed: 0":103,"title":"al nahdi pharmacy","address":"7129 ath thumamah rd - Al Rabie Dist.","district":"Al Rabie ","latitude":24.7875373537,"longitude":46.6473610988,"id":10100003104},{"Unnamed: 0":104,"title":"al nahdi pharmacy","address":"7736 king fahd branch road - Al Malqa Dist.","district":"Al Malqa ","latitude":24.8018408613,"longitude":46.626093838,"id":10100003145},{"Unnamed: 0":105,"title":"al nahdi pharmacy","address":"3492 Al Zubair Bin Al Awwam - Al Salam Dist.","district":"Al Salam ","latitude":24.7062428275,"longitude":46.8096167283,"id":10100003078},{"Unnamed: 0":106,"title":"al nahdi pharmacy","address":"3324 mohammed rasheed rda - Al Aziziyah Dist.","district":"Al Aziziyah ","latitude":24.5837848642,"longitude":46.759671212,"id":10100003029},{"Unnamed: 0":107,"title":"al nahdi pharmacy","address":"2827 arfat rd - Al Dar Al Baida Dist.","district":"Al Dar Al Baida ","latitude":24.571790679,"longitude":46.7804124761,"id":10100003130},{"Unnamed: 0":108,"title":"al nahdi pharmacy","address":"3042 ibn hejr - Al Dar Al Baida Dist.","district":"Al Dar Al Baida ","latitude":24.5591584774,"longitude":46.7818703719,"id":10100003130},{"Unnamed: 0":109,"title":"al nahdi pharmacy","address":"7513 mohammed rasheed rda - Al Dar Al Baida Dist.","district":"Al Dar Al Baida ","latitude":24.5626286834,"longitude":46.7752805736,"id":10100003130},{"Unnamed: 0":110,"title":"al nahdi pharmacy","address":"7324 mohammed rasheed rda - Al Dar Al Baida Dist.","district":"Al Dar Al Baida ","latitude":24.5545484838,"longitude":46.7790380395,"id":10100003130},{"Unnamed: 0":111,"title":"al nahdi pharmacy","address":"2129 arfat rd - Al Dar Al Baida Dist.","district":"Al Dar Al Baida ","latitude":24.5616923012,"longitude":46.7593555047,"id":10100003130},{"Unnamed: 0":112,"title":"al najah pharmacy","address":"4911 al imam muhammad ibn saud ibn muqrin - Al Shumaisi Dist.","district":"Al Shumaisi ","latitude":24.628695167,"longitude":46.703843118,"id":10100003113},{"Unnamed: 0":113,"title":"al nour pharmacy","address":"3487 samahat ash shaikh abdul aziz ibn baz - Al Badeah Dist.","district":"Al Badeah ","latitude":24.625585265,"longitude":46.689488693,"id":10100003071},{"Unnamed: 0":114,"title":"al olaya pharmacy","address":"8739 al ulaya - Al Olaya Dist.","district":"Al Olaya ","latitude":24.67512027,"longitude":46.694840776,"id":10100003075},{"Unnamed: 0":115,"title":"al ouda pharmacy","address":"3990 Anas Bin Malek - Al Malqa Dist.","district":"Al Malqa ","latitude":24.8076883337,"longitude":46.6156416784,"id":10100003145},{"Unnamed: 0":116,"title":"al qaishan veterinary pharmacy","address":"7897 salam - Al Dubiyah Dist.","district":"Al Dubiyah ","latitude":24.62188654,"longitude":46.71091401,"id":10100003116},{"Unnamed: 0":117,"title":"al rafah pharmacy","address":"2251 dirab branch rd - Al Shifa Dist.","district":"Al Shifa ","latitude":24.576117386,"longitude":46.69824642,"id":10100003061},{"Unnamed: 0":118,"title":"al rafiq pharmacy","address":"7385 al khalifah al mamun - Badr Dist.","district":"Badr ","latitude":24.54111681,"longitude":46.703717367,"id":10100003164},{"Unnamed: 0":119,"title":"al rajaa pharmacy","address":"3165 al urubah rd - Al Sulaimaniyah Dist.","district":"Al Sulaimaniyah ","latitude":24.7183161703,"longitude":46.6867332841,"id":10100003063},{"Unnamed: 0":120,"title":"al rajaa pharmacy","address":"6939 uthman ibn affan branch rd - Al Ezdihar Dist.","district":"Al Ezdihar ","latitude":24.7770168653,"longitude":46.7089060693,"id":10100003086},{"Unnamed: 0":121,"title":"al rasees united pharmacy","address":"6708 prince turki ibn abdulaziz al awwal rd - East Umm Al Hamam Dist.","district":"East Umm Al Hamam ","latitude":24.680813621,"longitude":46.665933349,"id":10100003008},{"Unnamed: 0":122,"title":"al rashad pharmacy","address":"4126 Anas Bin Malek - Al Yasmeen Dist.","district":"Al Yasmeen ","latitude":24.8160942614,"longitude":46.6354351961,"id":10100003147},{"Unnamed: 0":123,"title":"al rashid pharmacy","address":"5462  - Siyah Dist.","district":"Siyah ","latitude":24.604146601,"longitude":46.704259579,"id":10100003068},{"Unnamed: 0":124,"title":"al rashidiyyah pharmacy","address":"3511 al amir mamduh ibn abdul aziz - Al Sulaimaniyah Dist.","district":"Al Sulaimaniyah ","latitude":24.709019106,"longitude":46.689997325,"id":10100003063},{"Unnamed: 0":125,"title":"al ruwais polyclinic & pharmacy","address":"8330 abdullah ibn muammar - West Umm Al Hamam Dist.","district":"West Umm Al Hamam ","latitude":24.695638313,"longitude":46.64543345,"id":10100003012},{"Unnamed: 0":126,"title":"\"al sa'adi pharmacy\"","address":"2999 al qayruwani - Al Wizarat Dist.","district":"Al Wizarat ","latitude":24.670972915,"longitude":46.709386326,"id":10100003045},{"Unnamed: 0":127,"title":"Al Saggaf Pharmacy","address":"3197 abdulrahman al ghafaqi rd - Al Rawdah Dist.","district":"Al Rawdah ","latitude":24.7471159737,"longitude":46.7606413897,"id":10100003088},{"Unnamed: 0":128,"title":"al saggaf pharmacy","address":"6405 ash shabab - Al Aziziyah Dist.","district":"Al Aziziyah ","latitude":24.5909937783,"longitude":46.7592310277,"id":10100003029},{"Unnamed: 0":129,"title":"al salehiyya pharmacy","address":"7853 al imam abdul aziz ibn muhammad ibn saud - Al Shumaisi Dist.","district":"Al Shumaisi ","latitude":24.629586785,"longitude":46.692715414,"id":10100003113},{"Unnamed: 0":130,"title":"al saqaf pharmacy","address":"7095 al ulaya - Al Olaya Dist.","district":"Al Olaya ","latitude":24.690139617,"longitude":46.687297329,"id":10100003075},{"Unnamed: 0":131,"title":"al saqaf pharmacy","address":"6625 at takhassusi - Al Olaya Dist.","district":"Al Olaya ","latitude":24.680171536,"longitude":46.678066489,"id":10100003075},{"Unnamed: 0":132,"title":"al saqaf pharmacy","address":"4273 al aynusi - Sultanah Dist.","district":"Sultanah ","latitude":24.599315739,"longitude":46.692391891,"id":10100003069},{"Unnamed: 0":133,"title":"al saqaf pharmacy","address":"7334 Hamzah Bin Abdulmuttaleb - West Oraija Dist.","district":"West Oraija ","latitude":24.58854814,"longitude":46.623673662,"id":10100003126},{"Unnamed: 0":134,"title":"al saqaf pharmacy 20","address":"6671 Ayshah Bin Abi Bakr - Al Suwaidi Dist.","district":"Al Suwaidi ","latitude":24.587500967,"longitude":46.653751834,"id":10100003018},{"Unnamed: 0":135,"title":"al saqaf pharmacy 25","address":"2902 al amir sultan ibn abdul aziz - Al Olaya Dist.","district":"Al Olaya ","latitude":24.69223745,"longitude":46.692838944,"id":10100003075},{"Unnamed: 0":136,"title":"al saqaf pharmacy 3","address":"7722 badi az zaman al hamadhani - Al Zahrah Dist.","district":"Al Zahrah ","latitude":24.576592716,"longitude":46.64994958,"id":10100003067},{"Unnamed: 0":137,"title":"al saqaf pharmacy 6","address":"3749 Belal Bin Rabah - West Oraija Dist.","district":"West Oraija ","latitude":24.582211486,"longitude":46.593314189,"id":10100003126},{"Unnamed: 0":138,"title":"al saqaf pharmacy 7","address":"7457 ibn taimiah rd - Badr Dist.","district":"Badr ","latitude":24.556034072,"longitude":46.703071676,"id":10100003164},{"Unnamed: 0":139,"title":"al saqqaf pharmacy","address":"4807 an nasr branch rd - Al Aziziyah Dist.","district":"Al Aziziyah ","latitude":24.592981652,"longitude":46.7747602932,"id":10100003029},{"Unnamed: 0":140,"title":"al shafi pharmacy","address":"7342 at takhassusi - Al Rahmaniyah Dist.","district":"Al Rahmaniyah ","latitude":24.7166767202,"longitude":46.6591053423,"id":10100003013},{"Unnamed: 0":141,"title":"al shafi pharmacy","address":"7586 al amir matab ibn abdul aziz - Al Rabwah Dist.","district":"Al Rabwah ","latitude":24.687661485,"longitude":46.7652866004,"id":10100003047},{"Unnamed: 0":142,"title":"al shamilah pharmacy","address":"7610 at takhassusi - North Mathar Dist.","district":"North Mathar ","latitude":24.689482647,"longitude":46.672747561,"id":10100003011},{"Unnamed: 0":143,"title":"al shamilah pharmacy 3","address":"7686 at takhassusi - North Mathar Dist.","district":"North Mathar ","latitude":24.703106813,"longitude":46.665857404,"id":10100003011},{"Unnamed: 0":144,"title":"al shatea pharmacy","address":"6927 al amir matab ibn abdul aziz - Al Rabwah Dist.","district":"Al Rabwah ","latitude":24.6814122052,"longitude":46.7683758188,"id":10100003047},{"Unnamed: 0":145,"title":"al shifa modern pharmacy","address":"6730 ibn taimiah road - Al Shifa Dist.","district":"Al Shifa ","latitude":24.557967708,"longitude":46.703682869,"id":10100003061},{"Unnamed: 0":146,"title":"al shifa polyclinic and pharmacy","address":"8481 ziad al fazari - Al Shifa Dist.","district":"Al Shifa ","latitude":24.573825306,"longitude":46.695586418,"id":10100003061},{"Unnamed: 0":147,"title":"al shimaisi pharmacy","address":"4179 al imam muhammad ibn saud ibn muqrin - Al Shumaisi Dist.","district":"Al Shumaisi ","latitude":24.627547031,"longitude":46.696585352,"id":10100003113},{"Unnamed: 0":148,"title":"al sihaim pharmacy","address":"7984 Hamzah Bin Abdulmuttaleb - West Suwaidi Dist.","district":"West Suwaidi ","latitude":24.578276278,"longitude":46.63150961,"id":10100003057},{"Unnamed: 0":149,"title":"al tadamoun pharmacy","address":"2745 abdullah ibn jabr - West Oraija Dist.","district":"West Oraija ","latitude":24.586907029,"longitude":46.602328296,"id":10100003126},{"Unnamed: 0":150,"title":"al tadamoun pharmacy","address":"6201 weastern ring rd - West Oraija Dist.","district":"West Oraija ","latitude":24.57837359,"longitude":46.604697959,"id":10100003126},{"Unnamed: 0":151,"title":"al tadamun pharmacy","address":"3095 Belal Bin Rabah - Tuwaiq Dist.","district":"Tuwaiq ","latitude":24.578337581,"longitude":46.566752775,"id":10100003102},{"Unnamed: 0":152,"title":"al thalatheen pharmacy","address":"2864 al amir sultan ibn abdul aziz - Al Olaya Dist.","district":"Al Olaya ","latitude":24.692084594,"longitude":46.692440956,"id":10100003075},{"Unnamed: 0":153,"title":"al urooba pharmacy","address":"2151 al madinah al munawarah - Dhahrat Al Badeah Dist.","district":"hahrat Al Badeah ","latitude":24.589112542,"longitude":46.625772263,"id":10100003091},{"Unnamed: 0":154,"title":"al urooba pharmacy","address":"2549 AL Khaleel Bin Ahmad - Badr Dist.","district":"Badr ","latitude":24.542680989,"longitude":46.693992148,"id":10100003164},{"Unnamed: 0":155,"title":"al uroubah polyclinic and pharmacy","address":"7742 Al Tirmidhi - Al Shifa Dist.","district":"Al Shifa ","latitude":24.566983385,"longitude":46.702364636,"id":10100003061},{"Unnamed: 0":156,"title":"al uroubah polyclinic and pharmacy 2","address":"2752 AL Khaleel Bin Ahmad - Al Shifa Dist.","district":"Al Shifa ","latitude":24.554568478,"longitude":46.677979896,"id":10100003061},{"Unnamed: 0":157,"title":"al ushayan pharmacy","address":"4929 al imam muhammad ibn saud ibn muqrin - Al Shumaisi Dist.","district":"Al Shumaisi ","latitude":24.628643832,"longitude":46.703980753,"id":10100003113},{"Unnamed: 0":158,"title":"al usta pharmacy","address":"\"7230 Ibn Al Muqafa' - West Oraija Dist.\"","district":"West Oraija ","latitude":24.58782341,"longitude":46.610339167,"id":10100003126},{"Unnamed: 0":159,"title":"al wadi pharmacy","address":"7177 asir - Al Shumaisi Dist.","district":"Al Shumaisi ","latitude":24.623345583,"longitude":46.69591153,"id":10100003113},{"Unnamed: 0":160,"title":"aldawaa pharmacy","address":"3636 abi jaafar al mansur - Al Yarmuk Dist.","district":"Al Yarmuk ","latitude":24.8057233052,"longitude":46.7742219771,"id":10100003139},{"Unnamed: 0":161,"title":"صيدلية الدواء","address":"4484 ad dammam rd - Qurtubah Dist.","district":"Qurtubah ","latitude":24.8000951915,"longitude":46.7386920842,"id":10100003101},{"Unnamed: 0":162,"title":"al washm medical center and pharmacy","address":"9282 king faisal - Al Murabba Dist.","district":"Al Murabba ","latitude":24.652362481,"longitude":46.710604884,"id":10100003021},{"Unnamed: 0":163,"title":"al zahrah polyclinic and pharmacy","address":"3504 al balad al amin - Al Suwaidi Dist.","district":"Al Suwaidi ","latitude":24.588273311,"longitude":46.658454505,"id":10100003018},{"Unnamed: 0":164,"title":"alaa jamil pharmacy","address":"4015 Al Shaikh Abdullah Al Anqari - Al Woroud Dist.","district":"Al Woroud ","latitude":24.7262450493,"longitude":46.6871692269,"id":10100003026},{"Unnamed: 0":165,"title":"alanaya al-dawaiya pharmacy","address":"3412 Al Zubair Bin Al Awwam - Al Salam Dist.","district":"Al Salam ","latitude":24.7056265471,"longitude":46.808598319,"id":10100003078},{"Unnamed: 0":166,"title":"aldawaa pharmacy","address":"3183 ad dammam rd - Al Yarmuk Dist.","district":"Al Yarmuk ","latitude":24.8195508188,"longitude":46.787745236,"id":10100003139},{"Unnamed: 0":167,"title":"aldawaa pharmacy","address":"7930 al ihsa - Al Malaz Dist.","district":"Al Malaz ","latitude":24.6781226147,"longitude":46.7349132377,"id":10100003051},{"Unnamed: 0":168,"title":"aldawaa pharmacy","address":"8374 khalid ibn al walid - Al Quds Dist.","district":"Al Quds ","latitude":24.7612703286,"longitude":46.7636202201,"id":10100003081},{"Unnamed: 0":169,"title":"aldawaa pharmacy","address":"6815 ash shaikh hasan ibn hussain ibn ali - Ishbiliyah Dist.","district":"Ishbiliyah ","latitude":24.7838123822,"longitude":46.7714832589,"id":10100003137},{"Unnamed: 0":170,"title":"aldawaa pharmacy","address":"4008 an nuwibah - Al Yarmuk Dist.","district":"Al Yarmuk ","latitude":24.8075534967,"longitude":46.7957355009,"id":10100003139},{"Unnamed: 0":171,"title":"aldawaa pharmacy","address":"6939 an nasar - Al Yarmuk Dist.","district":"Al Yarmuk ","latitude":24.8071894392,"longitude":46.7925696281,"id":10100003139},{"Unnamed: 0":172,"title":"aldawaa pharmacy","address":"7482 an najah - Al Yarmuk Dist.","district":"Al Yarmuk ","latitude":24.8120217676,"longitude":46.7989017307,"id":10100003139},{"Unnamed: 0":173,"title":"aldawaa pharmacy","address":"4466 al imam abdullah ibn saud ibn abdul aziz rd - Al Qadisiyah Dist.","district":"Al Qadisiyah ","latitude":24.8137806052,"longitude":46.81857547,"id":10100003073},{"Unnamed: 0":174,"title":"aldawaa pharmacy","address":"6383 an najah - Al Yarmuk Dist.","district":"Al Yarmuk ","latitude":24.8098656586,"longitude":46.800878458,"id":10100003139},{"Unnamed: 0":175,"title":"aldawaa pharmacy","address":"4102 Al Zubair Bin Al Awwam - Al Salam Dist.","district":"Al Salam ","latitude":24.709909271,"longitude":46.8155765102,"id":10100003078},{"Unnamed: 0":176,"title":"aldawaa pharmacy","address":"3260 ash shaikh abdulaziz ibn abdulrahman ibn bishr - Al Khaleej Dist.","district":"Al Khaleej ","latitude":24.7763436137,"longitude":46.7889757695,"id":10100003055},{"Unnamed: 0":177,"title":"al-dawaa pharmacy","address":"3339 al amir bandar ibn abdul aziz - Al Nahdah Dist.","district":"Al Nahdah ","latitude":24.7646516807,"longitude":46.8035317558,"id":10100003054},{"Unnamed: 0":178,"title":"al-dawaa pharmacy","address":"7171 ali al fazari - Al Munisiyah Dist.","district":"Al Munisiyah ","latitude":24.8258998752,"longitude":46.7805209422,"id":10100003140},{"Unnamed: 0":179,"title":"al-dawaa pharmacy","address":"7400 abi huraiyrah - East Naseem Dist.","district":"East Naseem ","latitude":24.7490297471,"longitude":46.8283971589,"id":10100003080},{"Unnamed: 0":180,"title":"صيدلية الدواء","address":"2500 al amir sultan ibn abdul aziz - Al Olaya Dist.","district":"Al Olaya ","latitude":24.6907337,"longitude":46.6887564,"id":10100003075},{"Unnamed: 0":181,"title":"صيدلية الدواء","address":"3808 al urubah rd - Al Woroud Dist.","district":"Al Woroud ","latitude":24.718219,"longitude":46.6849854,"id":10100003026},{"Unnamed: 0":182,"title":"صيدلية الدواء","address":"3058 prince turki ibn abdulaziz ath thani - Al Muruj Dist.","district":"Al Muruj ","latitude":24.7579829,"longitude":46.661003,"id":10100003110},{"Unnamed: 0":183,"title":"صيدلية الدواء","address":"8060 hail - Al Nuzha Dist.","district":"Al Nuzha ","latitude":24.7628218,"longitude":46.7030209,"id":10100003025},{"Unnamed: 0":184,"title":"صيدلية الدواء","address":"8466 Othman Bin Affan - Al Nuzha Dist.","district":"Al Nuzha ","latitude":24.76643955,"longitude":46.713148125,"id":10100003025},{"Unnamed: 0":185,"title":"صيدلية الدواء","address":"6385 al ihsa - Al Zahra Dist.","district":"Al Zahra ","latitude":24.682291432,"longitude":46.734574996,"id":10100003132},{"Unnamed: 0":186,"title":"صيدلية الدواء","address":"7454 eastern ring branch rd - Al Rabwah Dist.","district":"Al Rabwah ","latitude":24.6858593,"longitude":46.7747593,"id":10100003047},{"Unnamed: 0":187,"title":"صيدلية الدواء","address":"3399 al imam abdullah ibn saud ibn abdul aziz  branch r - Al Hamra Dist.","district":"Al Hamra ","latitude":24.7891014,"longitude":46.7624671,"id":10100003129},{"Unnamed: 0":188,"title":"صيدلية الدواء","address":"7528 Ibn Al Haytahm - Al Khaleej Dist.","district":"Al Khaleej ","latitude":24.78079,"longitude":46.8209209,"id":10100003055},{"Unnamed: 0":189,"title":"صيدلية الدواء","address":"7365 Salman Al Farsi - Al Khaleej Dist.","district":"Al Khaleej ","latitude":24.7796049,"longitude":46.7984069,"id":10100003055},{"Unnamed: 0":190,"title":"صيدلية الدواء","address":"2456 ash shaikh abdul aziz ibn abdul rahman ibn bishr - Al Khaleej Dist.","district":"Al Khaleej ","latitude":24.7831886,"longitude":46.7998071,"id":10100003055},{"Unnamed: 0":191,"title":"صيدلية الدواء","address":"7634 as sahabah - Ishbiliyah Dist.","district":"Ishbiliyah ","latitude":24.7909234,"longitude":46.7876755,"id":10100003137},{"Unnamed: 0":192,"title":"صيدلية الدواء","address":"7628 khalid ibn al walid - Al Shohda Dist.","district":"Al Shohda ","latitude":24.7907742,"longitude":46.7445985,"id":10100003016},{"Unnamed: 0":193,"title":"صيدلية الدواء","address":"2669 abi jafar al mansur - Ghirnatah Dist.","district":"Ghirnatah ","latitude":24.7935024,"longitude":46.7467252,"id":10100003155},{"Unnamed: 0":194,"title":"صيدلية الدواء","address":"2793 ad dammam rd - Ghirnatah Dist.","district":"Ghirnatah ","latitude":24.802824,"longitude":46.7481139,"id":10100003155},{"Unnamed: 0":195,"title":"صيدلية الدواء","address":"2267 ad dammam rd - Ghirnatah Dist.","district":"Ghirnatah ","latitude":24.8006038,"longitude":46.7428471,"id":10100003155},{"Unnamed: 0":196,"title":"صيدلية الدواء","address":"8412 as sahabah - Al Yarmuk Dist.","district":"Al Yarmuk ","latitude":24.8128763,"longitude":46.7766704,"id":10100003139},{"Unnamed: 0":197,"title":"صيدلية الدواء","address":"6237 Saeed Bin Zayd - Qurtubah Dist.","district":"Qurtubah ","latitude":24.802345,"longitude":46.7394997,"id":10100003101},{"Unnamed: 0":198,"title":"صيدلية الدواء","address":"4118 al qalam - Qurtubah Dist.","district":"Qurtubah ","latitude":24.8148885,"longitude":46.7528671,"id":10100003101},{"Unnamed: 0":199,"title":"صيدلية الدواء","address":"3535 rajiyah - Al Munisiyah Dist.","district":"Al Munisiyah ","latitude":24.8191464,"longitude":46.7647808,"id":10100003140},{"Unnamed: 0":200,"title":"صيدلية الدواء","address":"2795 al qalam - Al Munisiyah Dist.","district":"Al Munisiyah ","latitude":24.816177,"longitude":46.757301,"id":10100003140},{"Unnamed: 0":201,"title":"صيدلية الدواء","address":"7074 ashaikh hasan ibn hussain ibn ali rd - Qurtubah Dist.","district":"Qurtubah ","latitude":24.8261216,"longitude":46.7480975,"id":10100003101},{"Unnamed: 0":202,"title":"صيدلية الدواء","address":"7472 as sahabah - Al Munisiyah Dist.","district":"Al Munisiyah ","latitude":24.8372466,"longitude":46.7643386,"id":10100003140},{"Unnamed: 0":203,"title":"صيدلية الدواء","address":"7121 as sahabah - Al Munisiyah Dist.","district":"Al Munisiyah ","latitude":24.8254151,"longitude":46.7712101,"id":10100003140},{"Unnamed: 0":204,"title":"صيدلية الدواء","address":"6455 as sahabah - Al Munisiyah Dist.","district":"Al Munisiyah ","latitude":24.8192938,"longitude":46.7743604,"id":10100003140},{"Unnamed: 0":205,"title":"صيدلية الدواء","address":"2855 muhammad abdullah al barqi - Al Munisiyah Dist.","district":"Al Munisiyah ","latitude":24.82573,"longitude":46.7760498,"id":10100003140},{"Unnamed: 0":206,"title":"صيدلية الدواء","address":"6767 ash shaikh jabir al ahmad as sabbah - Al Rimal Dist.","district":"Al Rimal ","latitude":24.8297506,"longitude":46.7944005,"id":10100003153},{"Unnamed: 0":207,"title":"صيدلية الدواء","address":"3179 al balqa - Al Rimal Dist.","district":"Al Rimal ","latitude":24.8328244,"longitude":46.7972372,"id":10100003153},{"Unnamed: 0":208,"title":"صيدلية الدواء","address":"7073 King Abdulaziz - Al Nafel Dist.","district":"Al Nafel ","latitude":24.7795472,"longitude":46.6639688,"id":10100003083},{"Unnamed: 0":209,"title":"صيدلية الدواء","address":"4528 al imam saud ibn faysal rd - Al Sahafah Dist.","district":"Al Sahafah ","latitude":24.8012929,"longitude":46.6473051,"id":10100003123},{"Unnamed: 0":210,"title":"صيدلية الدواء","address":"2433 Anas Bin Malek - Al Yasmeen Dist.","district":"Al Yasmeen ","latitude":24.8203059,"longitude":46.6475875,"id":10100003147},{"Unnamed: 0":211,"title":"صيدلية الدواء","address":"6271 Othman Bin Affan - Al Narjis Dist.","district":"Al Narjis ","latitude":24.8365738,"longitude":46.6788579,"id":10100003150},{"Unnamed: 0":212,"title":"صيدلية الدواء","address":"6265 al khair rd - Al Aqeeq Dist.","district":"Al Aqeeq ","latitude":24.7721467,"longitude":46.6204232,"id":10100003107},{"Unnamed: 0":213,"title":"صيدلية الدواء","address":"4470 Prince Mohammed Ibn Salman Ibn Abdulaziz Rd - Al Aqeeq Dist.","district":"Al Aqeeq ","latitude":24.7770953,"longitude":46.6369397,"id":10100003107},{"Unnamed: 0":214,"title":"صيدلية الدواء","address":"7688 prince muhammad ibn saad ibn abdulazizi - Hitteen Dist.","district":"Hitteen ","latitude":24.7774482,"longitude":46.6167497,"id":10100003144},{"Unnamed: 0":215,"title":"صيدلية الدواء","address":"3914 al imam saud ibn faysal rd - Al Malqa Dist.","district":"Al Malqa ","latitude":24.7911377,"longitude":46.6233845,"id":10100003145},{"Unnamed: 0":216,"title":"صيدلية الدواء","address":"4390 Anas Bin Malek - Al Malqa Dist.","district":"Al Malqa ","latitude":24.8096419,"longitude":46.6198397,"id":10100003145},{"Unnamed: 0":217,"title":"صيدلية الدواء","address":"3262 mhail - Al Janadriyah Dist.","district":"Al Janadriyah ","latitude":24.8090408,"longitude":46.8581328,"id":10100003136},{"Unnamed: 0":218,"title":"صيدلية الدواء","address":"7729 taybah - Dhahrat Laban Dist.","district":"hahrat Laban ","latitude":24.6331353,"longitude":46.5632807,"id":10100003143},{"Unnamed: 0":219,"title":"صيدلية الدواء","address":"4558 al shafa - Dhahrat Laban Dist.","district":"hahrat Laban ","latitude":24.6354243,"longitude":46.569405,"id":10100003143},{"Unnamed: 0":220,"title":"صيدلية الدواء","address":"2799 at taif - Dhahrat Laban Dist.","district":"hahrat Laban ","latitude":24.6467715,"longitude":46.5524515,"id":10100003143},{"Unnamed: 0":221,"title":"صيدلية الدواء","address":"4680 al imam ahmad ibn hanbal - Al Rayan Dist.","district":"Al Rayan ","latitude":24.7088596,"longitude":46.7881395,"id":10100003090},{"Unnamed: 0":222,"title":"صيدلية الدواء","address":"2661 al imam ahmad ibn hanbal - Al Rawabi Dist.","district":"Al Rawabi ","latitude":24.7030185,"longitude":46.7801246,"id":10100003089},{"Unnamed: 0":223,"title":"صيدلية الدواء","address":"3590 prince saad ibn abdulrahman al awal rd - Al Rawabi Dist.","district":"Al Rawabi ","latitude":24.683652,"longitude":46.7892081,"id":10100003089},{"Unnamed: 0":224,"title":"صيدلية الدواء","address":"7798 Unayzah - Al Rawabi Dist.","district":"Al Rawabi ","latitude":24.6957578,"longitude":46.782766,"id":10100003089},{"Unnamed: 0":225,"title":"صيدلية الدواء","address":"2497 Al Zubair Bin Al Awwam - Al Rawabi Dist.","district":"Al Rawabi ","latitude":24.6878273,"longitude":46.7782429,"id":10100003089},{"Unnamed: 0":226,"title":"صيدلية الدواء","address":"8505 Saad Bin Abi Waqqas - West Naseem Dist.","district":"West Naseem ","latitude":24.7256692,"longitude":46.8211975,"id":10100003167},{"Unnamed: 0":227,"title":"صيدلية الدواء","address":"4436 prince saad ibn abdulrahman al awal rd - West Naseem Dist.","district":"West Naseem ","latitude":24.7077467,"longitude":46.8385448,"id":10100003167},{"Unnamed: 0":228,"title":"صيدلية الدواء","address":"7564 abi al aswad ad duali - East Naseem Dist.","district":"East Naseem ","latitude":24.7504391,"longitude":46.8343992,"id":10100003080},{"Unnamed: 0":229,"title":"صيدلية الدواء","address":"7972 Al Imam Al Shafie - Al Fayha Dist.","district":"Al Fayha ","latitude":24.6856467,"longitude":46.812895,"id":10100003133},{"Unnamed: 0":230,"title":"صيدلية الدواء","address":"6117 shibh al jazirah - Al Saadah Dist.","district":"Al Saadah ","latitude":24.6957346,"longitude":46.8395886,"id":10100003036},{"Unnamed: 0":231,"title":"صيدلية الدواء","address":"2331 arfat rd - Al Dar Al Baida Dist.","district":"Al Dar Al Baida ","latitude":24.5758538,"longitude":46.788414,"id":10100003130},{"Unnamed: 0":232,"title":"صيدلية الدواء","address":"3332 al imam malik rd - Badr Dist.","district":"Badr ","latitude":24.5451547,"longitude":46.713511,"id":10100003164},{"Unnamed: 0":233,"title":"صيدلية الدواء","address":"3118 AL Khaleel Bin Ahmad - Badr Dist.","district":"Badr ","latitude":24.5396504,"longitude":46.6995388,"id":10100003164},{"Unnamed: 0":234,"title":"صيدلية الدواء","address":"7532 al jazirah al khadra - Al Nadwah Dist.","district":"Al Nadwah ","latitude":24.795178,"longitude":46.8716327,"id":10100003169},{"Unnamed: 0":235,"title":"صيدلية الدواء","address":"7565  - Al Nadwah Dist.","district":"Al Nadwah ","latitude":24.7956412,"longitude":46.8649996,"id":10100003169},{"Unnamed: 0":236,"title":"aldawaaco pharmacy","address":"2443 anas ibn malik - Al Sahafah Dist.","district":"Al Sahafah ","latitude":24.8117175165,"longitude":46.6268557381,"id":10100003123},{"Unnamed: 0":237,"title":"aldawaaco pharmacy","address":"4238 prince nasir ibn saud ibn farhan al saud - Al Sahafah Dist.","district":"Al Sahafah ","latitude":24.8107705549,"longitude":46.6445969926,"id":10100003123},{"Unnamed: 0":238,"title":"alenaayah pharmacy","address":"6297  Abdullah Bin Masud - West Naseem Dist.","district":"West Naseem ","latitude":24.7278510096,"longitude":46.8135925142,"id":10100003167},{"Unnamed: 0":239,"title":" صيدلية غداف","address":"3312 Prince Mohammed Ibn Salman Ibn Abdulaziz Rd - Qurtubah Dist.","district":"Qurtubah ","latitude":24.8198623231,"longitude":46.738448,"id":10100003101},{"Unnamed: 0":240,"title":"alhaah pharmacy","address":"8502 as sahabah - Al Yarmuk Dist.","district":"Al Yarmuk ","latitude":24.8137386742,"longitude":46.7763465772,"id":10100003139},{"Unnamed: 0":241,"title":"alhabib pharmacy","address":"7334 abdullah al jasir - Ishbiliyah Dist.","district":"Ishbiliyah ","latitude":24.7933723409,"longitude":46.7996534012,"id":10100003137},{"Unnamed: 0":242,"title":"aljazeera al dawaa pharmacy","address":"2555 Al Abbas Bin Abdulmuttaleb - Al Taawun Dist.","district":"Al Taawun ","latitude":24.7685078919,"longitude":46.6915892045,"id":10100003085},{"Unnamed: 0":243,"title":"alkalig veterinary pharmacy","address":"7558 ad dammam rd - Al Bayan Dist.","district":"Al Bayan ","latitude":24.8533334706,"longitude":46.862250764,"id":10100003190},{"Unnamed: 0":244,"title":"alnahdi pharmacy","address":"7522 ash shaikh hasan ibn hussain ibn ali - Al Hamra Dist.","district":"Al Hamra ","latitude":24.7813612994,"longitude":46.7722867434,"id":10100003129},{"Unnamed: 0":245,"title":"alnahdi pharmacy","address":"3482 al imam abdullah ibn saud ibn abdulaziz branch rd - Al Yarmuk Dist.","district":"Al Yarmuk ","latitude":24.8019540007,"longitude":46.7904868311,"id":10100003139},{"Unnamed: 0":246,"title":"alnasser pharmacy","address":"7858  Abdullah Bin Masud - West Naseem Dist.","district":"West Naseem ","latitude":24.7290431195,"longitude":46.8120934538,"id":10100003167},{"Unnamed: 0":247,"title":"alnnahdi pharmacy","address":"3898 Anas Bin Malek - Al Yasmeen Dist.","district":"Al Yasmeen ","latitude":24.8151091646,"longitude":46.63312236,"id":10100003147},{"Unnamed: 0":248,"title":"Aloudah Pharmacy(Delivery)","address":"3130 prince sultan ibn salman ibn abdulaziz - Al Woroud Dist.","district":"Al Woroud ","latitude":24.7256938,"longitude":46.678406,"id":10100003026},{"Unnamed: 0":249,"title":" صيدلية العودة ","address":"3896 al imam abdullah ibn saud ibn abdulaziz rd - Al Shohda Dist.","district":"Al Shohda ","latitude":24.7809117,"longitude":46.740806,"id":10100003016},{"Unnamed: 0":250,"title":"Aloudah Pharmacy(Delivery)","address":"4376 Prince Mohammed Ibn Salman Ibn Abdulaziz Rd - Al Rabie Dist.","district":"Al Rabie ","latitude":24.7932416,"longitude":46.6754747,"id":10100003104},{"Unnamed: 0":251,"title":"Aloudah Pharmacy(Delivery)","address":"3990 Anas Bin Malek - Al Malqa Dist.","district":"Al Malqa ","latitude":24.8077939,"longitude":46.615536,"id":10100003145},{"Unnamed: 0":252,"title":"alraya pharmacy","address":"4180 abi said al khadri - King Faisal Dist.","district":"King Faisal ","latitude":24.7620370035,"longitude":46.7806753878,"id":10100003027},{"Unnamed: 0":253,"title":"alriyadh pharmacy","address":"6468 al muhandis masaid al anqari - Al Woroud Dist.","district":"Al Woroud ","latitude":24.7176478386,"longitude":46.6810709856,"id":10100003026},{"Unnamed: 0":254,"title":"alsalam pharmacy","address":"3676 king abdullah ibn abdul aziz rd - Ishbiliyah Dist.","district":"Ishbiliyah ","latitude":24.77854274,"longitude":46.7827860588,"id":10100003137},{"Unnamed: 0":255,"title":"alshablan pharmacy","address":"3456 al urubah rd - Al Woroud Dist.","district":"Al Woroud ","latitude":24.7166110248,"longitude":46.6816216308,"id":10100003026},{"Unnamed: 0":256,"title":"alshafi pharmacy","address":"7349 ibn rashiq - King Faisal Dist.","district":"King Faisal ","latitude":24.7591559124,"longitude":46.7775641334,"id":10100003027},{"Unnamed: 0":257,"title":"alshshirae pharmacy","address":"7133 King Abdul Aziz Rd - Al Mursalat Dist.","district":"Al Mursalat ","latitude":24.7468146375,"longitude":46.6805386331,"id":10100003024},{"Unnamed: 0":258,"title":"al-thowaini pharmacy","address":"7813 Osamah Bin Zayd - West Naseem Dist.","district":"West Naseem ","latitude":24.7415440106,"longitude":46.8155361016,"id":10100003167},{"Unnamed: 0":259,"title":" صيدلية العودة ","address":"7884 khalid ibn al walid - Al Shohda Dist.","district":"Al Shohda ","latitude":24.7930309892,"longitude":46.7434233757,"id":10100003016},{"Unnamed: 0":260,"title":"ALWADAN PHARMACY","address":"8644 khalid ibn al walid - Al Rawdah Dist.","district":"Al Rawdah ","latitude":24.7508529789,"longitude":46.7713684689,"id":10100003088},{"Unnamed: 0":261,"title":"ameed alseha pharmacy","address":"4086 al amir bandar ibn abdul aziz - King Faisal Dist.","district":"King Faisal ","latitude":24.7506793291,"longitude":46.7798254892,"id":10100003027},{"Unnamed: 0":262,"title":"ammar pharmacy","address":"3561 prince mamduh ibn abdulaziz - Al Sulaimaniyah Dist.","district":"Al Sulaimaniyah ","latitude":24.709206488,"longitude":46.690385151,"id":10100003063},{"Unnamed: 0":263,"title":"ammar pharmacy","address":"4120 prince salman ibn muhammad al saud - Al Sahafah Dist.","district":"Al Sahafah ","latitude":24.7994779898,"longitude":46.6431167299,"id":10100003123},{"Unnamed: 0":264,"title":"ammar pharmacy","address":"3968 al imam saud ibn faysal rd - Al Sahafah Dist.","district":"Al Sahafah ","latitude":24.7990259352,"longitude":46.6418932848,"id":10100003123},{"Unnamed: 0":265,"title":" صيدلية امون ","address":"6684 ash shaikh abdul rahman ibn hasan - Al Wizarat Dist.","district":"Al Wizarat ","latitude":24.670881,"longitude":46.7116597,"id":10100003045},{"Unnamed: 0":266,"title":" صيدلية امون ","address":"6994 riba - Qurtubah Dist.","district":"Qurtubah ","latitude":24.8014758,"longitude":46.7296759,"id":10100003101},{"Unnamed: 0":267,"title":" صيدلية امون ","address":"7219  - 2nd Industrial City","district":"2nd Industrial City","latitude":24.5638486,"longitude":46.8712739,"id":10100003028},{"Unnamed: 0":268,"title":"ar rafeeq pharmacy","address":"4465 al madinah al munawarah - Al Jarradiyah Dist.","district":"Al Jarradiyah ","latitude":24.617282608,"longitude":46.694529185,"id":10100003003},{"Unnamed: 0":269,"title":"ar rayed pharmacy","address":"4993 al ris - Al Shumaisi Dist.","district":"Al Shumaisi ","latitude":24.618713088,"longitude":46.699789051,"id":10100003113},{"Unnamed: 0":270,"title":"ar riyadh pharmacy","address":"7644 Al Tirmidhi - Al Shifa Dist.","district":"Al Shifa ","latitude":24.566203188,"longitude":46.703102165,"id":10100003061},{"Unnamed: 0":271,"title":"ar riyadh pharmacy","address":"3063 Al Tirmidhi - Badr Dist.","district":"Badr ","latitude":24.558410776,"longitude":46.710958134,"id":10100003164},{"Unnamed: 0":272,"title":"ar riyadh pharmacy 2","address":"2846 sadir - Al Suwaidi Dist.","district":"Al Suwaidi ","latitude":24.58009005,"longitude":46.666050878,"id":10100003018},{"Unnamed: 0":273,"title":"arak pharmacy","address":"6613 al ulaya - Al Olaya Dist.","district":"Al Olaya ","latitude":24.685578387,"longitude":46.68957891,"id":10100003075},{"Unnamed: 0":274,"title":"arak pharmacy","address":"2500 al amir sultan ibn abdul aziz - Al Olaya Dist.","district":"Al Olaya ","latitude":24.690572378,"longitude":46.688841723,"id":10100003075},{"Unnamed: 0":275,"title":"arak pharmacy","address":"3697 prince nawaf ibn abdulaziz - West Umm Al Hamam Dist.","district":"West Umm Al Hamam ","latitude":24.688332057,"longitude":46.646291381,"id":10100003012},{"Unnamed: 0":276,"title":"arak pharmacy","address":"2527 al imam faisal ibn turki ibn abdullah - Al Dirah Dist.","district":"Al Dirah ","latitude":24.637773533,"longitude":46.707389454,"id":10100003007},{"Unnamed: 0":277,"title":"arak pharmacy","address":"3686 al imam turki ibn abdullah ibn muhammad - Olaishah Dist.","district":"Olaishah ","latitude":24.629963418,"longitude":46.691601284,"id":10100003053},{"Unnamed: 0":278,"title":"arak pharmacy","address":"6537 Ayshah Bin Abi Bakr - Al Suwaidi Dist.","district":"Al Suwaidi ","latitude":24.586210726,"longitude":46.654701974,"id":10100003018},{"Unnamed: 0":279,"title":"arak pharmacy","address":"7470 Al Tirmidhi - Al Shifa Dist.","district":"Al Shifa ","latitude":24.564553512,"longitude":46.704457795,"id":10100003061},{"Unnamed: 0":280,"title":"arak pharmacy","address":"6626 Maray Al Qibtiyyah - West Oraija Dist.","district":"West Oraija ","latitude":24.589504294,"longitude":46.59143478,"id":10100003126},{"Unnamed: 0":281,"title":"arak pharmacy","address":"8820 Hamzah Bin Abdulmuttaleb - West Suwaidi Dist.","district":"West Suwaidi ","latitude":24.583605934,"longitude":46.627544755,"id":10100003057},{"Unnamed: 0":282,"title":"ard alhakim pharmacy","address":"7607 al qubbah - Ishbiliyah Dist.","district":"Ishbiliyah ","latitude":24.7908122848,"longitude":46.7765531211,"id":10100003137},{"Unnamed: 0":283,"title":"ardh alhakeem pharmacy","address":"8267 buraiydah - Al Rayan Dist.","district":"Al Rayan ","latitude":24.7148824641,"longitude":46.7860329354,"id":10100003090},{"Unnamed: 0":284,"title":"areej almadayin pharmacy","address":"2487 al malik abdullah ibn abdulaziz rd - Al Rahmaniyah Dist.","district":"Al Rahmaniyah ","latitude":24.721992114,"longitude":46.6514961301,"id":10100003013},{"Unnamed: 0":285,"title":"arqa pharmacy","address":"2643 al imam saud ibn abdulaziz branch rd - Al Nuzha Dist.","district":"Al Nuzha ","latitude":24.7633039815,"longitude":46.7008882058,"id":10100003025},{"Unnamed: 0":286,"title":"as sahha pharmacy","address":"2600 samahat ash shaikh abdul aziz ibn baz - Al Badeah Dist.","district":"Al Badeah ","latitude":24.62111333,"longitude":46.680833904,"id":10100003071},{"Unnamed: 0":287,"title":"as saleh pharmacy","address":"7104 prince abdulaziz ibn musaid ibn jalawi - Al Olaya Dist.","district":"Al Olaya ","latitude":24.689791635,"longitude":46.700130017,"id":10100003075},{"Unnamed: 0":288,"title":"as saqaf pharmacy","address":"7104 prince abdulaziz ibn musaid ibn jalawi - Al Olaya Dist.","district":"Al Olaya ","latitude":24.690156729,"longitude":46.700309547,"id":10100003075},{"Unnamed: 0":289,"title":"as saqaf pharmacy","address":"6909 prince abdulaziz ibn musaid ibn jalawi - Al Sulaimaniyah Dist.","district":"Al Sulaimaniyah ","latitude":24.691524183,"longitude":46.701560179,"id":10100003063},{"Unnamed: 0":290,"title":"as saqaf pharmacy","address":"7969 umm al hamam - East Umm Al Hamam Dist.","district":"East Umm Al Hamam ","latitude":24.69232131,"longitude":46.650553091,"id":10100003008},{"Unnamed: 0":291,"title":"as saqaf pharmacy","address":"7260 al abbas al ghanawi - Al Shumaisi Dist.","district":"Al Shumaisi ","latitude":24.624076668,"longitude":46.695495211,"id":10100003113},{"Unnamed: 0":292,"title":"as saqaf pharmacy","address":"3436 as suwaidi al am - Sultanah Dist.","district":"Sultanah ","latitude":24.597688652,"longitude":46.684079435,"id":10100003069},{"Unnamed: 0":293,"title":"as saqaf pharmacy","address":"6262 ibn taimiah rd - Al Shifa Dist.","district":"Al Shifa ","latitude":24.553685875,"longitude":46.700062556,"id":10100003061},{"Unnamed: 0":294,"title":"as saqaf pharmacy","address":"6815 al khalifah al mamun - Badr Dist.","district":"Badr ","latitude":24.55026074,"longitude":46.711387173,"id":10100003164},{"Unnamed: 0":295,"title":"as saqaf pharmacy","address":"2906 Belal Bin Rabah - Tuwaiq Dist.","district":"Tuwaiq ","latitude":24.579001806,"longitude":46.564827731,"id":10100003102},{"Unnamed: 0":296,"title":"as saqaf pharmacy","address":"4409 Khadeejah Bint Khuwaylid - Tuwaiq Dist.","district":"Tuwaiq ","latitude":24.585648068,"longitude":46.553549122,"id":10100003102},{"Unnamed: 0":297,"title":"as sohim pharmacy","address":"3731 Khadeejah Bint Khuwaylid - Tuwaiq Dist.","district":"Tuwaiq ","latitude":24.58615126,"longitude":46.54684596,"id":10100003102},{"Unnamed: 0":298,"title":"as sudays pharmacy","address":"2862 southern ring branch rd - Shubra Dist.","district":"Shubra ","latitude":24.571249274,"longitude":46.66585101,"id":10100003066},{"Unnamed: 0":299,"title":"as suhaim pharmacy","address":"3608 al amir musaid ibn abdul rahman ibn faisal rd - West Oraija Dist.","district":"West Oraija ","latitude":24.591409974,"longitude":46.610898915,"id":10100003126},{"Unnamed: 0":300,"title":"as suhaim pharmacy","address":"3644 Belal Bin Rabah - Tuwaiq Dist.","district":"Tuwaiq ","latitude":24.5784323,"longitude":46.572104984,"id":10100003102},{"Unnamed: 0":301,"title":"asawer as saha pharmacy","address":"4322 dirab branch road - Namar Dist.","district":"Namar ","latitude":24.574594553,"longitude":46.69467335,"id":10100003060},{"Unnamed: 0":302,"title":"ash shafi pharmacy","address":"2469 dirab branch rd - Al Shifa Dist.","district":"Al Shifa ","latitude":24.577734026,"longitude":46.700556067,"id":10100003061},{"Unnamed: 0":303,"title":"asir pharmacy","address":"5299 asir - Al Jarradiyah Dist.","district":"Al Jarradiyah ","latitude":24.617602495,"longitude":46.702785527,"id":10100003003},{"Unnamed: 0":304,"title":"astar pharmacy","address":"2863 al madinah al munawarah - Dhahrat Al Badeah Dist.","district":"hahrat Al Badeah ","latitude":24.593438472,"longitude":46.632859717,"id":10100003091},{"Unnamed: 0":305,"title":"astra pharmacy 11","address":"6649 Ayshah Bin Abi Bakr - Shubra Dist.","district":"Shubra ","latitude":24.575784927,"longitude":46.662381498,"id":10100003066},{"Unnamed: 0":306,"title":"at tuwaijri pharmacy","address":"2956 samahat ash shaikh abdul aziz ibn baz - Al Badeah Dist.","district":"Al Badeah ","latitude":24.62326121,"longitude":46.684378417,"id":10100003071},{"Unnamed: 0":307,"title":"atlas al sharq pharmacy","address":"7137 al ihsa - Al Malaz Dist.","district":"Al Malaz ","latitude":24.6709988161,"longitude":46.7370100748,"id":10100003051},{"Unnamed: 0":308,"title":"atlas pharmacy","address":"8082 abdul rahman ibn awf rd - Al Salam Dist.","district":"Al Salam ","latitude":24.7116034473,"longitude":46.8189579622,"id":10100003078},{"Unnamed: 0":309,"title":"atlas pharmacy","address":"6857 abi bakr as siddiq branch - Al Nuzha Dist.","district":"Al Nuzha ","latitude":24.7520377937,"longitude":46.699665862,"id":10100003025},{"Unnamed: 0":310,"title":"atlas pharmacy","address":"4342 al imam saud ibn abdul aziz rd - Al Taawun Dist.","district":"Al Taawun ","latitude":24.7676621626,"longitude":46.7094361518,"id":10100003085},{"Unnamed: 0":311,"title":"atlas pharmacy","address":"3697 prince nawaf ibn abdulaziz - West Umm Al Hamam Dist.","district":"West Umm Al Hamam ","latitude":24.688350553,"longitude":46.64661648,"id":10100003012},{"Unnamed: 0":312,"title":"atlas pharmacy","address":"6521 Ayshah Bin Abi Bakr - Al Suwaidi Dist.","district":"Al Suwaidi ","latitude":24.586083883,"longitude":46.654859853,"id":10100003018},{"Unnamed: 0":313,"title":"atlas pharmacy","address":"4298 al madinah al munawarah - Dhahrat Al Badeah Dist.","district":"hahrat Al Badeah ","latitude":24.59722868,"longitude":46.637629632,"id":10100003091},{"Unnamed: 0":314,"title":"atlas pharmacy","address":"2539 AL Khaleel Bin Ahmad - Al Marwah Dist.","district":"Al Marwah ","latitude":24.555296496,"longitude":46.675820292,"id":10100003064},{"Unnamed: 0":315,"title":"atlas pharmacy","address":"2083 Belal Bin Rabah - Tuwaiq Dist.","district":"Tuwaiq ","latitude":24.579053731,"longitude":46.55675185,"id":10100003102},{"Unnamed: 0":316,"title":"atlas pharmacy","address":"3547 Khadeejah Bint Khuwaylid - Tuwaiq Dist.","district":"Tuwaiq ","latitude":24.586318755,"longitude":46.5448369,"id":10100003102},{"Unnamed: 0":317,"title":"Atlas Pharmacy(Delivery)","address":"6554 Kaab Bin Zuhair - Al Suwaidi Dist.","district":"Al Suwaidi ","latitude":24.5861601,"longitude":46.6654519,"id":10100003018},{"Unnamed: 0":318,"title":"Atlas Pharmacy(Delivery)","address":"2761 umar ibn abdul aziz branch rd - Al Rabwah Dist.","district":"Al Rabwah ","latitude":24.6904751,"longitude":46.761875,"id":10100003047},{"Unnamed: 0":319,"title":"aziz pharmacy","address":"7736 al qubbah - Ishbiliyah Dist.","district":"Ishbiliyah ","latitude":24.7920507942,"longitude":46.7751818576,"id":10100003137},{"Unnamed: 0":320,"title":"badr al kubra pharmacy","address":"3342 al amir sultan ibn abdul aziz - Al Olaya Dist.","district":"Al Olaya ","latitude":24.685462582,"longitude":46.676644026,"id":10100003075},{"Unnamed: 0":321,"title":"balsharaf pharmacy","address":"6516 al amir abdullah ibn abdul rahman ibn faisal - Utayqah Dist.","district":"Utayqah ","latitude":24.60931385,"longitude":46.710349068,"id":10100003020},{"Unnamed: 0":322,"title":"balsharaf pharmacy","address":"3180 al madinah al munawarah - Dhahrat Al Badeah Dist.","district":"hahrat Al Badeah ","latitude":24.590414394,"longitude":46.626500388,"id":10100003091},{"Unnamed: 0":323,"title":"صيدلية بركة الدواء","address":"6905 abdullah ibn markhan - Qurtubah Dist.","district":"Qurtubah ","latitude":24.8083075713,"longitude":46.7460345759,"id":10100003101},{"Unnamed: 0":324,"title":"basmah alaaileh pharmacy","address":"3201 al amir saud ibn abdul aziz al saud al kabir - Al Quds Dist.","district":"Al Quds ","latitude":24.7558902308,"longitude":46.7506999129,"id":10100003081},{"Unnamed: 0":325,"title":"basmat al lulu pharmacy","address":"7300 abdullah ibn sulaiman al hamadan - Al Sulaimaniyah Dist.","district":"Al Sulaimaniyah ","latitude":24.708124341,"longitude":46.689830545,"id":10100003063},{"Unnamed: 0":326,"title":"bayt as saha pharmacy","address":"3838 Abdulmalek Bin Hesham - Al Suwaidi Dist.","district":"Al Suwaidi ","latitude":24.586375388,"longitude":46.676145731,"id":10100003018},{"Unnamed: 0":327,"title":"bayt as saha pharmacy","address":"7271 Ayshah Bin Abi Bakr - Al Suwaidi Dist.","district":"Al Suwaidi ","latitude":24.581332172,"longitude":46.65837005,"id":10100003018},{"Unnamed: 0":328,"title":"bayt as saha pharmacy","address":"3569 ibn saban - Middle Oraija Dist.","district":"Middle Oraija ","latitude":24.607291892,"longitude":46.630409714,"id":10100003128},{"Unnamed: 0":329,"title":"bayt as saha pharmacy","address":"7920 badi az zaman al hamadhani - Al Zahrah Dist.","district":"Al Zahrah ","latitude":24.578410109,"longitude":46.648521169,"id":10100003067},{"Unnamed: 0":330,"title":"bayt as saha pharmacy 4","address":"5232 al imam abi hanifah - Middle Oraija Dist.","district":"Middle Oraija ","latitude":24.613282743,"longitude":46.63410599,"id":10100003128},{"Unnamed: 0":331,"title":"bilad aleafia pharmacy","address":"7308 King Abdulaziz - Al Muruj Dist.","district":"Al Muruj ","latitude":24.7575841549,"longitude":46.6740912745,"id":10100003110},{"Unnamed: 0":332,"title":"bismah family pharmacy","address":"6662 dhabiyat bint al barra - Al Maseef Dist.","district":"Al Maseef ","latitude":24.7593440448,"longitude":46.685558991,"id":10100003084},{"Unnamed: 0":333,"title":"biut almdaayin pharmacy","address":"8282 an najah - Ishbiliyah Dist.","district":"Ishbiliyah ","latitude":24.8019489891,"longitude":46.8039877322,"id":10100003137},{"Unnamed: 0":334,"title":"boon pharmacy","address":"2219 king abdullah ibn abdul aziz rd - King Faisal Dist.","district":"King Faisal ","latitude":24.7682016804,"longitude":46.7613618488,"id":10100003027},{"Unnamed: 0":335,"title":"بوتس ","address":"7454 eastern ring branch rd - Al Rabwah Dist.","district":"Al Rabwah ","latitude":24.6850968006,"longitude":46.7756699376,"id":10100003047},{"Unnamed: 0":336,"title":"بوتس ","address":"6623  - Al Shohda Dist.","district":"Al Shohda ","latitude":24.7807957202,"longitude":46.7303554747,"id":10100003016},{"Unnamed: 0":337,"title":"Boots Pharmacy","address":"3980 kharis branch rd - Al Rawdah Dist.","district":"Al Rawdah ","latitude":24.7235480973,"longitude":46.7750056602,"id":10100003088},{"Unnamed: 0":338,"title":"بوتس ","address":"2754 al haseer - Al Malqa Dist.","district":"Al Malqa ","latitude":24.7928308418,"longitude":46.6120572191,"id":10100003145},{"Unnamed: 0":339,"title":"بوتس ","address":"7252 King Abdulaziz - King Fahd Dist.","district":"King Fahd ","latitude":24.7395991792,"longitude":46.6821415519,"id":10100003017},{"Unnamed: 0":340,"title":"بوتس ","address":"7349 Othman Bin Affan - Al Nada Dist.","district":"Al Nada ","latitude":24.806331175,"longitude":46.6926368699,"id":10100003023},{"Unnamed: 0":341,"title":"capital pharmacy","address":"6513 Hamzah Bin Abdulmuttaleb - Middle Oraija Dist.","district":"Middle Oraija ","latitude":24.59317621,"longitude":46.621284684,"id":10100003128},{"Unnamed: 0":342,"title":"Care Pharmacy(Delivery)","address":"7170 prince abdulaziz ibn musaid ibn jalawi - Al Olaya Dist.","district":"Al Olaya ","latitude":24.690598,"longitude":46.700493,"id":10100003075},{"Unnamed: 0":343,"title":"charisma pharmacy","address":"6891 King Abdulaziz - Al Rabie Dist.","district":"Al Rabie ","latitude":24.7945551482,"longitude":46.6563950653,"id":10100003104},{"Unnamed: 0":344,"title":"college of pharmacy","address":"3126  - King Saud University","district":"King Saud University","latitude":24.7157851937,"longitude":46.6218680757,"id":10100003166},{"Unnamed: 0":345,"title":"cure drop pharmacy","address":"8192 Hamzah Bin Abdulmuttaleb - West Suwaidi Dist.","district":"West Suwaidi ","latitude":24.580286302,"longitude":46.630054278,"id":10100003057},{"Unnamed: 0":346,"title":"daan pharmacy","address":"6725 al muhandis masaid al anqari - Al Woroud Dist.","district":"Al Woroud ","latitude":24.7199061057,"longitude":46.6804018613,"id":10100003026},{"Unnamed: 0":347,"title":"daan pharmacy","address":"6105 as sahabah - Ishbiliyah Dist.","district":"Ishbiliyah ","latitude":24.7824043673,"longitude":46.7930160834,"id":10100003137},{"Unnamed: 0":348,"title":"dan al nahdi pharmacy","address":"3897 al imam saud ibn abdul aziz rd - Al Muhammadiyah Dist.","district":"Al Muhammadiyah ","latitude":24.7430149773,"longitude":46.6528125975,"id":10100003062},{"Unnamed: 0":349,"title":"dan city pharmacy","address":"3600 muhammad ibn abdullah al burqi - Al Munisiyah Dist.","district":"Al Munisiyah ","latitude":24.8219235341,"longitude":46.7653901221,"id":10100003140},{"Unnamed: 0":350,"title":"dan glory pharmacy","address":"3653 Al Zubair Bin Al Awwam - Al Rawabi Dist.","district":"Al Rawabi ","latitude":24.6936309754,"longitude":46.7896950756,"id":10100003089},{"Unnamed: 0":351,"title":"dan pharmacy","address":"3324 mohammed rasheed rda - Al Aziziyah Dist.","district":"Al Aziziyah ","latitude":24.5837134804,"longitude":46.7597140423,"id":10100003029},{"Unnamed: 0":352,"title":"dar al arab medical center and pharmacy","address":"8520 prince abdulaziz ibn musaid ibn jalawi - Al Sulaimaniyah Dist.","district":"Al Sulaimaniyah ","latitude":24.702956587,"longitude":46.705259883,"id":10100003063},{"Unnamed: 0":353,"title":"dar al ilaj pharmacy","address":"6329 Ayshah Bin Abi Bakr - Al Suwaidi Dist.","district":"Al Suwaidi ","latitude":24.584337337,"longitude":46.656139985,"id":10100003018},{"Unnamed: 0":354,"title":"dar al ilaj polyclinic and pharmacy","address":"6353 Ayshah Bin Abi Bakr - Al Suwaidi Dist.","district":"Al Suwaidi ","latitude":24.584567787,"longitude":46.655968743,"id":10100003018},{"Unnamed: 0":355,"title":"dar pharmacy","address":"3851 al madinah al munawarah - Dhahrat Al Badeah Dist.","district":"hahrat Al Badeah ","latitude":24.599503166,"longitude":46.642698626,"id":10100003091},{"Unnamed: 0":356,"title":"dawaa alsafwah pharmacy","address":"7349 ibn rashiq - King Faisal Dist.","district":"King Faisal ","latitude":24.7590637083,"longitude":46.7776206456,"id":10100003027},{"Unnamed: 0":357,"title":"dawaak pharmacy","address":"4706 umar ibn abdul aziz branch rd - Al Rabwah Dist.","district":"Al Rabwah ","latitude":24.6871800314,"longitude":46.749907483,"id":10100003047},{"Unnamed: 0":358,"title":"dawaie pharmacy","address":"3491 al imam faisal ibn turki ibn abdullah - Olaishah Dist.","district":"Olaishah ","latitude":24.636640514,"longitude":46.68976403,"id":10100003053},{"Unnamed: 0":359,"title":"dean of health pharmacy","address":"3183 Al Zubair Bin Al Awwam - Al Rawabi Dist.","district":"Al Rawabi ","latitude":24.6907175694,"longitude":46.7850155338,"id":10100003089},{"Unnamed: 0":361,"title":"dib ad dawa pharmacy","address":"8031 al ajaliyah - Umm Saleem Dist.","district":"Umm Saleem ","latitude":24.630922568,"longitude":46.698168364,"id":10100003122},{"Unnamed: 0":362,"title":"dosage pharmacy","address":"6870 al amir abdul rahman ibn abdul aziz - Al Murabba Dist.","district":"Al Murabba ","latitude":24.672624666,"longitude":46.70846598,"id":10100003021},{"Unnamed: 0":363,"title":"dr. sulaiman alhabib pharmacy in arryan","address":"3319 kharis branch rd - Al Rayan Dist.","district":"Al Rayan ","latitude":24.7203693913,"longitude":46.7750809603,"id":10100003090},{"Unnamed: 0":364,"title":"drug central pharmacy","address":"7298 prince salman ibn muhammad al saud - Al Sahafah Dist.","district":"Al Sahafah ","latitude":24.8054456781,"longitude":46.6406135369,"id":10100003123},{"Unnamed: 0":365,"title":"drug pharmacy shaf","address":"7641 al amir abdullah bin saud bin abdullah snaytan al  - Al Sahafah Dist.","district":"Al Sahafah ","latitude":24.8084304065,"longitude":46.6370165796,"id":10100003123},{"Unnamed: 0":366,"title":"shafi pharmacy","address":"3426 ibn sina - Al Muruj Dist.","district":"Al Muruj ","latitude":24.757645623,"longitude":46.6645932582,"id":10100003110},{"Unnamed: 0":367,"title":"motrouk pharmacy","address":"8247 abi bakr as siddiq - Al Wahah Dist.","district":"Al Wahah ","latitude":24.740918671,"longitude":46.7052183119,"id":10100003042},{"Unnamed: 0":368,"title":"xeer pharmacy 4","address":"2732 al amir sultan ibn abdul aziz - North Mathar Dist.","district":"North Mathar ","latitude":24.682825145,"longitude":46.670511496,"id":10100003011},{"Unnamed: 0":369,"title":"xeer pharmacy 5","address":"3075 Mousa Bin Naseer - Al Olaya Dist.","district":"Al Olaya ","latitude":24.70530928,"longitude":46.68561864,"id":10100003075},{"Unnamed: 0":370,"title":"faisal pharmacy","address":"4469 Hamzah Bin Abdulmuttaleb - West Oraija Dist.","district":"West Oraija ","latitude":24.610579389,"longitude":46.607581354,"id":10100003126},{"Unnamed: 0":371,"title":"faisal pharmacy","address":"4814 Ibn Hazm - West Oraija Dist.","district":"West Oraija ","latitude":24.598658805,"longitude":46.58896181,"id":10100003126},{"Unnamed: 0":372,"title":"family pharmacy","address":"7774 prince abdulaziz ibn musaid ibn jalawi - Al Olaya Dist.","district":"Al Olaya ","latitude":24.695995438,"longitude":46.702643172,"id":10100003075},{"Unnamed: 0":373,"title":"\"family's smile pharmacy\"","address":"3419 al imam abdullah ibn saud ibn abdulaziz rd - Ishbiliyah Dist.","district":"Ishbiliyah ","latitude":24.8042939924,"longitude":46.7983225152,"id":10100003137},{"Unnamed: 0":374,"title":"farabi pharmacy 5","address":"3356 makkah al mukarramah branch rd - North Mathar Dist.","district":"North Mathar ","latitude":24.676319072,"longitude":46.675659391,"id":10100003011},{"Unnamed: 0":375,"title":"fawz pharmacy","address":"4024 Belal Bin Rabah - West Oraija Dist.","district":"West Oraija ","latitude":24.584463815,"longitude":46.596002187,"id":10100003126},{"Unnamed: 0":376,"title":"found medicine pharmacy","address":"2405 arfat rd - Al Dar Al Baida Dist.","district":"Al Dar Al Baida ","latitude":24.5629901782,"longitude":46.7620592863,"id":10100003130},{"Unnamed: 0":377,"title":"ghadaf pharmacy","address":"7186  - Al Arid Dist.","district":"Al Arid ","latitude":24.861827638,"longitude":46.6434588743,"id":10100003148},{"Unnamed: 0":378,"title":"ghadawi pharmacy","address":"4017 al imam faisal ibn turki ibn abdullah - Umm Saleem Dist.","district":"Umm Saleem ","latitude":24.636990438,"longitude":46.695115134,"id":10100003122},{"Unnamed: 0":379,"title":"Green Pharmacy(Delivery)","address":"7053 urwah bin al ward - Al Muruj Dist.","district":"Al Muruj ","latitude":24.7552894,"longitude":46.6686073,"id":10100003110},{"Unnamed: 0":380,"title":"Green Pharmacy(Delivery)","address":"2241 Khadeejah Bint Khuwaylid - West Oraija Dist.","district":"West Oraija ","latitude":24.5922975,"longitude":46.5973262,"id":10100003126},{"Unnamed: 0":381,"title":"Green Pharmacy(Delivery)","address":"4011 al imam muhammad ismail as sanfani - Al Khaleej Dist.","district":"Al Khaleej ","latitude":24.7808165,"longitude":46.815131,"id":10100003055},{"Unnamed: 0":382,"title":"Green Pharmacy(Delivery)","address":"8740 Ibn Al Haytahm - Al Khaleej Dist.","district":"Al Khaleej ","latitude":24.791901439,"longitude":46.81264075,"id":10100003055},{"Unnamed: 0":383,"title":"Green Pharmacy(Delivery)","address":"7187 al qadisiya - Al Yasmeen Dist.","district":"Al Yasmeen ","latitude":24.8295784,"longitude":46.650736,"id":10100003147},{"Unnamed: 0":384,"title":"Green Pharmacy(Delivery)","address":"8188 Al Imam Al Shafie - Al Fayha Dist.","district":"Al Fayha ","latitude":24.6877043,"longitude":46.8121554,"id":10100003133},{"Unnamed: 0":385,"title":"Green Pharmacy(Delivery)","address":"4194 nahawnd - Al Aziziyah Dist.","district":"Al Aziziyah ","latitude":24.5706576,"longitude":46.768037,"id":10100003029},{"Unnamed: 0":386,"title":"Green Pharmacy(Delivery)","address":"8172 al itidal - Badr Dist.","district":"Badr ","latitude":24.5477218,"longitude":46.7307363,"id":10100003164},{"Unnamed: 0":387,"title":"Green Pharmacy(Delivery)","address":"2080 Al Imam Muslem - Badr Dist.","district":"Badr ","latitude":24.53916,"longitude":46.6891737,"id":10100003164},{"Unnamed: 0":388,"title":"Green Pharmacy(Delivery)","address":"2581 najmuddin al ayubi - Tuwaiq Dist.","district":"Tuwaiq ","latitude":24.5553673,"longitude":46.5271017,"id":10100003102},{"Unnamed: 0":389,"title":"greens pharmacy","address":"7045 Hassan Bin Thabit - East Naseem Dist.","district":"East Naseem ","latitude":24.7226432199,"longitude":46.8415009087,"id":10100003080},{"Unnamed: 0":390,"title":"greens pharmacy","address":"8450 ibn majah - Al Fayha Dist.","district":"Al Fayha ","latitude":24.689939021,"longitude":46.8197115678,"id":10100003133},{"Unnamed: 0":391,"title":"habbar veterinary pharmacy","address":"7827 salam - Al Dubiyah Dist.","district":"Al Dubiyah ","latitude":24.62104751,"longitude":46.710745051,"id":10100003116},{"Unnamed: 0":392,"title":"Habib Pharmacy(Delivery)","address":"8807 King Fahd - Al Olaya Dist.","district":"Al Olaya ","latitude":24.7043707,"longitude":46.676733,"id":10100003075},{"Unnamed: 0":393,"title":"Habib Pharmacy(Delivery)","address":"7604 at takhassusi - Al Rahmaniyah Dist.","district":"Al Rahmaniyah ","latitude":24.7194988,"longitude":46.6572967,"id":10100003013},{"Unnamed: 0":394,"title":"Habib Pharmacy(Delivery)","address":"6695  - Al Zahrah Dist.","district":"Al Zahrah ","latitude":24.5670906,"longitude":46.640789,"id":10100003067},{"Unnamed: 0":395,"title":"Habib Pharmacy(Delivery)","address":"3319 kharis branch rd - Al Rayan Dist.","district":"Al Rayan ","latitude":24.7216648,"longitude":46.7740537,"id":10100003090},{"Unnamed: 0":396,"title":"hamad pharmacy","address":"7449 al amir matab ibn abdul aziz - Al Rabwah Dist.","district":"Al Rabwah ","latitude":24.6858635819,"longitude":46.7665846796,"id":10100003047},{"Unnamed: 0":397,"title":"hamoudi pharmacy","address":"9036 al amir abdullah ibn jalawi ibn turki - Al Murabba Dist.","district":"Al Murabba ","latitude":24.650296565,"longitude":46.705984867,"id":10100003021},{"Unnamed: 0":398,"title":"haneen pharmacy","address":"8756 al ulaya - Al Olaya Dist.","district":"Al Olaya ","latitude":24.675374976,"longitude":46.694073341,"id":10100003075},{"Unnamed: 0":399,"title":"hayy badr pharmacy","address":"6942 al khalifah al mamun - Badr Dist.","district":"Badr ","latitude":24.551400558,"longitude":46.71142462,"id":10100003164},{"Unnamed: 0":400,"title":"Health Balsam Pharmacy(Delivery)","address":"7485 Ibn Hazm - West Oraija Dist.","district":"West Oraija ","latitude":24.6045899,"longitude":46.5957614,"id":10100003126},{"Unnamed: 0":401,"title":"Health Balsam Pharmacy(Delivery)","address":"7961 al hakam al mustansir billah - Al Nahdah Dist.","district":"Al Nahdah ","latitude":24.757597883,"longitude":46.801717373,"id":10100003054},{"Unnamed: 0":402,"title":"Health Balsam Pharmacy(Delivery)","address":"8674 Ibn Al Haytahm - Al Nahdah Dist.","district":"Al Nahdah ","latitude":24.7745812,"longitude":46.8255869,"id":10100003054},{"Unnamed: 0":403,"title":"Health Balsam Pharmacy(Delivery)","address":"3270 as sail al kabir - Al Ghadeer Dist.","district":"Al Ghadeer ","latitude":24.7721303,"longitude":46.6514035,"id":10100003109},{"Unnamed: 0":404,"title":"HB صيدلية","address":"2595 Khadeejah Bint Khuwaylid - West Oraija Dist.","district":"West Oraija ","latitude":24.5944622,"longitude":46.6009157,"id":10100003126},{"Unnamed: 0":405,"title":"HB صيدلية","address":"3069 ad dammam branch rd - Al Shohda Dist.","district":"Al Shohda ","latitude":24.7963728,"longitude":46.7329281,"id":10100003016},{"Unnamed: 0":406,"title":"HB صيدلية","address":"6783 Saeed Bin Zayd - Qurtubah Dist.","district":"Qurtubah ","latitude":24.8071189,"longitude":46.7374277,"id":10100003101},{"Unnamed: 0":407,"title":"HB صيدلية","address":"5146 Sufyan Bin Awf - Al Aziziyah Dist.","district":"Al Aziziyah ","latitude":24.5859214,"longitude":46.7776864,"id":10100003029},{"Unnamed: 0":408,"title":"health fayhaa pharmacy","address":"6803 ibn majah - Al Saadah Dist.","district":"Al Saadah ","latitude":24.6848933497,"longitude":46.8233626798,"id":10100003036},{"Unnamed: 0":409,"title":"health house pharmacy","address":"3525 Al-Hussain Bin Ali - Al Taawun Dist.","district":"Al Taawun ","latitude":24.7739552537,"longitude":46.7011377091,"id":10100003085},{"Unnamed: 0":410,"title":"health house pharmacy","address":"3948 as suwaidi al am - Sultanah Dist.","district":"Sultanah ","latitude":24.59864986,"longitude":46.689106764,"id":10100003069},{"Unnamed: 0":411,"title":"health house pharmacy","address":"5218 al imam abi hanifah - Middle Oraija Dist.","district":"Middle Oraija ","latitude":24.613160441,"longitude":46.633967404,"id":10100003128},{"Unnamed: 0":412,"title":"health house pharmacy","address":"3047 Sufyan Bin Awf - Al Aziziyah Dist.","district":"Al Aziziyah ","latitude":24.5888573823,"longitude":46.7852081154,"id":10100003029},{"Unnamed: 0":413,"title":"Health House Pharmacy(Delivery)","address":"2823 al amir sultan ibn abdul aziz - Al Olaya Dist.","district":"Al Olaya ","latitude":24.6913207,"longitude":46.6918519,"id":10100003075},{"Unnamed: 0":414,"title":"Health House Pharmacy(Delivery)","address":"7517 Mousa Bin Oqbah - Al Olaya Dist.","district":"Al Olaya ","latitude":24.7013829,"longitude":46.6744848,"id":10100003075},{"Unnamed: 0":415,"title":"Health House Pharmacy(Delivery)","address":"6605 tabuk - Al Ezdihar Dist.","district":"Al Ezdihar ","latitude":24.7739904,"longitude":46.7223605,"id":10100003086},{"Unnamed: 0":416,"title":"Health House Pharmacy(Delivery)","address":"8364  - Al Salhiyah Dist.","district":"Al Salhiyah ","latitude":24.6322274,"longitude":46.7379675,"id":10100003050},{"Unnamed: 0":417,"title":"Health House Pharmacy(Delivery)","address":"3116 samahat ash shaikh abdul aziz ibn baz - Al Badeah Dist.","district":"Al Badeah ","latitude":24.624210375,"longitude":46.686191791,"id":10100003071},{"Unnamed: 0":418,"title":"Health House Pharmacy(Delivery)","address":"4241 as suwaidi al am - Al Suwaidi Dist.","district":"Al Suwaidi ","latitude":24.594897165,"longitude":46.680352638,"id":10100003018},{"Unnamed: 0":419,"title":"Health House Pharmacy(Delivery)","address":"2910 sadir - Al Suwaidi Dist.","district":"Al Suwaidi ","latitude":24.580655881,"longitude":46.667031641,"id":10100003018},{"Unnamed: 0":420,"title":"Health House Pharmacy(Delivery)","address":"4039 umar ibn abdul aziz rd - Jareer Dist.","district":"Jareer ","latitude":24.685481422,"longitude":46.746670218,"id":10100003048},{"Unnamed: 0":421,"title":"Health House Pharmacy(Delivery)","address":"3453 abi saad al baghdadi - Al Aziziyah Dist.","district":"Al Aziziyah ","latitude":24.58708047,"longitude":46.789004337,"id":10100003029},{"Unnamed: 0":422,"title":"Health House Pharmacy(Delivery)","address":"2965 Sufyan Bin Awf - Al Aziziyah Dist.","district":"Al Aziziyah ","latitude":24.5884394,"longitude":46.7842916,"id":10100003029},{"Unnamed: 0":423,"title":"Health House Pharmacy(Delivery)","address":"3101 mudrak ibn husn - Al Shifa Dist.","district":"Al Shifa ","latitude":24.5709375,"longitude":46.6927649,"id":10100003061},{"Unnamed: 0":424,"title":"health kingdom pharmacy","address":"4457 al bayan - Al Fayha Dist.","district":"Al Fayha ","latitude":24.683443437,"longitude":46.8202328637,"id":10100003133},{"Unnamed: 0":425,"title":"health kingdom pharmacy","address":"3015 ibn hejr - Al Dar Al Baida Dist.","district":"Al Dar Al Baida ","latitude":24.5585274444,"longitude":46.7817178484,"id":10100003130},{"Unnamed: 0":426,"title":"Health Kingdom Pharmacy(Delivery)","address":"3512 prince mamduh ibn abdulaziz - Al Sulaimaniyah Dist.","district":"Al Sulaimaniyah ","latitude":24.7096412,"longitude":46.6902449,"id":10100003063},{"Unnamed: 0":427,"title":"Health Kingdom Pharmacy(Delivery)","address":"7157 Salem Bin Maaqil - Al Nakheel Dist.","district":"Al Nakheel ","latitude":24.7340776,"longitude":46.6113545,"id":10100003108},{"Unnamed: 0":428,"title":"Health Kingdom Pharmacy(Delivery)","address":"8670 Othman Bin Affan - Al Wahah Dist.","district":"Al Wahah ","latitude":24.744449,"longitude":46.7243761,"id":10100003042},{"Unnamed: 0":429,"title":"Health Kingdom Pharmacy(Delivery)","address":"3794 as suwaidi al am - Sultanah Dist.","district":"Sultanah ","latitude":24.5984692,"longitude":46.6876614,"id":10100003069},{"Unnamed: 0":430,"title":"Health Kingdom Pharmacy(Delivery)","address":"2099 umar ibn abdul aziz rd - Al Malaz Dist.","district":"Al Malaz ","latitude":24.678783639,"longitude":46.72747754,"id":10100003051},{"Unnamed: 0":431,"title":"Health Kingdom Pharmacy(Delivery)","address":"3259 ibadah ibn as samit - Al Rawdah Dist.","district":"Al Rawdah ","latitude":24.7326271,"longitude":46.7678862,"id":10100003088},{"Unnamed: 0":432,"title":"Health Kingdom Pharmacy(Delivery)","address":"4372 al amir saud ibn abdul aziz al saud al kabir - Al Quds Dist.","district":"Al Quds ","latitude":24.762376994,"longitude":46.762375846,"id":10100003081},{"Unnamed: 0":433,"title":"Health Kingdom Pharmacy(Delivery)","address":"6675 abdulrahman an nasir - Al Nahdah Dist.","district":"Al Nahdah ","latitude":24.74606,"longitude":46.7985042,"id":10100003054},{"Unnamed: 0":434,"title":"Health Kingdom Pharmacy(Delivery)","address":"2819 anas ibn malik - Al Sahafah Dist.","district":"Al Sahafah ","latitude":24.8132175,"longitude":46.6304119,"id":10100003123},{"Unnamed: 0":435,"title":"hind pharmacy","address":"8289 umm al hamam - East Umm Al Hamam Dist.","district":"East Umm Al Hamam ","latitude":24.695071424,"longitude":46.650047352,"id":10100003008},{"Unnamed: 0":436,"title":"horizon pharmacy","address":"6487 al amir abdullah ibn abdul rahman ibn faisal - Manfuha Al Jadidah Dist.","district":"Manfuha Al Jadidah ","latitude":24.609031779,"longitude":46.710785661,"id":10100003005},{"Unnamed: 0":437,"title":"house health pharmacy","address":"4328 muhammad al maqdimi - Al Ghadeer Dist.","district":"Al Ghadeer ","latitude":24.7783011795,"longitude":46.6620472727,"id":10100003109},{"Unnamed: 0":438,"title":"house health pharmacy","address":"7633 King Abdulaziz - Al Nafel Dist.","district":"Al Nafel ","latitude":24.7845685613,"longitude":46.6614998865,"id":10100003083},{"Unnamed: 0":439,"title":"bn al juzy pharmacy","address":"4556 al imam turki ibn abdullah ibn muhammad - Umm Saleem Dist.","district":"Umm Saleem ","latitude":24.630720833,"longitude":46.700300758,"id":10100003122},{"Unnamed: 0":440,"title":"bn al mundhir pharmacy","address":"7566 adh dhahirah - Al Dirah Dist.","district":"Al Dirah ","latitude":24.636938136,"longitude":46.71030915,"id":10100003007},{"Unnamed: 0":441,"title":"bn al mundhir pharmacy 2","address":"6715 ash shaikh abdul rahman ibn hasan - Al Wizarat Dist.","district":"Al Wizarat ","latitude":24.671173405,"longitude":46.712078385,"id":10100003045},{"Unnamed: 0":442,"title":"Ibn Al-Hakeem Pharmacy(Delivery)","address":"3019 abdulrahman al ghafaqi rd - Al Rawdah Dist.","district":"Al Rawdah ","latitude":24.7460461,"longitude":46.7588776,"id":10100003088},{"Unnamed: 0":443,"title":"bn an nafees pharmacy","address":"4542 prince muhammad ibn abdulaziz rd - Al Olaya Dist.","district":"Al Olaya ","latitude":24.694751413,"longitude":46.678739547,"id":10100003075},{"Unnamed: 0":444,"title":"bn ash shaik pharmacy","address":"7932 Ayshah Bin Abi Bakr - Al Zahrah Dist.","district":"Al Zahrah ","latitude":24.578358601,"longitude":46.659771988,"id":10100003067},{"Unnamed: 0":445,"title":"bn talib pharmacy","address":"7447 salam - Al Dubiyah Dist.","district":"Al Dubiyah ","latitude":24.6176417,"longitude":46.71033847,"id":10100003116},{"Unnamed: 0":446,"title":"braheem al aseedi pharmacy","address":"2634 Belal Bin Rabah - Tuwaiq Dist.","district":"Tuwaiq ","latitude":24.577862709,"longitude":46.582016058,"id":10100003102},{"Unnamed: 0":447,"title":"braheem pharmacy","address":"4016 Belal Bin Rabah - Tuwaiq Dist.","district":"Tuwaiq ","latitude":24.580161317,"longitude":46.549543726,"id":10100003102},{"Unnamed: 0":448,"title":"brahim pharmacy","address":"6797 al amir matab ibn abdul aziz - Al Rabwah Dist.","district":"Al Rabwah ","latitude":24.6954972655,"longitude":46.7627142294,"id":10100003047},{"Unnamed: 0":449,"title":"aj pharmacy","address":"7557 Ayshah Bin Abi Bakr - Dhahrat Al Badeah Dist.","district":"hahrat Al Badeah ","latitude":24.595507831,"longitude":46.647924633,"id":10100003091},{"Unnamed: 0":450,"title":"aj pharmacy","address":"4050 ash shaikh abdul aziz ibn muhammad ibn ali - Dhahrat Al Badeah Dist.","district":"hahrat Al Badeah ","latitude":24.589538975,"longitude":46.64453385,"id":10100003091},{"Unnamed: 0":451,"title":"Innova Pharmacy(Delivery)","address":"2526 abi ayub al ansari - Thulaim Dist.","district":"Thulaim ","latitude":24.6381994,"longitude":46.7202164,"id":10100003112},{"Unnamed: 0":452,"title":"Innova Pharmacy(Delivery)","address":"4586 as sibalah - Al Shumaisi Dist.","district":"Al Shumaisi ","latitude":24.624711619,"longitude":46.700476536,"id":10100003113},{"Unnamed: 0":453,"title":"Innova Pharmacy(Delivery)","address":"2213 ad dammam rd - Al Yarmuk Dist.","district":"Al Yarmuk ","latitude":24.8155973,"longitude":46.7782281,"id":10100003139},{"Unnamed: 0":454,"title":"Innova Pharmacy(Delivery)","address":"3721 wadi ad dawasir - Al Qadisiyah Dist.","district":"Al Qadisiyah ","latitude":24.8189691,"longitude":46.8112495,"id":10100003073},{"Unnamed: 0":455,"title":"Innova Pharmacy(Delivery)","address":"6669 wadi as sarh - Al Wadi Dist.","district":"Al Wadi ","latitude":24.7833086,"longitude":46.6958293,"id":10100003082},{"Unnamed: 0":456,"title":"Innova Pharmacy(Delivery)","address":"6527 Othman Bin Affan - Al Falah Dist.","district":"Al Falah ","latitude":24.7897143,"longitude":46.7025912,"id":10100003022},{"Unnamed: 0":457,"title":"Innova Pharmacy(Delivery)","address":"4255 Unayzah - Dhahrat Laban Dist.","district":"hahrat Laban ","latitude":24.628063,"longitude":46.5663705,"id":10100003143},{"Unnamed: 0":458,"title":"Innova Pharmacy(Delivery)","address":"2157 abu ubaydah amir ibn al jarrah - Al Sulay Dist.","district":"Al Sulay ","latitude":24.6681633,"longitude":46.8077371,"id":10100003106},{"Unnamed: 0":459,"title":"Innova Pharmacy(Delivery)","address":"4885 abdullah ibn faryan - Al Sulay Dist.","district":"Al Sulay ","latitude":24.6795424,"longitude":46.8558677,"id":10100003106},{"Unnamed: 0":460,"title":"pharma pharmacy","address":"6949 King Abdulaziz - Al Nafel Dist.","district":"Al Nafel ","latitude":24.7784543145,"longitude":46.6646147032,"id":10100003083},{"Unnamed: 0":461,"title":"ssam pharmacy","address":"8141 al ajaliyah - Umm Saleem Dist.","district":"Umm Saleem ","latitude":24.632034434,"longitude":46.698486933,"id":10100003122},{"Unnamed: 0":462,"title":"jazea pharmacy","address":"3416 as sail al kabir - Al Ghadeer Dist.","district":"Al Ghadeer ","latitude":24.7725604126,"longitude":46.6528702468,"id":10100003109},{"Unnamed: 0":463,"title":"joud pharmacy","address":"3989 hajar valley - Al Malqa Dist.","district":"Al Malqa ","latitude":24.8161742614,"longitude":46.6157621429,"id":10100003145},{"Unnamed: 0":464,"title":"kanooz alsaha pharmacy","address":"2910 king abdullah ibn abdul aziz rd - Al Mughrazat Dist.","district":"Al Mughrazat ","latitude":24.7526911315,"longitude":46.7220685522,"id":10100003105},{"Unnamed: 0":465,"title":"kanuz alsshh pharmacy","address":"6221 king abdul aziz branch rd - Al Yasmeen Dist.","district":"Al Yasmeen ","latitude":24.8046178032,"longitude":46.6514629618,"id":10100003147},{"Unnamed: 0":466,"title":"kassibah pharmacy","address":"6189 Al Tirmidhi - Al Shifa Dist.","district":"Al Shifa ","latitude":24.563292257,"longitude":46.705999414,"id":10100003061},{"Unnamed: 0":467,"title":"kenouz health pharmacy","address":"3935 an nasr branch rd - Al Aziziyah Dist.","district":"Al Aziziyah ","latitude":24.5888343184,"longitude":46.765652939,"id":10100003029},{"Unnamed: 0":468,"title":"khalid pharmacy","address":"4477 King Abdulaziz - Al Sulaimaniyah Dist.","district":"Al Sulaimaniyah ","latitude":24.712713883,"longitude":46.699646405,"id":10100003063},{"Unnamed: 0":469,"title":"kingdom of medicine pharmacy","address":"4181 nahawnd - Al Aziziyah Dist.","district":"Al Aziziyah ","latitude":24.569930947,"longitude":46.7679203746,"id":10100003029},{"Unnamed: 0":470,"title":"kingdom pharmacy","address":"4093 hafsa bint umar - Al Rawdah Dist.","district":"Al Rawdah ","latitude":24.7337211892,"longitude":46.7760126152,"id":10100003088},{"Unnamed: 0":471,"title":"knouz health pharmacy","address":"3902 king abdullah ibn abdulaziz rd - Al Muhammadiyah Dist.","district":"Al Muhammadiyah ","latitude":24.723320884,"longitude":46.6522920213,"id":10100003062},{"Unnamed: 0":472,"title":"konoz pharmacy","address":"7974 Salman Al Farsi - Al Khaleej Dist.","district":"Al Khaleej ","latitude":24.7743269037,"longitude":46.8014943589,"id":10100003055},{"Unnamed: 0":473,"title":"kunooz aldawa pharmacy","address":"2649 al amir bandar ibn abdul aziz - Al Andalus Dist.","district":"Al Andalus ","latitude":24.750715021,"longitude":46.781018194,"id":10100003087},{"Unnamed: 0":474,"title":"kunooz pharmacy","address":"2409 king abdullah ibn abdulaziz rd - Al Raed Dist.","district":"Al Raed ","latitude":24.707531005,"longitude":46.627171368,"id":10100003125},{"Unnamed: 0":475,"title":"صيدلية كنوز","address":"6171 Saeed Bin Zayd - Qurtubah Dist.","district":"Qurtubah ","latitude":24.8015488796,"longitude":46.7399647389,"id":10100003101},{"Unnamed: 0":476,"title":"kunooz pharmacy","address":"2806 Prince Mohammed Ibn Salman Ibn Abdulaziz Rd - Al Munisiyah Dist.","district":"Al Munisiyah ","latitude":24.8249897106,"longitude":46.7506623464,"id":10100003140},{"Unnamed: 0":477,"title":"Kunooz Pharmacy","address":"2806 Prince Mohammed Ibn Salman Ibn Abdulaziz Rd - Al Munisiyah Dist.","district":"Al Munisiyah ","latitude":24.8249897106,"longitude":46.7506623464,"id":10100003140},{"Unnamed: 0":478,"title":"Kunooz Pharmacy(Delivery)","address":"2587 prince sultan ibn salman ibn abdulaziz - Al Woroud Dist.","district":"Al Woroud ","latitude":24.7223793,"longitude":46.6730481,"id":10100003026},{"Unnamed: 0":479,"title":"Kunooz Pharmacy(Delivery)","address":"2717 prince sultan ibn salman ibn abdulaziz - Al Woroud Dist.","district":"Al Woroud ","latitude":24.7229296,"longitude":46.6743113,"id":10100003026},{"Unnamed: 0":480,"title":"Kunooz Pharmacy(Delivery)","address":"3307 al amir turki ibn abdul aziz ath thani - Al Muruj Dist.","district":"Al Muruj ","latitude":24.7584036,"longitude":46.663732,"id":10100003110},{"Unnamed: 0":481,"title":"Kunooz Pharmacy(Delivery)","address":"8656 umm al hamam - West Umm Al Hamam Dist.","district":"West Umm Al Hamam ","latitude":24.6984739,"longitude":46.6501947,"id":10100003012},{"Unnamed: 0":482,"title":"Kunooz Pharmacy(Delivery)","address":"3948 Mousa Bin Naseer - Al Olaya Dist.","district":"Al Olaya ","latitude":24.7005362,"longitude":46.6732837,"id":10100003075},{"Unnamed: 0":483,"title":"Kunooz Pharmacy(Delivery)","address":"3094 al imam saud ibn abdul aziz rd - Al Taawun Dist.","district":"Al Taawun ","latitude":24.7624644,"longitude":46.6969062,"id":10100003085},{"Unnamed: 0":484,"title":"Kunooz Pharmacy(Delivery)","address":"7423 abi bakr as siddiq - Al Taawun Dist.","district":"Al Taawun ","latitude":24.7738131,"longitude":46.688697,"id":10100003085},{"Unnamed: 0":485,"title":"Kunooz Pharmacy(Delivery)","address":"3754 king abdullah ibn abdul aziz rd - Al Mughrazat Dist.","district":"Al Mughrazat ","latitude":24.7562874,"longitude":46.7298572,"id":10100003105},{"Unnamed: 0":486,"title":"banon pharmacy","address":"6787 ash shaikh abdul rahman ibn hasan - Al Wizarat Dist.","district":"Al Wizarat ","latitude":24.671850081,"longitude":46.712069305,"id":10100003045},{"Unnamed: 0":487,"title":"Lemon Pharmacy(Delivery)","address":"3134 al imam saud ibn abdulaziz rd - Al Muruj Dist.","district":"Al Muruj ","latitude":24.747519817,"longitude":46.661511391,"id":10100003110},{"Unnamed: 0":488,"title":"Lemon Pharmacy(Delivery)","address":"3144 prince turki ibn abdulaziz ath thani - Al Muruj Dist.","district":"Al Muruj ","latitude":24.758365536,"longitude":46.661828294,"id":10100003110},{"Unnamed: 0":489,"title":"Lemon Pharmacy(Delivery)","address":"7389 at takhassusi - Al Olaya Dist.","district":"Al Olaya ","latitude":24.700304511,"longitude":46.66797025,"id":10100003075},{"Unnamed: 0":490,"title":"Lemon Pharmacy(Delivery)","address":"2487 al malik abdullah ibn abdulaziz rd - Al Rahmaniyah Dist.","district":"Al Rahmaniyah ","latitude":24.7219496,"longitude":46.6513989,"id":10100003013},{"Unnamed: 0":491,"title":"Lemon Pharmacy(Delivery)","address":"7300 al farzdaq - Al Malaz Dist.","district":"Al Malaz ","latitude":24.664945,"longitude":46.7237505,"id":10100003051},{"Unnamed: 0":492,"title":"Lemon Pharmacy(Delivery)","address":"3471 al imam faisal ibn turki ibn abdullah - Al Dirah Dist.","district":"Al Dirah ","latitude":24.637833,"longitude":46.7166715,"id":10100003007},{"Unnamed: 0":493,"title":"Lemon Pharmacy(Delivery)","address":"7775 muin ibn zaidah - Al Mansurah Dist.","district":"Al Mansurah ","latitude":24.614610856,"longitude":46.747368506,"id":10100003030},{"Unnamed: 0":494,"title":"Lemon Pharmacy(Delivery)","address":"2223 al amir bandar ibn abdul aziz - Al Andalus Dist.","district":"Al Andalus ","latitude":24.7481472,"longitude":46.7767187,"id":10100003087},{"Unnamed: 0":495,"title":"Lemon Pharmacy(Delivery)","address":"7970 Al Sulayil - Al Khaleej Dist.","district":"Al Khaleej ","latitude":24.7851679,"longitude":46.8057832,"id":10100003055},{"Unnamed: 0":496,"title":"Lemon Pharmacy(Delivery)","address":"9164 Al Imam Al Shafie - Al Rayan Dist.","district":"Al Rayan ","latitude":24.7231235,"longitude":46.7865785,"id":10100003090},{"Unnamed: 0":497,"title":"Lemon Pharmacy(Delivery)","address":"3585 Al Morooj - Badr Dist.","district":"Badr ","latitude":24.5641453,"longitude":46.7161738,"id":10100003164},{"Unnamed: 0":498,"title":"fe pharmacy","address":"2800 prince saad ibn abdulrahman al awal rd - Al Rawabi Dist.","district":"Al Rawabi ","latitude":24.6811678346,"longitude":46.7812446578,"id":10100003089},{"Unnamed: 0":499,"title":"\"ma'alem al dawa pharmacy\"","address":"2709 al imam turki ibn abdullah ibn muhammad - Al Dirah Dist.","district":"Al Dirah ","latitude":24.631184124,"longitude":46.708606267,"id":10100003007},{"Unnamed: 0":500,"title":"malak pharmacy","address":"6372 Unayzah - Al Rayan Dist.","district":"Al Rayan ","latitude":24.6980479869,"longitude":46.7812318064,"id":10100003090},{"Unnamed: 0":501,"title":"\"mamlakat alddawa' pharmacy\"","address":"2939 prince faysal abdullah ibn abdulrahman - Hitteen Dist.","district":"Hitteen ","latitude":24.7687568557,"longitude":46.5815841603,"id":10100003144},{"Unnamed: 0":502,"title":"manar al asimah pharmacy","address":"3211 al amir mansur ibn abdul aziz - Al Wizarat Dist.","district":"Al Wizarat ","latitude":24.674157046,"longitude":46.711558992,"id":10100003045},{"Unnamed: 0":503,"title":"manarat elelaj pharmacy","address":"5112 prince saad ibn abdulrahman al awal rd - West Naseem Dist.","district":"West Naseem ","latitude":24.7123460904,"longitude":46.8460428936,"id":10100003167},{"Unnamed: 0":504,"title":"manif veterinary pharmacy","address":"7827 salam - Al Dubiyah Dist.","district":"Al Dubiyah ","latitude":24.621122826,"longitude":46.710757998,"id":10100003116},{"Unnamed: 0":505,"title":"mansur al majed pharmacy","address":"2210 muawiyah ibn abi sufyan - Dhahrat Al Badeah Dist.","district":"hahrat Al Badeah ","latitude":24.598745979,"longitude":46.645727945,"id":10100003091},{"Unnamed: 0":506,"title":"mazen pharmacy","address":"8877 al ulaya - Al Olaya Dist.","district":"Al Olaya ","latitude":24.676313671,"longitude":46.69421965,"id":10100003075},{"Unnamed: 0":507,"title":"medi care pharmacy","address":"7782 jabal tuwaiq - Shubra Dist.","district":"Shubra ","latitude":24.585775509,"longitude":46.680490458,"id":10100003066},{"Unnamed: 0":508,"title":"medical care pharmacy","address":"7745 ash shaikh muhammad ibn abdul latif ibn abdul rahm - Al Duraihemiyah Dist.","district":"Al Duraihemiyah ","latitude":24.585336057,"longitude":46.68588018,"id":10100003076},{"Unnamed: 0":509,"title":"medical care pharmacy","address":"3195 al amir musaid ibn abdul rahman ibn faisal rd - West Oraija Dist.","district":"West Oraija ","latitude":24.588241272,"longitude":46.606721466,"id":10100003126},{"Unnamed: 0":510,"title":"medical family pharmacy","address":"6667 ash shaikh abdul rahman ibn hasan - Al Wizarat Dist.","district":"Al Wizarat ","latitude":24.670785086,"longitude":46.712066584,"id":10100003045},{"Unnamed: 0":511,"title":"medicament basket pharmacy","address":"8711 King Fahd - Al Olaya Dist.","district":"Al Olaya ","latitude":24.703397775,"longitude":46.677166658,"id":10100003075},{"Unnamed: 0":512,"title":"medicament house pharmacy","address":"7163 at takhassusi - Al Olaya Dist.","district":"Al Olaya ","latitude":24.698363089,"longitude":46.669077677,"id":10100003075},{"Unnamed: 0":513,"title":"medicament oasis pharmacy","address":"2395 abi bakr ar razi - Al Sulaimaniyah Dist.","district":"Al Sulaimaniyah ","latitude":24.692327718,"longitude":46.702939781,"id":10100003063},{"Unnamed: 0":514,"title":"medicament pharmacy","address":"4206 al imam muhammad ibn saud ibn muqrin - Al Shumaisi Dist.","district":"Al Shumaisi ","latitude":24.62796356,"longitude":46.696911537,"id":10100003113},{"Unnamed: 0":515,"title":"medicament pharmacy 2","address":"4548 as sibalah - Al Shumaisi Dist.","district":"Al Shumaisi ","latitude":24.624717047,"longitude":46.700346933,"id":10100003113},{"Unnamed: 0":516,"title":"medicament pharmacy 3","address":"4908 al ris - Al Shumaisi Dist.","district":"Al Shumaisi ","latitude":24.621964271,"longitude":46.7036842,"id":10100003113},{"Unnamed: 0":517,"title":"mehan pharmacy","address":"6889 al amir abdullah ibn abdul rahman ibn faisal - Al Yamamah Dist.","district":"Al Yamamah ","latitude":24.593265552,"longitude":46.71186776,"id":10100003070},{"Unnamed: 0":518,"title":"mehan pharmacy 4","address":"7500 al amir abdullah ibn abdul rahman ibn faisal - Utayqah Dist.","district":"Utayqah ","latitude":24.598754969,"longitude":46.711092366,"id":10100003020},{"Unnamed: 0":519,"title":"midan al andalus pharmacy","address":"4728 southern ring branch rd - Shubra Dist.","district":"Shubra ","latitude":24.568292175,"longitude":46.656743824,"id":10100003066},{"Unnamed: 0":520,"title":"midan al andalus pharmacy","address":"3404 weastern ring branch rd - West Suwaidi Dist.","district":"West Suwaidi ","latitude":24.569503466,"longitude":46.618711416,"id":10100003057},{"Unnamed: 0":521,"title":"mihan pharmacy","address":"2687 al imam faisal ibn turki ibn abdullah - Al Dirah Dist.","district":"Al Dirah ","latitude":24.637781708,"longitude":46.70876241,"id":10100003007},{"Unnamed: 0":522,"title":"mihan pharmacy","address":"7382 al amir abdullah ibn abdul rahman ibn faisal - Utayqah Dist.","district":"Utayqah ","latitude":24.597636553,"longitude":46.711177236,"id":10100003020},{"Unnamed: 0":523,"title":" صيدلية ملكة الساحة","address":"7884 khalid ibn al walid - Al Shohda Dist.","district":"Al Shohda ","latitude":24.7931432998,"longitude":46.7433567508,"id":10100003016},{"Unnamed: 0":524,"title":"modern medicine pharmacy","address":"5150 al jawharah bint ibn muammar - Al Sharafiyah Dist.","district":"Al Sharafiyah ","latitude":24.657311437,"longitude":46.674100254,"id":10100003009},{"Unnamed: 0":525,"title":"mohammad as saqaf pharmacy","address":"3800 as suwaidi al am - Al Suwaidi Dist.","district":"Al Suwaidi ","latitude":24.58375562,"longitude":46.661310504,"id":10100003018},{"Unnamed: 0":526,"title":"mohammed al   hazimi pharmacy","address":"2341 al urubah rd - Al Olaya Dist.","district":"Al Olaya ","latitude":24.7146535057,"longitude":46.6783026158,"id":10100003075},{"Unnamed: 0":527,"title":"صيدلية جناح الدواء","address":"3912 muhammadali junah - Al Shohda Dist.","district":"Al Shohda ","latitude":24.790336594,"longitude":46.7414210605,"id":10100003016},{"Unnamed: 0":528,"title":"nabra pharmacy","address":"6320 at takhassusi - North Mathar Dist.","district":"North Mathar ","latitude":24.677486797,"longitude":46.678044052,"id":10100003011},{"Unnamed: 0":529,"title":"nahdi pharmacy","address":"9304 king faisal - Al Murabba Dist.","district":"Al Murabba ","latitude":24.652661012,"longitude":46.710503849,"id":10100003021},{"Unnamed: 0":530,"title":"nahdi pharmacy","address":"4324 al amir bandar ibn abdul aziz - Al Khaleej Dist.","district":"Al Khaleej ","latitude":24.774533289,"longitude":46.8182662845,"id":10100003055},{"Unnamed: 0":531,"title":"صيدلية النهدي","address":"2581 al amir sultan ibn abdul aziz - Al Olaya Dist.","district":"Al Olaya ","latitude":24.6904,"longitude":46.6895,"id":10100003075},{"Unnamed: 0":532,"title":"صيدلية النهدي","address":"7242 prince musaid ibn al aziz - Al Sulaimaniyah Dist.","district":"Al Sulaimaniyah ","latitude":24.6945418,"longitude":46.7113043,"id":10100003063},{"Unnamed: 0":533,"title":"صيدلية النهدي","address":"2795 al urubah rd - Al Sulaimaniyah Dist.","district":"Al Sulaimaniyah ","latitude":24.7166,"longitude":46.6831,"id":10100003063},{"Unnamed: 0":534,"title":"صيدلية النهدي","address":"6725 al muhandis masaid al anqari - Al Woroud Dist.","district":"Al Woroud ","latitude":24.7199,"longitude":46.6804,"id":10100003026},{"Unnamed: 0":535,"title":"صيدلية النهدي","address":"3780 al fujaira - Al Woroud Dist.","district":"Al Woroud ","latitude":24.7259875,"longitude":46.6848789,"id":10100003026},{"Unnamed: 0":536,"title":"صيدلية النهدي","address":"8198 king abdulaziz branch rd - Al Woroud Dist.","district":"Al Woroud ","latitude":24.7333,"longitude":46.6864,"id":10100003026},{"Unnamed: 0":537,"title":"صيدلية النهدي","address":"7459 prince ahmad ibn abdulaziz - King Fahd Dist.","district":"King Fahd ","latitude":24.7422332,"longitude":46.6730896,"id":10100003017},{"Unnamed: 0":538,"title":"صيدلية النهدي","address":"2501 al amir turki ibn abdul aziz ath thani - Al Muruj Dist.","district":"Al Muruj ","latitude":24.7551027,"longitude":46.6552539,"id":10100003110},{"Unnamed: 0":539,"title":"صيدلية النهدي","address":"7683 at takhassusi - Al Olaya Dist.","district":"Al Olaya ","latitude":24.6899,"longitude":46.6732,"id":10100003075},{"Unnamed: 0":540,"title":"صيدلية النهدي","address":"6535 umm al hamam - East Umm Al Hamam Dist.","district":"East Umm Al Hamam ","latitude":24.679337455,"longitude":46.655146779,"id":10100003008},{"Unnamed: 0":541,"title":"صيدلية النهدي","address":"8614 umm al hamam - West Umm Al Hamam Dist.","district":"West Umm Al Hamam ","latitude":24.6981,"longitude":46.6497,"id":10100003012},{"Unnamed: 0":542,"title":"صيدلية النهدي","address":"6641 at takhassusi - Al Muhammadiyah Dist.","district":"Al Muhammadiyah ","latitude":24.7269872,"longitude":46.6526035,"id":10100003062},{"Unnamed: 0":543,"title":"صيدلية النهدي","address":"6343 al amir turki ibn abdul aziz (al awal) - Al Muhammadiyah Dist.","district":"Al Muhammadiyah ","latitude":24.7236887,"longitude":46.6456964,"id":10100003062},{"Unnamed: 0":544,"title":"صيدلية النهدي","address":"7620 at takhassusi - Al Nakheel Dist.","district":"Al Nakheel ","latitude":24.7498755,"longitude":46.640415,"id":10100003108},{"Unnamed: 0":545,"title":"صيدلية النهدي","address":"3721 Saeed Bin Amer - Al Nakheel Dist.","district":"Al Nakheel ","latitude":24.7383,"longitude":46.6073,"id":10100003108},{"Unnamed: 0":546,"title":"صيدلية النهدي","address":"8918 Othman Bin Affan - Al Wahah Dist.","district":"Al Wahah ","latitude":24.74710941,"longitude":46.722915438,"id":10100003042},{"Unnamed: 0":547,"title":"صيدلية النهدي","address":"2755 ibn sina - Al Maseef Dist.","district":"Al Maseef ","latitude":24.7619,"longitude":46.6758,"id":10100003084},{"Unnamed: 0":548,"title":"صيدلية النهدي","address":"7536 Othman Bin Affan - Al Nuzha Dist.","district":"Al Nuzha ","latitude":24.758,"longitude":46.7175,"id":10100003025},{"Unnamed: 0":549,"title":"صيدلية النهدي","address":"7630 Othman Bin Affan - Al Taawun Dist.","district":"Al Taawun ","latitude":24.7755,"longitude":46.7085,"id":10100003085},{"Unnamed: 0":550,"title":"صيدلية النهدي","address":"2782 at taif - Dhahrat Laban Dist.","district":"hahrat Laban ","latitude":24.6539,"longitude":46.5851,"id":10100003143},{"Unnamed: 0":551,"title":"صيدلية النهدي","address":"9430 prince abdulaziz ibn musaid ibn jalawi - Al Olaya Dist.","district":"Al Olaya ","latitude":24.681273714,"longitude":46.700388596,"id":10100003075},{"Unnamed: 0":552,"title":"صيدلية النهدي","address":"4162 tuhamah - Al Dhubbat Dist.","district":"Al Dhubbat ","latitude":24.6797,"longitude":46.7209,"id":10100003056},{"Unnamed: 0":553,"title":"صيدلية النهدي","address":"6870 al amir abdul rahman ibn abdul aziz - Al Murabba Dist.","district":"Al Murabba ","latitude":24.6726192,"longitude":46.708488,"id":10100003021},{"Unnamed: 0":554,"title":"صيدلية النهدي","address":"7572 al batha - Manfuha Al Jadidah Dist.","district":"Manfuha Al Jadidah ","latitude":24.6186692,"longitude":46.7246697,"id":10100003005},{"Unnamed: 0":555,"title":"صيدلية النهدي","address":"7818 muin ibn zaidah - Al Mansurah Dist.","district":"Al Mansurah ","latitude":24.6151,"longitude":46.7464,"id":10100003030},{"Unnamed: 0":556,"title":"صيدلية النهدي","address":"3048 southern ring rd - Al Mansurah Dist.","district":"Al Mansurah ","latitude":24.6007,"longitude":46.7478,"id":10100003030},{"Unnamed: 0":557,"title":"صيدلية النهدي","address":"8642 at tuyur - Al Mathar Dist.","district":"Al Mathar ","latitude":24.6729,"longitude":46.6628,"id":10100003049},{"Unnamed: 0":558,"title":"صيدلية النهدي","address":"2491 samahat ash shaikh abdul aziz ibn baz - Al Badeah Dist.","district":"Al Badeah ","latitude":24.6199,"longitude":46.6797,"id":10100003071},{"Unnamed: 0":559,"title":"صيدلية النهدي","address":"7090 sultanah - Sultanah Dist.","district":"Sultanah ","latitude":24.6068,"longitude":46.6907,"id":10100003069},{"Unnamed: 0":560,"title":"صيدلية النهدي","address":"4278 as suwaidi al am - Sultanah Dist.","district":"Sultanah ","latitude":24.5992,"longitude":46.6924,"id":10100003069},{"Unnamed: 0":561,"title":"صيدلية النهدي","address":"6193 Ayshah Bin Abi Bakr - Shubra Dist.","district":"Shubra ","latitude":24.571515131,"longitude":46.665585144,"id":10100003066},{"Unnamed: 0":562,"title":"صيدلية النهدي","address":"7865 salah ad din al ayyubi rd - Al Malaz Dist.","district":"Al Malaz ","latitude":24.6776,"longitude":46.7271,"id":10100003051},{"Unnamed: 0":563,"title":"صيدلية النهدي","address":"3131 al amir matab ibn abdul aziz - Al Rabwah Dist.","district":"Al Rabwah ","latitude":24.6868827,"longitude":46.7655661,"id":10100003047},{"Unnamed: 0":564,"title":"صيدلية النهدي","address":"2970 al amin abdullah al ali an naim - Al Malaz Dist.","district":"Al Malaz ","latitude":24.6699759,"longitude":46.7359372,"id":10100003051},{"Unnamed: 0":565,"title":"صيدلية النهدي","address":"7617 fatimah az zahra - Jareer Dist.","district":"Jareer ","latitude":24.6752,"longitude":46.7471,"id":10100003048},{"Unnamed: 0":566,"title":"صيدلية النهدي","address":"3850 al kharaj rd - Al Khalidiyah Dist.","district":"Al Khalidiyah ","latitude":24.6175828,"longitude":46.7543927,"id":10100003034},{"Unnamed: 0":567,"title":"صيدلية النهدي","address":"4770 al imam abi hanifah - Middle Oraija Dist.","district":"Middle Oraija ","latitude":24.6104414,"longitude":46.6295913,"id":10100003128},{"Unnamed: 0":568,"title":"صيدلية النهدي","address":"6794 Al Badiyah - Middle Oraija Dist.","district":"Middle Oraija ","latitude":24.6083,"longitude":46.6259,"id":10100003128},{"Unnamed: 0":569,"title":"صيدلية النهدي","address":"6357 Hamzah Bin Abdulmuttaleb - Middle Oraija Dist.","district":"Middle Oraija ","latitude":24.5921,"longitude":46.6221,"id":10100003128},{"Unnamed: 0":570,"title":"صيدلية النهدي","address":"6581 Hamzah Bin Abdulmuttaleb - Middle Oraija Dist.","district":"Middle Oraija ","latitude":24.59393312,"longitude":46.620777517,"id":10100003128},{"Unnamed: 0":571,"title":"صيدلية النهدي","address":"\"7463 Ibn Al Muqafa' - West Oraija Dist.\"","district":"West Oraija ","latitude":24.5899,"longitude":46.6095,"id":10100003126},{"Unnamed: 0":572,"title":"صيدلية النهدي","address":"4310 ash shaikh abdul aziz ibn muhammad ibn ali - Dhahrat Al Badeah Dist.","district":"hahrat Al Badeah ","latitude":24.5911,"longitude":46.6473,"id":10100003091},{"Unnamed: 0":573,"title":"صيدلية النهدي","address":"6100 shaiban ibn muhraz - Dhahrat Al Badeah Dist.","district":"hahrat Al Badeah ","latitude":24.5812425,"longitude":46.6302819,"id":10100003091},{"Unnamed: 0":574,"title":"صيدلية النهدي","address":"2883 al madinah al munawarah - Dhahrat Al Badeah Dist.","district":"hahrat Al Badeah ","latitude":24.59361458,"longitude":46.633033425,"id":10100003091},{"Unnamed: 0":575,"title":"صيدلية النهدي","address":"8886 Hamzah Bin Abdulmuttaleb - West Suwaidi Dist.","district":"West Suwaidi ","latitude":24.586574003,"longitude":46.625306878,"id":10100003057},{"Unnamed: 0":576,"title":"صيدلية النهدي","address":"2788 al torba - West Suwaidi Dist.","district":"West Suwaidi ","latitude":24.5722,"longitude":46.6126,"id":10100003057},{"Unnamed: 0":577,"title":"صيدلية النهدي","address":"6542 yusuf ath thaqafi - West Suwaidi Dist.","district":"West Suwaidi ","latitude":24.5652,"longitude":46.6277,"id":10100003057},{"Unnamed: 0":578,"title":"صيدلية النهدي","address":"3652 hafsa bint umar - Al Rawdah Dist.","district":"Al Rawdah ","latitude":24.731682521,"longitude":46.771725245,"id":10100003088},{"Unnamed: 0":579,"title":"صيدلية النهدي","address":"3347 hafsa bint umar - Al Andalus Dist.","district":"Al Andalus ","latitude":24.7415769,"longitude":46.7877798,"id":10100003087},{"Unnamed: 0":580,"title":"صيدلية النهدي","address":"7940 khalid ibn al walid - Al Rawdah Dist.","district":"Al Rawdah ","latitude":24.7443378,"longitude":46.7760303,"id":10100003088},{"Unnamed: 0":581,"title":"صيدلية النهدي","address":"2867 king abdullah ibn abdul aziz rd - Al Quds Dist.","district":"Al Quds ","latitude":24.7629415,"longitude":46.747608,"id":10100003081},{"Unnamed: 0":582,"title":"صيدلية النهدي","address":"2763 prince saud ibn abdulaziz al saud al kabir - Al Quds Dist.","district":"Al Quds ","latitude":24.7541,"longitude":46.7463,"id":10100003081},{"Unnamed: 0":583,"title":"صيدلية النهدي","address":"4948 abdul rahman al ghafaqi rd - Al Quds Dist.","district":"Al Quds ","latitude":24.7523,"longitude":46.7679,"id":10100003081},{"Unnamed: 0":584,"title":"صيدلية النهدي","address":"3281 abi said al khadri - King Faisal Dist.","district":"King Faisal ","latitude":24.7557,"longitude":46.7717,"id":10100003027},{"Unnamed: 0":585,"title":"صيدلية النهدي","address":"3682 abi said al khadri - King Faisal Dist.","district":"King Faisal ","latitude":24.7588,"longitude":46.7758,"id":10100003027},{"Unnamed: 0":586,"title":"صيدلية النهدي","address":"7389 khalid ibn al walid - King Faisal Dist.","district":"King Faisal ","latitude":24.7595,"longitude":46.7657,"id":10100003027},{"Unnamed: 0":587,"title":"صيدلية النهدي","address":"7182 khalid ibn al walid - Al Hamra Dist.","district":"Al Hamra ","latitude":24.770432641,"longitude":46.756614324,"id":10100003129},{"Unnamed: 0":588,"title":"صيدلية النهدي","address":"7488 al bahar - Al Hamra Dist.","district":"Al Hamra ","latitude":24.7811757,"longitude":46.7595372,"id":10100003129},{"Unnamed: 0":589,"title":"صيدلية النهدي","address":"2385 al amir bandar ibn abdul aziz - Al Nahdah Dist.","district":"Al Nahdah ","latitude":24.7587,"longitude":46.794,"id":10100003054},{"Unnamed: 0":590,"title":"صيدلية النهدي","address":"3085 al amir bandar ibn abdul aziz - Al Nahdah Dist.","district":"Al Nahdah ","latitude":24.7631,"longitude":46.8009,"id":10100003054},{"Unnamed: 0":591,"title":"صيدلية النهدي","address":"7617 Al Jobail - Al Nahdah Dist.","district":"Al Nahdah ","latitude":24.7648,"longitude":46.8203,"id":10100003054},{"Unnamed: 0":592,"title":"صيدلية النهدي","address":"5054 al amir bandar ibn abdul aziz - Al Khaleej Dist.","district":"Al Khaleej ","latitude":24.779258207,"longitude":46.825787138,"id":10100003055},{"Unnamed: 0":593,"title":"صيدلية النهدي","address":"6421 Salman Al Farsi - Al Khaleej Dist.","district":"Al Khaleej ","latitude":24.7710952,"longitude":46.8048269,"id":10100003055},{"Unnamed: 0":594,"title":"صيدلية النهدي","address":"6713 al khaznzh - Ishbiliyah Dist.","district":"Ishbiliyah ","latitude":24.782715406,"longitude":46.7832,"id":10100003137},{"Unnamed: 0":595,"title":"صيدلية النهدي","address":"8276 as sahabah - Ishbiliyah Dist.","district":"Ishbiliyah ","latitude":24.7969,"longitude":46.7848,"id":10100003137},{"Unnamed: 0":596,"title":"صيدلية النهدي","address":"6155 ash shaikh hasan ibn hussain ibn ali - Ishbiliyah Dist.","district":"Ishbiliyah ","latitude":24.7777614,"longitude":46.7759264,"id":10100003137},{"Unnamed: 0":597,"title":"صيدلية النهدي","address":"4364 al khazraj - Ishbiliyah Dist.","district":"Ishbiliyah ","latitude":24.7871,"longitude":46.7898,"id":10100003137},{"Unnamed: 0":598,"title":"صيدلية النهدي","address":"7371 as sahabah - Ishbiliyah Dist.","district":"Ishbiliyah ","latitude":24.7937,"longitude":46.7873,"id":10100003137},{"Unnamed: 0":599,"title":"صيدلية النهدي","address":"3939 Al Hadrah - Ghirnatah Dist.","district":"Ghirnatah ","latitude":24.80295,"longitude":46.759972,"id":10100003155},{"Unnamed: 0":600,"title":"صيدلية النهدي","address":"2163 ad dammam rd - Al Yarmuk Dist.","district":"Al Yarmuk ","latitude":24.8077,"longitude":46.7596,"id":10100003139},{"Unnamed: 0":601,"title":"صيدلية النهدي","address":"7942 sumatra - Al Yarmuk Dist.","district":"Al Yarmuk ","latitude":24.8087,"longitude":46.7734,"id":10100003139},{"Unnamed: 0":602,"title":"صيدلية النهدي","address":"7494 Saeed Bin Zayd - Qurtubah Dist.","district":"Qurtubah ","latitude":24.806040438,"longitude":46.736945745,"id":10100003101},{"Unnamed: 0":603,"title":"صيدلية النهدي","address":"3874 ashaikh hasan ibn hussain ibn ali rd - Qurtubah Dist.","district":"Qurtubah ","latitude":24.8216509,"longitude":46.7503968,"id":10100003101},{"Unnamed: 0":604,"title":"صيدلية النهدي","address":"3039 al qalam - Al Munisiyah Dist.","district":"Al Munisiyah ","latitude":24.817161683,"longitude":46.759857876,"id":10100003140},{"Unnamed: 0":605,"title":"صيدلية النهدي","address":"7398 ashaikh hasan ibn hussain ibn ali rd - Qurtubah Dist.","district":"Qurtubah ","latitude":24.8289722,"longitude":46.7466417,"id":10100003101},{"Unnamed: 0":606,"title":"صيدلية النهدي","address":"8324 an najah - Al Yarmuk Dist.","district":"Al Yarmuk ","latitude":24.8199,"longitude":46.7949,"id":10100003139},{"Unnamed: 0":607,"title":"صيدلية النهدي","address":"7052 an najah - Al Yarmuk Dist.","district":"Al Yarmuk ","latitude":24.8082,"longitude":46.8009,"id":10100003139},{"Unnamed: 0":608,"title":"صيدلية النهدي","address":"6593 an nasar - Al Yarmuk Dist.","district":"Al Yarmuk ","latitude":24.8042,"longitude":46.7941,"id":10100003139},{"Unnamed: 0":609,"title":"صيدلية النهدي","address":"3328 al imam abdullah ibn saud ibn abdul aziz rd - Al Yarmuk Dist.","district":"Al Yarmuk ","latitude":24.8088,"longitude":46.8069,"id":10100003139},{"Unnamed: 0":610,"title":"صيدلية النهدي","address":"2945 as sail al kabir - Al Ghadeer Dist.","district":"Al Ghadeer ","latitude":24.7700922,"longitude":46.6480943,"id":10100003109},{"Unnamed: 0":611,"title":"صيدلية النهدي","address":"3453 ash shaikh abdullah al makhdub - Al Wadi Dist.","district":"Al Wadi ","latitude":24.7904,"longitude":46.6922,"id":10100003082},{"Unnamed: 0":612,"title":"صيدلية النهدي","address":"2759 al imam saud ibn faysal rd - Al Sahafah Dist.","district":"Al Sahafah ","latitude":24.7966,"longitude":46.6382,"id":10100003123},{"Unnamed: 0":613,"title":"صيدلية النهدي","address":"2979 prince salman ibn muhammad al saud - Al Sahafah Dist.","district":"Al Sahafah ","latitude":24.7886,"longitude":46.6402,"id":10100003123},{"Unnamed: 0":614,"title":"صيدلية النهدي","address":"7185 ath thumamah rd - Al Rabie Dist.","district":"Al Rabie ","latitude":24.7877768,"longitude":46.6473484,"id":10100003104},{"Unnamed: 0":615,"title":"صيدلية النهدي","address":"7169 king fahd branch road - Al Sahafah Dist.","district":"Al Sahafah ","latitude":24.8044,"longitude":46.6259,"id":10100003123},{"Unnamed: 0":616,"title":"صيدلية النهدي","address":"2239 anas ibn malik - Al Sahafah Dist.","district":"Al Sahafah ","latitude":24.8108,"longitude":46.6248,"id":10100003123},{"Unnamed: 0":617,"title":"صيدلية النهدي","address":"4594  - Al Narjis Dist.","district":"Al Narjis ","latitude":24.8173,"longitude":46.6856,"id":10100003150},{"Unnamed: 0":618,"title":"صيدلية النهدي","address":"7033 al amir abdullah bin saud bin abdullah snaytan al  - Al Yasmeen Dist.","district":"Al Yasmeen ","latitude":24.8194,"longitude":46.6315,"id":10100003147},{"Unnamed: 0":619,"title":"صيدلية النهدي","address":"3316 Anas Bin Malek - Al Narjis Dist.","district":"Al Narjis ","latitude":24.8365,"longitude":46.6842,"id":10100003150},{"Unnamed: 0":620,"title":"صيدلية النهدي","address":"6271 Othman Bin Affan - Al Narjis Dist.","district":"Al Narjis ","latitude":24.8365738,"longitude":46.6788579,"id":10100003150},{"Unnamed: 0":621,"title":"صيدلية النهدي","address":"7265 abi bakr as siddiq - Al Narjis Dist.","district":"Al Narjis ","latitude":24.853609547,"longitude":46.648394067,"id":10100003150},{"Unnamed: 0":622,"title":"صيدلية النهدي","address":"2201 jabal al turk - Al Narjis Dist.","district":"Al Narjis ","latitude":24.8759,"longitude":46.6386,"id":10100003150},{"Unnamed: 0":623,"title":"صيدلية النهدي","address":"7201 al khair rd - Al Aqeeq Dist.","district":"Al Aqeeq ","latitude":24.7646,"longitude":46.6242,"id":10100003107},{"Unnamed: 0":624,"title":"صيدلية النهدي","address":"6703 Prince Mohammed Ibn Salman Ibn Abdulaziz Rd - Al Aqeeq Dist.","district":"Al Aqeeq ","latitude":24.7759,"longitude":46.6344,"id":10100003107},{"Unnamed: 0":625,"title":"صيدلية النهدي","address":"8150 King Fahd - Al Aqeeq Dist.","district":"Al Aqeeq ","latitude":24.7891,"longitude":46.6325,"id":10100003107},{"Unnamed: 0":626,"title":"صيدلية النهدي","address":"7774 prince muhammad ibn saad ibn abdulazizi - Hitteen Dist.","district":"Hitteen ","latitude":24.7782,"longitude":46.6164,"id":10100003144},{"Unnamed: 0":627,"title":"صيدلية النهدي","address":"7144 king fahd branch road - Al Malqa Dist.","district":"Al Malqa ","latitude":24.7966046,"longitude":46.628697,"id":10100003145},{"Unnamed: 0":628,"title":"صيدلية النهدي","address":"6165 al khair rd - Al Malqa Dist.","district":"Al Malqa ","latitude":24.7881528,"longitude":46.6121566,"id":10100003145},{"Unnamed: 0":629,"title":"صيدلية النهدي","address":"3310 Anas Bin Malek - Al Malqa Dist.","district":"Al Malqa ","latitude":24.8050251,"longitude":46.6090726,"id":10100003145},{"Unnamed: 0":630,"title":"صيدلية النهدي","address":"3576 Anas Bin Malek - Al Malqa Dist.","district":"Al Malqa ","latitude":24.806091,"longitude":46.6116,"id":10100003145},{"Unnamed: 0":631,"title":"صيدلية النهدي","address":"7045 prince muhammad ibn saad ibn abdulazizi - Al Malqa Dist.","district":"Al Malqa ","latitude":24.8119,"longitude":46.6003,"id":10100003145},{"Unnamed: 0":632,"title":"صيدلية النهدي","address":"7691 shaykh khalifa ibn hamad al thani - Al Janadriyah Dist.","district":"Al Janadriyah ","latitude":24.8038,"longitude":46.8626,"id":10100003136},{"Unnamed: 0":633,"title":"صيدلية النهدي","address":"7069 shaykh khalifa ibn hamad al thani - Al Janadriyah Dist.","district":"Al Janadriyah ","latitude":24.8147,"longitude":46.8725,"id":10100003136},{"Unnamed: 0":634,"title":"صيدلية النهدي","address":"7220 muhammad ibn al qazzaz - Al Janadriyah Dist.","district":"Al Janadriyah ","latitude":24.8155,"longitude":46.8781,"id":10100003136},{"Unnamed: 0":635,"title":"صيدلية النهدي","address":"4298 al shafa - Dhahrat Laban Dist.","district":"hahrat Laban ","latitude":24.6338,"longitude":46.5669,"id":10100003143},{"Unnamed: 0":636,"title":"صيدلية النهدي","address":"3674 al shafa - Dhahrat Laban Dist.","district":"hahrat Laban ","latitude":24.63,"longitude":46.5608,"id":10100003143},{"Unnamed: 0":637,"title":"صيدلية النهدي","address":"8220 taybah - Dhahrat Laban Dist.","district":"hahrat Laban ","latitude":24.6376,"longitude":46.5592,"id":10100003143},{"Unnamed: 0":638,"title":"صيدلية النهدي","address":"3514 asir - Dhahrat Laban Dist.","district":"hahrat Laban ","latitude":24.6249,"longitude":46.5408,"id":10100003143},{"Unnamed: 0":639,"title":"صيدلية النهدي","address":"2493 asir - Dhahrat Laban Dist.","district":"hahrat Laban ","latitude":24.6103,"longitude":46.5184,"id":10100003143},{"Unnamed: 0":640,"title":"صيدلية النهدي","address":"3739 at taif - Dhahrat Laban Dist.","district":"hahrat Laban ","latitude":24.624155593,"longitude":46.516466828,"id":10100003143},{"Unnamed: 0":641,"title":"صيدلية النهدي","address":"3427 kharis branch rd - Al Rayan Dist.","district":"Al Rayan ","latitude":24.7227283,"longitude":46.7760218,"id":10100003090},{"Unnamed: 0":642,"title":"صيدلية النهدي","address":"7649 Unayzah - Al Rawabi Dist.","district":"Al Rawabi ","latitude":24.6945271,"longitude":46.7846576,"id":10100003089},{"Unnamed: 0":643,"title":"صيدلية النهدي","address":"2951 al imam ahmad ibn hanbal - Al Rawabi Dist.","district":"Al Rawabi ","latitude":24.704822407,"longitude":46.782986317,"id":10100003089},{"Unnamed: 0":644,"title":"صيدلية النهدي","address":"8366 Al Imam Al Shafie - Al Rawabi Dist.","district":"Al Rawabi ","latitude":24.7007,"longitude":46.8032,"id":10100003089},{"Unnamed: 0":645,"title":"صيدلية النهدي","address":"4086 al imam ahmad ibn hanbal - Al Manar Dist.","district":"Al Manar ","latitude":24.718692,"longitude":46.8039746,"id":10100003079},{"Unnamed: 0":646,"title":"صيدلية النهدي","address":"7136 Saad Bin Abi Waqqas - West Naseem Dist.","district":"West Naseem ","latitude":24.7356112,"longitude":46.8132061,"id":10100003167},{"Unnamed: 0":647,"title":"صيدلية النهدي","address":"8228 Hassan Bin Thabit - West Naseem Dist.","district":"West Naseem ","latitude":24.7452235,"longitude":46.8239393,"id":10100003167},{"Unnamed: 0":648,"title":"صيدلية النهدي","address":"2199 al imam ahmad ibn hanbal - West Naseem Dist.","district":"West Naseem ","latitude":24.726,"longitude":46.8171,"id":10100003167},{"Unnamed: 0":649,"title":"صيدلية النهدي","address":"7840 Osamah Bin Zayd - West Naseem Dist.","district":"West Naseem ","latitude":24.7195,"longitude":46.8313,"id":10100003167},{"Unnamed: 0":650,"title":"صيدلية النهدي","address":"6691 Saad Bin Abi Waqqas - West Naseem Dist.","district":"West Naseem ","latitude":24.7090516,"longitude":46.8335554,"id":10100003167},{"Unnamed: 0":651,"title":"صيدلية النهدي","address":"7969  Abdullah Bin Omar  - West Naseem Dist.","district":"West Naseem ","latitude":24.7206,"longitude":46.8371,"id":10100003167},{"Unnamed: 0":652,"title":"صيدلية النهدي","address":"6367 Hassan Bin Thabit - East Naseem Dist.","district":"East Naseem ","latitude":24.7395596,"longitude":46.8289786,"id":10100003080},{"Unnamed: 0":653,"title":"صيدلية النهدي","address":"8264 abi al aswad ad duali - East Naseem Dist.","district":"East Naseem ","latitude":24.7336086,"longitude":46.8469873,"id":10100003080},{"Unnamed: 0":654,"title":"صيدلية النهدي","address":"4036 abu ubaydah amir ibn al jarrah - Al Fayha Dist.","district":"Al Fayha ","latitude":24.6729,"longitude":46.8159,"id":10100003133},{"Unnamed: 0":655,"title":"صيدلية النهدي","address":"5362 abu ubaydah amir ibn al jarrah - Al Saadah Dist.","district":"Al Saadah ","latitude":24.688702245,"longitude":46.849947103,"id":10100003036},{"Unnamed: 0":656,"title":"صيدلية النهدي","address":"7613 Al Furusiyyah - Al Saadah Dist.","district":"Al Saadah ","latitude":24.6919,"longitude":46.8513,"id":10100003036},{"Unnamed: 0":657,"title":"صيدلية النهدي","address":"3991 abu ubaydah amir ibn al jarrah - Al Sulay Dist.","district":"Al Sulay ","latitude":24.686302365,"longitude":46.846570097,"id":10100003106},{"Unnamed: 0":658,"title":"صيدلية النهدي","address":"6677 ash shabab - Al Aziziyah Dist.","district":"Al Aziziyah ","latitude":24.593346978,"longitude":46.758097272,"id":10100003029},{"Unnamed: 0":659,"title":"صيدلية النهدي","address":"7650 al aziziah rd - Al Aziziyah Dist.","district":"Al Aziziyah ","latitude":24.6021,"longitude":46.769,"id":10100003029},{"Unnamed: 0":660,"title":"صيدلية النهدي","address":"8142 ash shabab - Al Aziziyah Dist.","district":"Al Aziziyah ","latitude":24.6003152,"longitude":46.7539263,"id":10100003029},{"Unnamed: 0":661,"title":"صيدلية النهدي","address":"8494 Al Namas - Al Aziziyah Dist.","district":"Al Aziziyah ","latitude":24.6033,"longitude":46.7583,"id":10100003029},{"Unnamed: 0":662,"title":"صيدلية النهدي","address":"7411 mohammed rasheed rda - Al Aziziyah Dist.","district":"Al Aziziyah ","latitude":24.5740242,"longitude":46.7689339,"id":10100003029},{"Unnamed: 0":663,"title":"صيدلية النهدي","address":"8114 mohammed rasheed rda - Al Aziziyah Dist.","district":"Al Aziziyah ","latitude":24.5806,"longitude":46.7647,"id":10100003029},{"Unnamed: 0":664,"title":"صيدلية النهدي","address":"3369 no. 73 - Al Aziziyah Dist.","district":"Al Aziziyah ","latitude":24.5826171,"longitude":46.7600059,"id":10100003029},{"Unnamed: 0":665,"title":"صيدلية النهدي","address":"6433 al aziziah rd - Al Dar Al Baida Dist.","district":"Al Dar Al Baida ","latitude":24.5595,"longitude":46.7939,"id":10100003130},{"Unnamed: 0":666,"title":"صيدلية النهدي","address":"2153 arfat rd - Al Dar Al Baida Dist.","district":"Al Dar Al Baida ","latitude":24.575,"longitude":46.7867,"id":10100003130},{"Unnamed: 0":667,"title":"صيدلية النهدي","address":"3249 ibn hejr - Al Dar Al Baida Dist.","district":"Al Dar Al Baida ","latitude":24.5656,"longitude":46.7974,"id":10100003130},{"Unnamed: 0":668,"title":"صيدلية النهدي","address":"6433 Al Tirmidhi - Al Shifa Dist.","district":"Al Shifa ","latitude":24.5654648,"longitude":46.7042022,"id":10100003061},{"Unnamed: 0":669,"title":"صيدلية النهدي","address":"8274 Al Tirmidhi - Al Shifa Dist.","district":"Al Shifa ","latitude":24.5719,"longitude":46.6984,"id":10100003061},{"Unnamed: 0":670,"title":"صيدلية النهدي","address":"3205 Al Tirmidhi - Badr Dist.","district":"Badr ","latitude":24.5574,"longitude":46.7124,"id":10100003164},{"Unnamed: 0":671,"title":"صيدلية النهدي","address":"8253 fath makkah - Badr Dist.","district":"Badr ","latitude":24.5486166,"longitude":46.7212268,"id":10100003164},{"Unnamed: 0":672,"title":"صيدلية النهدي","address":"3787 AL Khaleel Bin Ahmad - Al Shifa Dist.","district":"Al Shifa ","latitude":24.547568845,"longitude":46.688047566,"id":10100003061},{"Unnamed: 0":673,"title":"صيدلية النهدي","address":"7895 dirab rd - Al Marwah Dist.","district":"Al Marwah ","latitude":24.5423,"longitude":46.6636,"id":10100003064},{"Unnamed: 0":674,"title":"صيدلية النهدي","address":"7797 dirab rd - Okaz Dist.","district":"Okaz ","latitude":24.5295,"longitude":46.6532,"id":10100003065},{"Unnamed: 0":675,"title":"صيدلية النهدي","address":"8435 ibn taimiah rd - Badr Dist.","district":"Badr ","latitude":24.5506,"longitude":46.6986,"id":10100003164},{"Unnamed: 0":676,"title":"صيدلية النهدي","address":"7353 ibn taimiah rd - Badr Dist.","district":"Badr ","latitude":24.5409,"longitude":46.6906,"id":10100003164},{"Unnamed: 0":677,"title":"صيدلية النهدي","address":"3827 Al Nahr - Al Nadwah Dist.","district":"Al Nadwah ","latitude":24.7953,"longitude":46.8797,"id":10100003169},{"Unnamed: 0":678,"title":"صيدلية النهدي","address":"2461 Al Harith Bin Abdullah  - Al Nadwah Dist.","district":"Al Nadwah ","latitude":24.7942,"longitude":46.8663,"id":10100003169},{"Unnamed: 0":679,"title":"صيدلية النهدي","address":"3003 al raya - Al Nadwah Dist.","district":"Al Nadwah ","latitude":24.8003,"longitude":46.8717,"id":10100003169},{"Unnamed: 0":680,"title":"صيدلية النهدي","address":"3113 Refaah Bin Aws - Al Nadheem Dist.","district":"Al Nadheem ","latitude":24.8078274,"longitude":46.8865347,"id":10100003092},{"Unnamed: 0":681,"title":"صيدلية النهدي","address":"2449 al marmar - Al Nadheem Dist.","district":"Al Nadheem ","latitude":24.8143,"longitude":46.8801,"id":10100003092},{"Unnamed: 0":682,"title":"صيدلية النهدي","address":"3005 at turath - Al Nadheem Dist.","district":"Al Nadheem ","latitude":24.820533658,"longitude":46.88565619,"id":10100003092},{"Unnamed: 0":683,"title":"صيدلية النهدي","address":"6711 Asmaa Bint Abi Bakr - West Oraija Dist.","district":"West Oraija ","latitude":24.5903,"longitude":46.5832,"id":10100003126},{"Unnamed: 0":684,"title":"صيدلية النهدي","address":"3492 Khadeejah Bint Khuwaylid - Tuwaiq Dist.","district":"Tuwaiq ","latitude":24.584420028,"longitude":46.575710014,"id":10100003102},{"Unnamed: 0":685,"title":"صيدلية النهدي","address":"4808 al madinah al munawarah - West Oraija Dist.","district":"West Oraija ","latitude":24.5759621,"longitude":46.6031368,"id":10100003126},{"Unnamed: 0":686,"title":"صيدلية النهدي","address":"4419 weastern ring branch rd - Al Awaly Dist.","district":"Al Awaly ","latitude":24.558,"longitude":46.6378,"id":10100003103},{"Unnamed: 0":687,"title":"صيدلية النهدي","address":"4528 najmuddin al ayubi - Al Awaly Dist.","district":"Al Awaly ","latitude":24.5524,"longitude":46.6192,"id":10100003103},{"Unnamed: 0":688,"title":"صيدلية النهدي","address":"3870 najmuddin al ayubi - Tuwaiq Dist.","district":"Tuwaiq ","latitude":24.5527,"longitude":46.5726,"id":10100003102},{"Unnamed: 0":689,"title":"صيدلية النهدي","address":"7238 al jahidh - Tuwaiq Dist.","district":"Tuwaiq ","latitude":24.5651,"longitude":46.5549,"id":10100003102},{"Unnamed: 0":690,"title":"صيدلية النهدي","address":"3760 ahmad ibn al khattab - Tuwaiq Dist.","district":"Tuwaiq ","latitude":24.5608,"longitude":46.5516,"id":10100003102},{"Unnamed: 0":691,"title":"صيدلية النهدي","address":"7190 adh dhahabi - Tuwaiq Dist.","district":"Tuwaiq ","latitude":24.565006733,"longitude":46.544892161,"id":10100003102},{"Unnamed: 0":692,"title":"صيدلية النهدي","address":"7942 adh dhahabi - Tuwaiq Dist.","district":"Tuwaiq ","latitude":24.5726783,"longitude":46.5456897,"id":10100003102},{"Unnamed: 0":693,"title":"صيدلية النهدي","address":"7438 dirab rd - Al Hazm Dist.","district":"Al Hazm ","latitude":24.5459,"longitude":46.6651,"id":10100003019},{"Unnamed: 0":694,"title":"صيدلية النهدي","address":"6352 dirab branch rd - Dirab Dist.","district":"ab ","latitude":24.494148234,"longitude":46.627017062,"id":10100003058},{"Unnamed: 0":695,"title":"najd pharmacy","address":"3943 king faisal - Al Murabba Dist.","district":"Al Murabba ","latitude":24.656259984,"longitude":46.707696878,"id":10100003021},{"Unnamed: 0":696,"title":"noads medical pharmacy","address":"8874  Abdullah Bin Masud - West Naseem Dist.","district":"West Naseem ","latitude":24.7384135902,"longitude":46.8052500594,"id":10100003167},{"Unnamed: 0":697,"title":"noora pharmacy","address":"7071 al imam abdul aziz ibn muhammad ibn saud - Al Wisham Dist.","district":"Al Wisham ","latitude":24.643272471,"longitude":46.693409437,"id":10100003114},{"Unnamed: 0":698,"title":"nour health pharmacy","address":"2355 ajman - Al Dar Al Baida Dist.","district":"Al Dar Al Baida ","latitude":24.5652758337,"longitude":46.7753688516,"id":10100003130},{"Unnamed: 0":699,"title":"oasis recovery pharmacy","address":"7227 wag valley - Al Malqa Dist.","district":"Al Malqa ","latitude":24.8135191321,"longitude":46.6115291676,"id":10100003145},{"Unnamed: 0":700,"title":"of the kingdom of health pharmacy","address":"8550 al aziziah rd - Al Aziziyah Dist.","district":"Al Aziziyah ","latitude":24.584360082,"longitude":46.779493007,"id":10100003029},{"Unnamed: 0":701,"title":"\"olaya int'l polyclinic and pharmacy\"","address":"6505 al ulaya - Al Olaya Dist.","district":"Al Olaya ","latitude":24.684668906,"longitude":46.690170436,"id":10100003075},{"Unnamed: 0":702,"title":"orange pharmacy","address":"8956 Al Imam Al Shafie - Al Rawabi Dist.","district":"Al Rawabi ","latitude":24.7060531964,"longitude":46.7993187636,"id":10100003089},{"Unnamed: 0":703,"title":"orange pharmacy","address":"3700 ibn sina - Al Muruj Dist.","district":"Al Muruj ","latitude":24.7588220286,"longitude":46.6673743722,"id":10100003110},{"Unnamed: 0":704,"title":"orange pharmacy","address":"3147 ibn sina - Al Maseef Dist.","district":"Al Maseef ","latitude":24.7635035013,"longitude":46.6798041852,"id":10100003084},{"Unnamed: 0":705,"title":"orange pharmacy","address":"3398 prince salman ibn muhammad al saud - Al Sahafah Dist.","district":"Al Sahafah ","latitude":24.7924436808,"longitude":46.6444991939,"id":10100003123},{"Unnamed: 0":706,"title":"orange pharmacy","address":"7736 abi bakr as siddiq - Al Rabie Dist.","district":"Al Rabie ","latitude":24.8015670754,"longitude":46.6736547724,"id":10100003104},{"Unnamed: 0":707,"title":"orange pharmacy","address":"8286 Osamah Bin Zayd - West Naseem Dist.","district":"West Naseem ","latitude":24.7235739409,"longitude":46.8281638408,"id":10100003167},{"Unnamed: 0":708,"title":"orange pharmacy","address":"7637 Al Imam Al Shafie - Al Fayha Dist.","district":"Al Fayha ","latitude":24.6831170543,"longitude":46.8151094876,"id":10100003133},{"Unnamed: 0":709,"title":"Orange Pharmacy 20","address":"7749 khalid ibn al walid - Al Andalus Dist.","district":"Al Andalus ","latitude":24.7459051071,"longitude":46.7760543248,"id":10100003087},{"Unnamed: 0":710,"title":"Orange Pharmacy(Delivery)","address":"6684 prince abdulaziz ibn musaid ibn jalawi - Al Olaya Dist.","district":"Al Olaya ","latitude":24.686185,"longitude":46.6987566,"id":10100003075},{"Unnamed: 0":711,"title":"Orange Pharmacy(Delivery)","address":"2767 Al Ameer Nayif Bin Abdulaziz - King Fahd Dist.","district":"King Fahd ","latitude":24.7376821,"longitude":46.6658235,"id":10100003017},{"Unnamed: 0":712,"title":"Orange Pharmacy(Delivery)","address":"7244 muin ibn zaidah - Al Mansurah Dist.","district":"Al Mansurah ","latitude":24.6098577,"longitude":46.749158,"id":10100003030},{"Unnamed: 0":713,"title":"Orange Pharmacy(Delivery)","address":"3329 al kharj rd - Al Mansurah Dist.","district":"Al Mansurah ","latitude":24.6193094,"longitude":46.7508793,"id":10100003030},{"Unnamed: 0":714,"title":"Orange Pharmacy(Delivery)","address":"6869 muin ibn zaidah - Al Mansurah Dist.","district":"Al Mansurah ","latitude":24.606318611,"longitude":46.751569288,"id":10100003030},{"Unnamed: 0":715,"title":"Orange Pharmacy(Delivery)","address":"3134  - Al Suwaidi Dist.","district":"Al Suwaidi ","latitude":24.59643091,"longitude":46.701341668,"id":10100003018},{"Unnamed: 0":716,"title":"Orange Pharmacy(Delivery)","address":"8168 Ayshah Bin Abi Bakr - Middle Oraija Dist.","district":"Middle Oraija ","latitude":24.608017722,"longitude":46.637965801,"id":10100003128},{"Unnamed: 0":717,"title":"Orange Pharmacy(Delivery)","address":"3584 al madinah al munawarah - Dhahrat Al Badeah Dist.","district":"hahrat Al Badeah ","latitude":24.5926874,"longitude":46.630415,"id":10100003091},{"Unnamed: 0":718,"title":"Orange Pharmacy(Delivery)","address":"3669 ibadah ibn as samit - Al Rawdah Dist.","district":"Al Rawdah ","latitude":24.7350739,"longitude":46.7718317,"id":10100003088},{"Unnamed: 0":719,"title":"Orange Pharmacy(Delivery)","address":"2407 al amir bandar ibn abdul aziz - Al Andalus Dist.","district":"Al Andalus ","latitude":24.7491906,"longitude":46.7785243,"id":10100003087},{"Unnamed: 0":720,"title":"Orange Pharmacy(Delivery)","address":"7071 al hassan ibn ali - Al Rawdah Dist.","district":"Al Rawdah ","latitude":24.7366483,"longitude":46.7620578,"id":10100003088},{"Unnamed: 0":721,"title":"صيدلية أورانج","address":"8446 khalid ibn al walid - Al Shohda Dist.","district":"Al Shohda ","latitude":24.798177356,"longitude":46.740768279,"id":10100003016},{"Unnamed: 0":722,"title":"Orange Pharmacy(Delivery)","address":"2887 ath thumamah rd - Al Munisiyah Dist.","district":"Al Munisiyah ","latitude":24.8419709,"longitude":46.7516684,"id":10100003140},{"Unnamed: 0":723,"title":"Orange Pharmacy(Delivery)","address":"3441 prince saad ibn abdulrahman al awal rd - Al Jazeerah Dist.","district":"Al Jazeerah ","latitude":24.68368,"longitude":46.7918648,"id":10100003035},{"Unnamed: 0":724,"title":"Orange Pharmacy(Delivery)","address":"6776 al aziziah rd - Al Aziziyah Dist.","district":"Al Aziziyah ","latitude":24.593991,"longitude":46.7739379,"id":10100003029},{"Unnamed: 0":725,"title":"Orange Pharmacy(Delivery)","address":"7661 al aziziah rd - Al Aziziyah Dist.","district":"Al Aziziyah ","latitude":24.589834933,"longitude":46.777419888,"id":10100003029},{"Unnamed: 0":726,"title":"Orange Pharmacy(Delivery)","address":"7944 al aziziah branch road - Al Dar Al Baida Dist.","district":"Al Dar Al Baida ","latitude":24.5664522,"longitude":46.789244,"id":10100003130},{"Unnamed: 0":727,"title":"Orange Pharmacy(Delivery)","address":"6404 ibn taimiah road - Al Shifa Dist.","district":"Al Shifa ","latitude":24.554859733,"longitude":46.701065712,"id":10100003061},{"Unnamed: 0":728,"title":"Orange Pharmacy(Delivery)","address":"4744 dirab branch rd - Namar Dist.","district":"Namar ","latitude":24.577673,"longitude":46.6989782,"id":10100003060},{"Unnamed: 0":729,"title":"palsam pharmacy","address":"6897 al qalaa - Al Yasmeen Dist.","district":"Al Yasmeen ","latitude":24.8106425076,"longitude":46.6577215621,"id":10100003147},{"Unnamed: 0":730,"title":"pharmaceutical Care pharmacy","address":"7450 Unayzah - Al Rawabi Dist.","district":"Al Rawabi ","latitude":24.6926044769,"longitude":46.7853822106,"id":10100003089},{"Unnamed: 0":731,"title":"pharmaceutical care pharmacy","address":"4819 Al Namas - Al Aziziyah Dist.","district":"Al Aziziyah ","latitude":24.5998847036,"longitude":46.7652855604,"id":10100003029},{"Unnamed: 0":732,"title":"صيدلية ","address":"3208 abi jaafar al mansur - Al Shohda Dist.","district":"Al Shohda ","latitude":24.7888204432,"longitude":46.7342251578,"id":10100003016},{"Unnamed: 0":733,"title":"pharmacy","address":"3333 Mousa Bin Naseer - Al Olaya Dist.","district":"Al Olaya ","latitude":24.706260941,"longitude":46.688881912,"id":10100003075},{"Unnamed: 0":734,"title":"pharmacy","address":"7782 al jamuh al ansari - East Umm Al Hamam Dist.","district":"East Umm Al Hamam ","latitude":24.690791235,"longitude":46.651370086,"id":10100003008},{"Unnamed: 0":735,"title":"pharmacy","address":"3715 al urubah rd - Al Olaya Dist.","district":"Al Olaya ","latitude":24.7111836843,"longitude":46.6710813102,"id":10100003075},{"Unnamed: 0":736,"title":"pharmacy","address":"6327 abi bakr as siddiq branch - Al Nuzha Dist.","district":"Al Nuzha ","latitude":24.7471325348,"longitude":46.7021131377,"id":10100003025},{"Unnamed: 0":737,"title":"pharmacy","address":"4359 Amr Bin Al As - Al Wisham Dist.","district":"Al Wisham ","latitude":24.643281892,"longitude":46.698553013,"id":10100003114},{"Unnamed: 0":738,"title":"pharmacy","address":"4611 al imam faisal ibn turki ibn abdullah - Umm Saleem Dist.","district":"Umm Saleem ","latitude":24.637328825,"longitude":46.700759431,"id":10100003122},{"Unnamed: 0":739,"title":"pharmacy","address":"8003 al ajaliyah - Umm Saleem Dist.","district":"Umm Saleem ","latitude":24.630758754,"longitude":46.697938275,"id":10100003122},{"Unnamed: 0":740,"title":"pharmacy","address":"2671 samahat ash shaikh abdul aziz ibn baz - Al Badeah Dist.","district":"Al Badeah ","latitude":24.621090528,"longitude":46.681581158,"id":10100003071},{"Unnamed: 0":741,"title":"pharmacy","address":"7219 al ihsa - Al Rabwah Dist.","district":"Al Rabwah ","latitude":24.6893686518,"longitude":46.7334170889,"id":10100003047},{"Unnamed: 0":742,"title":"pharmacy","address":"7304 ibn rashiq - King Faisal Dist.","district":"King Faisal ","latitude":24.7587423621,"longitude":46.7771396376,"id":10100003027},{"Unnamed: 0":743,"title":"pharmacy","address":"7047 ask shaikh hasan ibn hussain ibn ali - Al Yarmuk Dist.","district":"Al Yarmuk ","latitude":24.8006782669,"longitude":46.7620335976,"id":10100003139},{"Unnamed: 0":744,"title":"pharmacy","address":"6589 as sahabah - Al Yarmuk Dist.","district":"Al Yarmuk ","latitude":24.804207753,"longitude":46.7820922518,"id":10100003139},{"Unnamed: 0":745,"title":"pharmacy","address":"7259 an nasar - Al Yarmuk Dist.","district":"Al Yarmuk ","latitude":24.8102124254,"longitude":46.7910238112,"id":10100003139},{"Unnamed: 0":746,"title":"pharmacy","address":"4020 saud ibn abdullah jalawi - Al Arid Dist.","district":"Al Arid ","latitude":24.8573239268,"longitude":46.6387868661,"id":10100003148},{"Unnamed: 0":747,"title":"pharmacy","address":"3593 Al Namas - Al Aziziyah Dist.","district":"Al Aziziyah ","latitude":24.5961100494,"longitude":46.7728255066,"id":10100003029},{"Unnamed: 0":748,"title":"pharmacy","address":"3779 ibn hejr - Al Dar Al Baida Dist.","district":"Al Dar Al Baida ","latitude":24.5682100988,"longitude":46.8027304812,"id":10100003130},{"Unnamed: 0":749,"title":"صيدلية ركن وهره الردهه","address":"3178 Al Meena - Al Dar Al Baida Dist.","district":"Al Dar Al Baida ","latitude":24.5553436345,"longitude":46.783469673,"id":10100003130},{"Unnamed: 0":750,"title":"Pharmacy","address":"3112 abi jafar al mansur - Ghirnatah Dist.","district":"Ghirnatah ","latitude":24.7960477961,"longitude":46.7512440109,"id":10100003155},{"Unnamed: 0":751,"title":"Pharmacy","address":"6083 khalid ibn al walid - Ghirnatah Dist.","district":"Ghirnatah ","latitude":24.7846760026,"longitude":46.7484900691,"id":10100003155},{"Unnamed: 0":752,"title":"pharmacy","address":"2251 abdulrahman al ghafaqi rd - Al Rawdah Dist.","district":"Al Rawdah ","latitude":24.7412787038,"longitude":46.7512398775,"id":10100003088},{"Unnamed: 0":753,"title":"Pharmacy","address":"7156 al hassan ibn ali - Al Rawdah Dist.","district":"Al Rawdah ","latitude":24.7375489946,"longitude":46.7608167776,"id":10100003088},{"Unnamed: 0":754,"title":"Pharmacy","address":"7431 al hassan ibn ali - Al Rawdah Dist.","district":"Al Rawdah ","latitude":24.7273073503,"longitude":46.7691194071,"id":10100003088},{"Unnamed: 0":755,"title":"Pharmacy","address":"6725 eastern ring rd - Al Rawdah Dist.","district":"Al Rawdah ","latitude":24.7337274613,"longitude":46.7527069499,"id":10100003088},{"Unnamed: 0":756,"title":"Pharmacy","address":"2557 abi jafar al mansur - Ghirnatah Dist.","district":"Ghirnatah ","latitude":24.7931695928,"longitude":46.7456241075,"id":10100003155},{"Unnamed: 0":757,"title":"pharmacy corner flower k 24","address":"8248 King Abdulaziz - Al Sahafah Dist.","district":"Al Sahafah ","latitude":24.8139459804,"longitude":46.6457994958,"id":10100003123},{"Unnamed: 0":758,"title":"pharmacy flower k 18","address":"8530 king fahd branch road - Al Aqeeq Dist.","district":"Al Aqeeq ","latitude":24.7925847286,"longitude":46.6307130385,"id":10100003107},{"Unnamed: 0":759,"title":"pharmacy flower nectar","address":"7551 al amir salman ibn muhammad al saud - Al Sahafah Dist.","district":"Al Sahafah ","latitude":24.8075893345,"longitude":46.6400308069,"id":10100003123},{"Unnamed: 0":760,"title":"pharmacy jazea","address":"6185 Hassan Bin Thabit - East Naseem Dist.","district":"East Naseem ","latitude":24.7147590999,"longitude":46.8473382619,"id":10100003080},{"Unnamed: 0":761,"title":"pharmacy land hakim","address":"6869 abi huraiyrah - East Naseem Dist.","district":"East Naseem ","latitude":24.744035656,"longitude":46.8328055209,"id":10100003080},{"Unnamed: 0":762,"title":"pharmacy splendor cordoba","address":"7294 abi huraiyrah - East Naseem Dist.","district":"East Naseem ","latitude":24.748054644,"longitude":46.8291267017,"id":10100003080},{"Unnamed: 0":763,"title":"pharmacy staff riyadh","address":"6535 Hassan Bin Thabit - East Naseem Dist.","district":"East Naseem ","latitude":24.7179605239,"longitude":46.8450055672,"id":10100003080},{"Unnamed: 0":764,"title":"pharmacy we nraakm","address":"7978 al amir abdullah bin saud bin abdullah snaytan al  - Al Sahafah Dist.","district":"Al Sahafah ","latitude":24.811576054,"longitude":46.6348512701,"id":10100003123},{"Unnamed: 0":765,"title":"plus one pharmacy","address":"6759 al amir matab ibn abdul aziz - Al Rabwah Dist.","district":"Al Rabwah ","latitude":24.6951132205,"longitude":46.7628769845,"id":10100003047},{"Unnamed: 0":766,"title":"potts pharmacy","address":"7639 King Fahd - King Fahd Dist.","district":"King Fahd ","latitude":24.7434496839,"longitude":46.6577280599,"id":10100003017},{"Unnamed: 0":767,"title":" صيدلية الوقاية والعلاج","address":"3870 al qalam - Qurtubah Dist.","district":"Qurtubah ","latitude":24.813823139,"longitude":46.7503805456,"id":10100003101},{"Unnamed: 0":768,"title":"purity corner pharmacy","address":"4738 umar ibn abdul aziz branch rd - Al Rabwah Dist.","district":"Al Rabwah ","latitude":24.6872904384,"longitude":46.7501092613,"id":10100003047},{"Unnamed: 0":769,"title":"Qimmat Aldawa Pharmacy(Delivery)","address":"7994 khalid ibn al walid - Al Hamra Dist.","district":"Al Hamra ","latitude":24.7775986,"longitude":46.7510144,"id":10100003129},{"Unnamed: 0":770,"title":"qurban pharmacy 1","address":"8570 al ulaya - Al Olaya Dist.","district":"Al Olaya ","latitude":24.702046835,"longitude":46.680607342,"id":10100003075},{"Unnamed: 0":771,"title":"qurtuba pharmacy","address":"7623 king fahd branch road - Al Dirah Dist.","district":"Al Dirah ","latitude":24.637471415,"longitude":46.704537949,"id":10100003007},{"Unnamed: 0":772,"title":"qurtuba pharmacy","address":"6896 dirab branch rd - Dirab Dist.","district":"ab ","latitude":24.499026739,"longitude":46.630075673,"id":10100003058},{"Unnamed: 0":773,"title":"qurtuba pharmacy","address":"7148 dirab branch rd - Dirab Dist.","district":"ab ","latitude":24.486837101,"longitude":46.62223601,"id":10100003058},{"Unnamed: 0":774,"title":"qurtuba pharmacy","address":"5032 southern ring branch rd - Al Duraihemiyah Dist.","district":"Al Duraihemiyah ","latitude":24.583795262,"longitude":46.687925025,"id":10100003076},{"Unnamed: 0":775,"title":"rafal pharmacy","address":"6261 harun ar rashid branch - Al Fayha Dist.","district":"Al Fayha ","latitude":24.670257262,"longitude":46.8053397768,"id":10100003133},{"Unnamed: 0":776,"title":"rami pharmacy","address":"2886 abi bakr ar razi - Al Sulaimaniyah Dist.","district":"Al Sulaimaniyah ","latitude":24.691779355,"longitude":46.707729891,"id":10100003063},{"Unnamed: 0":777,"title":"ramy pharmacy","address":"2219 arfat rd - Al Dar Al Baida Dist.","district":"Al Dar Al Baida ","latitude":24.5621031152,"longitude":46.7602047343,"id":10100003130},{"Unnamed: 0":778,"title":"Raseel Pharmacy","address":"6820 muin ibn zaidah - Al Mansurah Dist.","district":"Al Mansurah ","latitude":24.6061732,"longitude":46.7509615,"id":10100003030},{"Unnamed: 0":779,"title":"rashad pharmacy","address":"6849 ar rayan - Al Nafel Dist.","district":"Al Nafel ","latitude":24.7774536218,"longitude":46.6745448448,"id":10100003083},{"Unnamed: 0":780,"title":"rasma pharmacy","address":"3787 sultanah - Sultanah Dist.","district":"Sultanah ","latitude":24.609061924,"longitude":46.6877231,"id":10100003069},{"Unnamed: 0":781,"title":"rasma pharmacy","address":"5618 as suwaidi al am - Al Suwaidi Dist.","district":"Al Suwaidi ","latitude":24.594950143,"longitude":46.679459331,"id":10100003018},{"Unnamed: 0":782,"title":"rawabi pharmacy","address":"7502 at takhassusi - North Mathar Dist.","district":"North Mathar ","latitude":24.688564457,"longitude":46.673205707,"id":10100003011},{"Unnamed: 0":783,"title":"razan pharmacy","address":"5027 al jawharah bint ibn muammar - Al Sharafiyah Dist.","district":"Al Sharafiyah ","latitude":24.655860745,"longitude":46.672756975,"id":10100003009},{"Unnamed: 0":784,"title":"recipe life pharmacy","address":"7370 Unayzah - Al Rawabi Dist.","district":"Al Rawabi ","latitude":24.6917481079,"longitude":46.7859935861,"id":10100003089},{"Unnamed: 0":785,"title":"صيدلية الرونق الأحمر","address":"7502 at takhassusi - North Mathar Dist.","district":"North Mathar ","latitude":24.6885671,"longitude":46.6732718,"id":10100003011},{"Unnamed: 0":786,"title":"صيدلية الوقاية والعلاج","address":"3567 al amir bandar ibn abdul aziz - Al Nahdah Dist.","district":"Al Nahdah ","latitude":24.7661705,"longitude":46.805927,"id":10100003054},{"Unnamed: 0":787,"title":"صيدلية الرونق الأحمر","address":"7542 Saeed Bin Zayd - Qurtubah Dist.","district":"Qurtubah ","latitude":24.823011141,"longitude":46.728302577,"id":10100003101},{"Unnamed: 0":788,"title":"rhiq zahara alrwodhah pharmacy","address":"3608 abdul rahman al ghafaqi rd - Al Quds Dist.","district":"Al Quds ","latitude":24.7439972175,"longitude":46.7545510384,"id":10100003081},{"Unnamed: 0":789,"title":"riyadh national pharmacy 2","address":"3215 Al Bara Bin Azeb - Al Wizarat Dist.","district":"Al Wizarat ","latitude":24.681297007,"longitude":46.711688617,"id":10100003045},{"Unnamed: 0":790,"title":"riyadh pharmacy","address":"6279 Ayshah Bin Abi Bakr - Al Suwaidi Dist.","district":"Al Suwaidi ","latitude":24.583897994,"longitude":46.656456044,"id":10100003018},{"Unnamed: 0":791,"title":"roken clinic pharmacy","address":"3739 al amir majid ibn abdul aziz - Al Rayan Dist.","district":"Al Rayan ","latitude":24.7118625336,"longitude":46.7788822199,"id":10100003090},{"Unnamed: 0":792,"title":"صيدلية ركن زهره الروضة","address":"8548 ash shaikh hasan ibn hussain ibn ali - King Faisal Dist.","district":"King Faisal ","latitude":24.7699532977,"longitude":46.7807917593,"id":10100003027},{"Unnamed: 0":793,"title":"صيدلية ركن زهره الروضة","address":"6389 as sahabah - Ishbiliyah Dist.","district":"Ishbiliyah ","latitude":24.7849450435,"longitude":46.7917744903,"id":10100003137},{"Unnamed: 0":794,"title":"صيدلية ركن زهره الروضة","address":"7692  - Al Shohda Dist.","district":"Al Shohda ","latitude":24.7918593499,"longitude":46.7272279722,"id":10100003016},{"Unnamed: 0":795,"title":"صيدلية ركن زهره الروضة","address":"3459 abi said al khadri - Al Khaleej Dist.","district":"Al Khaleej ","latitude":24.7675253235,"longitude":46.7907660018,"id":10100003055},{"Unnamed: 0":796,"title":"roukn zaharh alrowdhah pharmacy","address":"3454 al amir saud ibn abdul aziz al saud al kabir - Al Quds Dist.","district":"Al Quds ","latitude":24.7576819649,"longitude":46.7532459362,"id":10100003081},{"Unnamed: 0":797,"title":"roukn zaharh alrowdhah pharmacy","address":"4062 abdul rahman al ghafaqi rd - Al Quds Dist.","district":"Al Quds ","latitude":24.7467501256,"longitude":46.7591566596,"id":10100003081},{"Unnamed: 0":798,"title":"roukn zahrah alrodhah pharmacy","address":"2303 al imam abdullah ibn saud ibn abdulaziz rd - Ishbiliyah Dist.","district":"Ishbiliyah ","latitude":24.791987085,"longitude":46.7691091467,"id":10100003137},{"Unnamed: 0":799,"title":"\"rua int'l pharmacy\"","address":"4354 ash shaikh abdul aziz ibn muhammad ibn ali - Dhahrat Al Badeah Dist.","district":"hahrat Al Badeah ","latitude":24.591212246,"longitude":46.647423545,"id":10100003091},{"Unnamed: 0":800,"title":"rukn zahra pharmacy","address":"7344 Al Mogheera Bin Shoabah - King Fahd Dist.","district":"King Fahd ","latitude":24.7412262245,"longitude":46.6704216857,"id":10100003017},{"Unnamed: 0":801,"title":"rukn zahrat al rawdah pharmacy","address":"7153  - King Saud University","district":"King Saud University","latitude":24.7139920319,"longitude":46.6261576491,"id":10100003166},{"Unnamed: 0":802,"title":"rukn zahrat al rawdah pharmacy","address":"2731 ash shaikh abdullah al makhdub - Al Falah Dist.","district":"Al Falah ","latitude":24.7950357232,"longitude":46.703283749,"id":10100003022},{"Unnamed: 0":803,"title":"safwah almdaen pharmacy","address":"7716 an najah - Al Yarmuk Dist.","district":"Al Yarmuk ","latitude":24.8142662484,"longitude":46.7978906611,"id":10100003139},{"Unnamed: 0":804,"title":"saqqaf pharmacy","address":"3874 al imam saud ibn abdul aziz branch rd - Al Maseef Dist.","district":"Al Maseef ","latitude":24.758155046,"longitude":46.6867925366,"id":10100003084},{"Unnamed: 0":805,"title":" صيدلية السقاف","address":"8266 Ibn Shaheen - Al Rawdah Dist.","district":"Al Rawdah ","latitude":24.7475842516,"longitude":46.7619358165,"id":10100003088},{"Unnamed: 0":806,"title":" صيدلية السقاف","address":"8522 khalid ibn al walid - Al Shohda Dist.","district":"Al Shohda ","latitude":24.7988758972,"longitude":46.740424541,"id":10100003016},{"Unnamed: 0":807,"title":"صيدلية السقاف","address":"4414 Anas Bin Malek - Al Narjis Dist.","district":"Al Narjis ","latitude":24.8335872201,"longitude":46.6770808296,"id":10100003150},{"Unnamed: 0":808,"title":"saqqaf pharmacy","address":"3553 al amir saad ibn abdulrahman al awal rd - Al Jazeerah Dist.","district":"Al Jazeerah ","latitude":24.6842365064,"longitude":46.7929705227,"id":10100003035},{"Unnamed: 0":809,"title":"saqqaf pharmacy","address":"3786 abu ubaydah amir ibn al jarrah - Al Fayha Dist.","district":"Al Fayha ","latitude":24.6716820833,"longitude":46.8135780657,"id":10100003133},{"Unnamed: 0":810,"title":"الصيدلية السعودية","address":"3533 prince mamduh ibn abdulaziz - Al Sulaimaniyah Dist.","district":"Al Sulaimaniyah ","latitude":24.709129737,"longitude":46.690199638,"id":10100003063},{"Unnamed: 0":811,"title":"الصيدلية السعودية","address":"6155 ash shaikh hasan ibn hussain ibn ali - Ishbiliyah Dist.","district":"Ishbiliyah ","latitude":24.7777134073,"longitude":46.7760142583,"id":10100003137},{"Unnamed: 0":812,"title":"الصيدلية السعودية","address":"7964 ashaikh hasan ibn hussain ibn ali rd - Qurtubah Dist.","district":"Qurtubah ","latitude":24.8178732041,"longitude":46.7524785674,"id":10100003101},{"Unnamed: 0":813,"title":"الصيدلية السعودية","address":"7435 al basala - Al Aziziyah Dist.","district":"Al Aziziyah ","latitude":24.5940145437,"longitude":46.7518695306,"id":10100003029},{"Unnamed: 0":814,"title":"seif pharmacy","address":"2381 al imam saud ibn faisal rd - Al Aqeeq Dist.","district":"Al Aqeeq ","latitude":24.7873568496,"longitude":46.6164334234,"id":10100003107},{"Unnamed: 0":815,"title":"shafi pharmacy","address":"3433 al qalam - Al Rabie Dist.","district":"Al Rabie ","latitude":24.7993982901,"longitude":46.6660505077,"id":10100003104},{"Unnamed: 0":816,"title":"shafi pharmacy","address":"3416 al bayan - Al Saadah Dist.","district":"Al Saadah ","latitude":24.6889538999,"longitude":46.8306997479,"id":10100003036},{"Unnamed: 0":817,"title":"shatha medicine pharmacy","address":"8068 al qadisiyyah - Al Yasmeen Dist.","district":"Al Yasmeen ","latitude":24.821352593,"longitude":46.6543268729,"id":10100003147},{"Unnamed: 0":818,"title":"shatha medicine pharmacy","address":"7329 as sahra al gharbiyah - Al Rabie Dist.","district":"Al Rabie ","latitude":24.7981800061,"longitude":46.6666168194,"id":10100003104},{"Unnamed: 0":819,"title":"shibh al jazeerah pharmacy","address":"4341 sadir - Shubra Dist.","district":"Shubra ","latitude":24.588986175,"longitude":46.68106677,"id":10100003066},{"Unnamed: 0":820,"title":"shifa balsam pharmacy","address":"5582 al imam saud ibn abdulaziz branch rd - Al Nakheel Dist.","district":"Al Nakheel ","latitude":24.7436908223,"longitude":46.6527137614,"id":10100003108},{"Unnamed: 0":821,"title":"sihhat zina pharmacy","address":"4166 al urubah rd - Al Woroud Dist.","district":"Al Woroud ","latitude":24.7196538795,"longitude":46.6885292061,"id":10100003026},{"Unnamed: 0":822,"title":"siramis pharmacy","address":"5016 Al Malek Saud - Al Wisham Dist.","district":"Al Wisham ","latitude":24.645765257,"longitude":46.699583289,"id":10100003114},{"Unnamed: 0":823,"title":"aif center pharmacy","address":"7678 at takhassusi - North Mathar Dist.","district":"North Mathar ","latitude":24.689991817,"longitude":46.672498791,"id":10100003011},{"Unnamed: 0":824,"title":"aif najd pharmacy","address":"7186 badi az zaman al hamadhani - Shubra Dist.","district":"Shubra ","latitude":24.571691229,"longitude":46.653416241,"id":10100003066},{"Unnamed: 0":825,"title":"ayf najd pharmacy","address":"4211 al ibbad - Shubra Dist.","district":"Shubra ","latitude":24.585858533,"longitude":46.679831961,"id":10100003066},{"Unnamed: 0":826,"title":"ba pharmacy","address":"6527 Hibban Bin Monqidh - Manfuha Al Jadidah Dist.","district":"Manfuha Al Jadidah ","latitude":24.609330879,"longitude":46.711380233,"id":10100003005},{"Unnamed: 0":827,"title":"he complex pharmacy","address":"8614 Ayshah Bin Abi Bakr - Al Zahrah Dist.","district":"Al Zahrah ","latitude":24.584554308,"longitude":46.655177668,"id":10100003067},{"Unnamed: 0":828,"title":"he positions of the college of pharmacy and the faculty of dentistry","address":"7269  - King Saud University","district":"King Saud University","latitude":24.7153093015,"longitude":46.6200025783,"id":10100003166},{"Unnamed: 0":829,"title":"um al hamam pharmacy","address":"8763 umm al hamam - West Umm Al Hamam Dist.","district":"West Umm Al Hamam ","latitude":24.699489301,"longitude":46.651351137,"id":10100003012},{"Unnamed: 0":830,"title":"unayzah pharmacy","address":"7295 al amir abdul rahman ibn abdul aziz - Al Wizarat Dist.","district":"Al Wizarat ","latitude":24.676426264,"longitude":46.708433903,"id":10100003045},{"Unnamed: 0":831,"title":"united pharmacy","address":"2319 king abdullah ibn abdulaziz rd - Al Raed Dist.","district":"Al Raed ","latitude":24.706530876,"longitude":46.626096164,"id":10100003125},{"Unnamed: 0":832,"title":"united pharmacy","address":"6732 ash shaikh abdul rahman ibn hasan - Al Wizarat Dist.","district":"Al Wizarat ","latitude":24.671355045,"longitude":46.711726439,"id":10100003045},{"Unnamed: 0":833,"title":"united pharmacy","address":"4295 makkah al mukarramah branch rd - Al Mathar Dist.","district":"Al Mathar ","latitude":24.674647132,"longitude":46.665725331,"id":10100003049},{"Unnamed: 0":834,"title":"united pharmacy","address":"4332 al imam faisal ibn turki ibn abdullah - Al Wisham Dist.","district":"Al Wisham ","latitude":24.637578135,"longitude":46.698183195,"id":10100003114},{"Unnamed: 0":835,"title":"united pharmacy","address":"8735 al imam abdul aziz ibn muhammad ibn saud - Al Wisham Dist.","district":"Al Wisham ","latitude":24.637400915,"longitude":46.693305267,"id":10100003114},{"Unnamed: 0":836,"title":"valley bee pharmacy","address":"2665 al qalam - Al Munisiyah Dist.","district":"Al Munisiyah ","latitude":24.8155516434,"longitude":46.7560291599,"id":10100003140},{"Unnamed: 0":837,"title":"vest pharmacy","address":"4528  - Al Mughrazat Dist.","district":"Al Mughrazat ","latitude":24.7609294997,"longitude":46.7375515959,"id":10100003105},{"Unnamed: 0":838,"title":"veterinary pharmacy loaded","address":"7261 King Fahd - Al Sahafah Dist.","district":"Al Sahafah ","latitude":24.788831667,"longitude":46.6337920854,"id":10100003123},{"Unnamed: 0":839,"title":"WAGD pharmacy","address":"8762 khalid ibn al walid - Al Rawdah Dist.","district":"Al Rawdah ","latitude":24.7518962536,"longitude":46.7705488239,"id":10100003088},{"Unnamed: 0":840,"title":"wagd pharmacy","address":"2277 muhammad ibn hindi - East Naseem Dist.","district":"East Naseem ","latitude":24.7384788985,"longitude":46.8332518187,"id":10100003080},{"Unnamed: 0":841,"title":"wahat al ilaj pharmacy","address":"7624 al muthanna ibn harithah - Al Shifa Dist.","district":"Al Shifa ","latitude":24.566005974,"longitude":46.696944008,"id":10100003061},{"Unnamed: 0":842,"title":"wahat al ilaj pharmacy","address":"6416 ibn taimiah road - Al Shifa Dist.","district":"Al Shifa ","latitude":24.554922986,"longitude":46.701101986,"id":10100003061},{"Unnamed: 0":843,"title":"wasfaat pharmacy","address":"4270 king abdullah ibn abdulaziz branch rd - Al Mughrazat Dist.","district":"Al Mughrazat ","latitude":24.7588236767,"longitude":46.7349401375,"id":10100003105},{"Unnamed: 0":844,"title":"wasfat alhaya pharmacy","address":"6744 al muhandis masaid al anqari - Al Woroud Dist.","district":"Al Woroud ","latitude":24.720135565,"longitude":46.6797254004,"id":10100003026},{"Unnamed: 0":845,"title":"صيدلية وايتس","address":"7338  - King Khalid International Airport","district":"King Khalid International Airpo","latitude":24.8551783855,"longitude":46.7181800692,"id":10100003149},{"Unnamed: 0":846,"title":"صيدلية وايتس","address":"3896 Al Ameer Miqren Bin Abdulaziz - Al Nuzha Dist.","district":"Al Nuzha ","latitude":24.7578135767,"longitude":46.7130925174,"id":10100003025},{"Unnamed: 0":847,"title":"صيدلية وايتس","address":"6234 al ulaya - Al Woroud Dist.","district":"Al Woroud ","latitude":24.714501592,"longitude":46.6740424462,"id":10100003026},{"Unnamed: 0":848,"title":"western veterinary pharmacy","address":"7745 salam - Al Dubiyah Dist.","district":"Al Dubiyah ","latitude":24.619986635,"longitude":46.71063774,"id":10100003116},{"Unnamed: 0":849,"title":"white pharmacy","address":"3898 al imam saud ibn abdul aziz rd - Al Muruj Dist.","district":"Al Muruj ","latitude":24.7506448286,"longitude":46.6691411912,"id":10100003110},{"Unnamed: 0":850,"title":"صيدلية وايتس","address":"7639 King Fahd - King Fahd Dist.","district":"King Fahd ","latitude":24.7429595149,"longitude":46.6583657554,"id":10100003017},{"Unnamed: 0":851,"title":"صيدلية وايتس","address":"7544 King Abdulaziz - King Fahd Dist.","district":"King Fahd ","latitude":24.7441899815,"longitude":46.6801018491,"id":10100003017},{"Unnamed: 0":852,"title":"صيدلية وايتس","address":"2145 kharis branch rd - Al Manar Dist.","district":"Al Manar ","latitude":24.7282735007,"longitude":46.7849738589,"id":10100003079},{"Unnamed: 0":853,"title":"صيدلية وايتس","address":"4558 king abdullah ibn abdul aziz rd - Al Hamra Dist.","district":"Al Hamra ","latitude":24.7668909982,"longitude":46.7554958559,"id":10100003129},{"Unnamed: 0":854,"title":"صيدلية وايتس","address":"6113 Saeed Bin Zayd - Qurtubah Dist.","district":"Qurtubah ","latitude":24.8177771485,"longitude":46.7321333428,"id":10100003101},{"Unnamed: 0":855,"title":"صيدلية وايتس","address":"7079 al muhandis masaid al anqari - Al Woroud Dist.","district":"Al Woroud ","latitude":24.7232076673,"longitude":46.6786638435,"id":10100003026},{"Unnamed: 0":856,"title":"صيدلية وايتس","address":"3948 Mousa Bin Naseer - Al Olaya Dist.","district":"Al Olaya ","latitude":24.700562693,"longitude":46.6732353162,"id":10100003075},{"Unnamed: 0":857,"title":"صيدلية وايتس","address":"7069 at takhassusi - Al Rahmaniyah Dist.","district":"Al Rahmaniyah ","latitude":24.7143220056,"longitude":46.6609993933,"id":10100003013},{"Unnamed: 0":858,"title":"صيدلية وايتس","address":"7281 abi bakr as siddiq branch - Al Nuzha Dist.","district":"Al Nuzha ","latitude":24.7558601995,"longitude":46.69794339,"id":10100003025},{"Unnamed: 0":859,"title":"صيدلية وايتس","address":"6603 uthman ibn affan branch rd - Al Ezdihar Dist.","district":"Al Ezdihar ","latitude":24.7739556887,"longitude":46.7105122054,"id":10100003086},{"Unnamed: 0":860,"title":"صيدلية وايتس","address":"6547 uthman ibn affan branch rd - Al Ezdihar Dist.","district":"Al Ezdihar ","latitude":24.7734476737,"longitude":46.7107334953,"id":10100003086},{"Unnamed: 0":861,"title":"صيدلية وايتس","address":"4400 umar ibn abdul aziz rd - Al Rabwah Dist.","district":"Al Rabwah ","latitude":24.6861942921,"longitude":46.7467452825,"id":10100003047},{"Unnamed: 0":862,"title":"صيدلية وايتس","address":"6623  - Al Shohda Dist.","district":"Al Shohda ","latitude":24.7818153629,"longitude":46.7308856602,"id":10100003016},{"Unnamed: 0":863,"title":"صيدلية وايتس","address":"3221 al shawati - Qurtubah Dist.","district":"Qurtubah ","latitude":24.8144607964,"longitude":46.7254601401,"id":10100003101},{"Unnamed: 0":864,"title":"صيدلية وايتس","address":"4198 northern ring rd - Al Wadi Dist.","district":"Al Wadi ","latitude":24.7838358898,"longitude":46.6995823993,"id":10100003082},{"Unnamed: 0":865,"title":"صيدلية وايتس","address":"3769 ath thumamah rd - Al Rabie Dist.","district":"Al Rabie ","latitude":24.8086022125,"longitude":46.6694134643,"id":10100003104},{"Unnamed: 0":866,"title":"صيدلية وايتس","address":"3219 Anas Bin Malek - Al Yasmeen Dist.","district":"Al Yasmeen ","latitude":24.8233346732,"longitude":46.6554538137,"id":10100003147},{"Unnamed: 0":867,"title":"صيدلية وايتس","address":"7162 King Abdulaziz - Al Yasmeen Dist.","district":"Al Yasmeen ","latitude":24.8202595854,"longitude":46.6423682214,"id":10100003147},{"Unnamed: 0":868,"title":"صيدلية وايتس","address":"7838  - Hitteen Dist.","district":"Hitteen ","latitude":24.7528588732,"longitude":46.5840065568,"id":10100003144},{"Unnamed: 0":869,"title":"صيدلية وايتس","address":"5966 anas ibn malik - Al Malqa Dist.","district":"Al Malqa ","latitude":24.8028617468,"longitude":46.6039969896,"id":10100003145},{"Unnamed: 0":870,"title":"صيدلية وايتس","address":"3666 Hesham Bin Abdulmalek - King Fahd Dist.","district":"King Fahd ","latitude":24.7440778003,"longitude":46.6751022739,"id":10100003017},{"Unnamed: 0":871,"title":"wood pharmacy","address":"6494 sultanah - Sultanah Dist.","district":"Sultanah ","latitude":24.601330508,"longitude":46.694525864,"id":10100003069},{"Unnamed: 0":872,"title":"woroof pharmacy","address":"3118 AL Khaleel Bin Ahmad - Badr Dist.","district":"Badr ","latitude":24.539665829,"longitude":46.699581536,"id":10100003164},{"Unnamed: 0":873,"title":"yaser mohammad ash shareedah pharmacy","address":"3547 al madinah al munawarah - West Suwaidi Dist.","district":"West Suwaidi ","latitude":24.585842875,"longitude":46.620363847,"id":10100003057},{"Unnamed: 0":874,"title":"zaharah alrodhah pharmacy","address":"8674 Al Imam Al Shafie - Al Rayan Dist.","district":"Al Rayan ","latitude":24.7186505457,"longitude":46.7898624067,"id":10100003090},{"Unnamed: 0":875,"title":"zaharh alrodhah pharmacy","address":"2507 king abdullah ibn abdul aziz rd - King Faisal Dist.","district":"King Faisal ","latitude":24.7693723752,"longitude":46.7643837643,"id":10100003027},{"Unnamed: 0":876,"title":"zaharh alrodhah pharmacy","address":"6693 rajiyah - Al Munisiyah Dist.","district":"Al Munisiyah ","latitude":24.8137293287,"longitude":46.7673945642,"id":10100003140},{"Unnamed: 0":877,"title":"zahra el rawda pharmacy","address":"2776 al amir turki ibn abdul aziz ath thani - Al Muruj Dist.","district":"Al Muruj ","latitude":24.7568993745,"longitude":46.6584087961,"id":10100003110},{"Unnamed: 0":878,"title":"zahrat al amal pharmacy","address":"4670 al madinah al munawarah - West Oraija Dist.","district":"West Oraija ","latitude":24.587052685,"longitude":46.621241645,"id":10100003126},{"Unnamed: 0":879,"title":"zahrat al rawdah pharmacy","address":"3526 prince muhammad ibn abdulaziz rd - Al Olaya Dist.","district":"Al Olaya ","latitude":24.69955221,"longitude":46.690106459,"id":10100003075},{"Unnamed: 0":880,"title":"zahrat al rawdah pharmacy","address":"3383 al imam saud ibn abdul aziz rd - Al Muhammadiyah Dist.","district":"Al Muhammadiyah ","latitude":24.7407937182,"longitude":46.6475262142,"id":10100003062},{"Unnamed: 0":881,"title":"zahrat al rawdah pharmacy","address":"\"2413 Al Imam S'Aud Bin Abdulaziz Bin Mohammed - Al Mursalat Dist.\"","district":"Al Mursalat ","latitude":24.7547760131,"longitude":46.6807635773,"id":10100003024},{"Unnamed: 0":882,"title":"zahrat al rawdah pharmacy","address":"2929 northern ring rd - Al Taawun Dist.","district":"Al Taawun ","latitude":24.7807694145,"longitude":46.6956688001,"id":10100003085},{"Unnamed: 0":883,"title":"zahrat al rawdah pharmacy","address":"3886 muhammad al maqdimi - Al Ghadeer Dist.","district":"Al Ghadeer ","latitude":24.7764412576,"longitude":46.6575736752,"id":10100003109},{"Unnamed: 0":884,"title":"zahrat al shafa pharmacy","address":"4180 dirab branch rd - Namar Dist.","district":"Namar ","latitude":24.573322371,"longitude":46.693313319,"id":10100003060},{"Unnamed: 0":885,"title":"zahrat sami pharmacy","address":"3593 al urubah rd - Al Sulaimaniyah Dist.","district":"Al Sulaimaniyah ","latitude":24.7201537091,"longitude":46.6909477061,"id":10100003063},{"Unnamed: 0":886,"title":"zamzam pharmacy","address":"7576 at takhassusi - North Mathar Dist.","district":"North Mathar ","latitude":24.70209119,"longitude":46.66621034,"id":10100003011},{"Unnamed: 0":887,"title":"zharat ar rawda pharmacy","address":"8605 King Fahd - Al Olaya Dist.","district":"Al Olaya ","latitude":24.702582111,"longitude":46.677833616,"id":10100003075},{"Unnamed: 0":888,"title":"zharat ar rawda pharmacy","address":"5378 as suwaidi al am - Siyah Dist.","district":"Siyah ","latitude":24.60378755,"longitude":46.703379798,"id":10100003068}]