[{"Unnamed: 0":0,"title":"212 restauran","address":"7180 ibn taimiah rd - Al Shifa Dist.","district":"Al Shifa ","latitude":24.549799437,"longitude":46.696910208,"id":10100003061},{"Unnamed: 0":1,"title":"abaga restauran","address":"3518 al imam abdullah ibn saud ibn abdulaziz branch rd - Al Yarmuk Dist.","district":"Al Yarmuk ","latitude":24.8020663112,"longitude":46.7906876576,"id":10100003139},{"Unnamed: 0":2,"title":"2 in 1 restauran","address":"6966 prince abdulaziz ibn musaid ibn jalawi - Al Olaya Dist.","district":"Al Olaya ","latitude":24.688707925,"longitude":46.699749713,"id":10100003075},{"Unnamed: 0":3,"title":"aalkhvev restauran","address":"7363 King Abdulaziz - Al Nafel Dist.","district":"Al Nafel ","latitude":24.7821044077,"longitude":46.6627104205,"id":10100003083},{"Unnamed: 0":4,"title":"abdaa lulu restauran","address":"3653 rajiyah - Al Munisiyah Dist.","district":"Al Munisiyah ","latitude":24.8169580789,"longitude":46.765775341,"id":10100003140},{"Unnamed: 0":5,"title":"2 in 1 restauran","address":"8162 king fahd branch road - Al Olaya Dist.","district":"Al Olaya ","latitude":24.694102087,"longitude":46.680451237,"id":10100003075},{"Unnamed: 0":6,"title":"aalm almandi of mtluth restaurants","address":"8296 ashaikh hasan ibn hussain ibn ali rd - Qurtubah Dist.","district":"Qurtubah ","latitude":24.8207737076,"longitude":46.7509565848,"id":10100003101},{"Unnamed: 0":7,"title":"1_2 restauran","address":"7104 prince abdulaziz ibn musaid ibn jalawi - Al Olaya Dist.","district":"Al Olaya ","latitude":24.689966882,"longitude":46.70020017,"id":10100003075},{"Unnamed: 0":8,"title":"911 restauran","address":"7210 ali al fazari - Al Munisiyah Dist.","district":"Al Munisiyah ","latitude":24.8259989956,"longitude":46.7797387578,"id":10100003140},{"Unnamed: 0":9,"title":"abar alsham restaurants","address":"2572 Yazeed Bin Abdullah - West Naseem Dist.","district":"West Naseem ","latitude":24.7405719531,"longitude":46.8095032162,"id":10100003167},{"Unnamed: 0":10,"title":"abu haytham restauran","address":"7831 king fahad branch rd - Al Arid Dist.","district":"Al Arid ","latitude":24.8758781457,"longitude":46.589970342,"id":10100003148},{"Unnamed: 0":11,"title":"adhirah restauran","address":"6950 wadi as sahil - Al Rimal Dist.","district":"Al Rimal ","latitude":24.8311200647,"longitude":46.8109477062,"id":10100003153},{"Unnamed: 0":12,"title":"al ajami restauran","address":"3496 al amir sultan ibn abdul aziz - Al Sulaimaniyah Dist.","district":"Al Sulaimaniyah ","latitude":24.694629702,"longitude":46.698579779,"id":10100003063},{"Unnamed: 0":13,"title":"abu kamal restauran","address":"2410 al amir sultan ibn abdul aziz - Al Olaya Dist.","district":"Al Olaya ","latitude":24.690209476,"longitude":46.687728766,"id":10100003075},{"Unnamed: 0":14,"title":"ajami restauran","address":"8256 Abi Bakar As-Sudiq Rd - Al Mursalat Dist.","district":"Al Mursalat ","latitude":24.757092679,"longitude":46.6962181945,"id":10100003024},{"Unnamed: 0":15,"title":"abdo satti restauran","address":"8431 shams ad din as salihi - West Naseem Dist.","district":"West Naseem ","latitude":24.7255869848,"longitude":46.8244196796,"id":10100003167},{"Unnamed: 0":16,"title":"abuzaki restauran","address":"7021 abdullah al hamadhani - Al Malaz Dist.","district":"Al Malaz ","latitude":24.6700214525,"longitude":46.7316987609,"id":10100003051},{"Unnamed: 0":17,"title":"al afandi restaurants","address":"4172 al imam faisal ibn turki ibn abdullah - Al Wisham Dist.","district":"Al Wisham ","latitude":24.637503297,"longitude":46.696885845,"id":10100003114},{"Unnamed: 0":18,"title":"abu noman restauran","address":"6286 al ulaya - Al Sahafah Dist.","district":"Al Sahafah ","latitude":24.7963575529,"longitude":46.6330051545,"id":10100003123},{"Unnamed: 0":19,"title":"akbar bukhari restauran","address":"2720 al urayja - Al Uraija Dist.","district":"Al Uraija ","latitude":24.626809548,"longitude":46.664168887,"id":10100003127},{"Unnamed: 0":20,"title":"al andalus restauran","address":"3407 Khadeejah Bint Khuwaylid - Tuwaiq Dist.","district":"Tuwaiq ","latitude":24.586318548,"longitude":46.543744453,"id":10100003102},{"Unnamed: 0":21,"title":"al balad restauran","address":"3103 northern ring rd - Al Taawun Dist.","district":"Al Taawun ","latitude":24.7807694145,"longitude":46.6972535211,"id":10100003085},{"Unnamed: 0":22,"title":"al ajami restauran","address":"7502 at takhassusi - North Mathar Dist.","district":"North Mathar ","latitude":24.688433799,"longitude":46.673231562,"id":10100003011},{"Unnamed: 0":23,"title":"al asimah restauran","address":"8500 umm al hamam - West Umm Al Hamam Dist.","district":"West Umm Al Hamam ","latitude":24.69726833,"longitude":46.649337055,"id":10100003012},{"Unnamed: 0":24,"title":"al basha lebanese restauran","address":"7683 Al Maeer Sattam Bin Abdulaziz - Al Nasiriyah Dist.","district":"Al Nasiriyah ","latitude":24.648798153,"longitude":46.670709733,"id":10100003037},{"Unnamed: 0":25,"title":"al amin restauran","address":"3789 Al Imadi - Al Shumaisi Dist.","district":"Al Shumaisi ","latitude":24.627430539,"longitude":46.692672212,"id":10100003113},{"Unnamed: 0":26,"title":"al aywan restaurants","address":"2977 al imam abi hanifah - West Oraija Dist.","district":"West Oraija ","latitude":24.594573301,"longitude":46.604678337,"id":10100003126},{"Unnamed: 0":27,"title":"al batriq restauran","address":"3356 makkah al mukarramah branch rd - North Mathar Dist.","district":"North Mathar ","latitude":24.676025167,"longitude":46.675105382,"id":10100003011},{"Unnamed: 0":28,"title":"al asalah restauran","address":"6570 al amir abdullah ibn abdul rahman ibn faisal - Utayqah Dist.","district":"Utayqah ","latitude":24.590354122,"longitude":46.71170505,"id":10100003020},{"Unnamed: 0":29,"title":"al barkah sudanese restauran","address":"7678 Al Miqdad Bin Amr - West Oraija Dist.","district":"West Oraija ","latitude":24.591848206,"longitude":46.609665871,"id":10100003126},{"Unnamed: 0":30,"title":"al bihar bukhari restauran","address":"6688 abdullah ibn az zubairq - West Oraija Dist.","district":"West Oraija ","latitude":24.597364563,"longitude":46.597984077,"id":10100003126},{"Unnamed: 0":31,"title":"al bukari restauran","address":"4697 Al Zubair Bin Al Awwam - Al Rawabi Dist.","district":"Al Rawabi ","latitude":24.7001278557,"longitude":46.8002327566,"id":10100003089},{"Unnamed: 0":32,"title":"al dar restauran","address":"3021 al urubah branch rd - West Umm Al Hamam Dist.","district":"West Umm Al Hamam ","latitude":24.697966611,"longitude":46.639784923,"id":10100003012},{"Unnamed: 0":33,"title":"al bit ad dhahabi restauran","address":"3114 weastern ring branch rd - West Suwaidi Dist.","district":"West Suwaidi ","latitude":24.570794943,"longitude":46.615807115,"id":10100003057},{"Unnamed: 0":34,"title":"al bukhari restauran","address":"7749 wag valley - Al Malqa Dist.","district":"Al Malqa ","latitude":24.8181036482,"longitude":46.6089428922,"id":10100003145},{"Unnamed: 0":35,"title":"al buhayrat restauran","address":"6804 al umraniyah - Al Shumaisi Dist.","district":"Al Shumaisi ","latitude":24.619920805,"longitude":46.698673415,"id":10100003113},{"Unnamed: 0":36,"title":"al burj restauran","address":"4896 al imam turki ibn abdullah ibn muhammad - Umm Saleem Dist.","district":"Umm Saleem ","latitude":24.631043314,"longitude":46.703665938,"id":10100003122},{"Unnamed: 0":37,"title":"al bilad lebanese restauran","address":"7503 prince mashari ibn abdulaziz - Al Sulaimaniyah Dist.","district":"Al Sulaimaniyah ","latitude":24.709826063,"longitude":46.702339176,"id":10100003063},{"Unnamed: 0":38,"title":"al bukhari restauran","address":"2666 ubhur - Al Malqa Dist.","district":"Al Malqa ","latitude":24.817948713,"longitude":46.6026102634,"id":10100003145},{"Unnamed: 0":39,"title":"al dhawaq restauran","address":"2620 al uraija - Al Uraija Dist.","district":"Al Uraija ","latitude":24.626957623,"longitude":46.663368381,"id":10100003127},{"Unnamed: 0":40,"title":"al diwan broast restauran","address":"4645 Asad Bin Abdullah - West Oraija Dist.","district":"West Oraija ","latitude":24.597876394,"longitude":46.587247843,"id":10100003126},{"Unnamed: 0":41,"title":"al diyafah restauran","address":"2783 al itidal - Badr Dist.","district":"Badr ","latitude":24.52374546,"longitude":46.71188552,"id":10100003164},{"Unnamed: 0":42,"title":"al hada golden restauran","address":"6751 Hamzah Bin Abdulmuttaleb - Middle Oraija Dist.","district":"Middle Oraija ","latitude":24.59545881,"longitude":46.61965366,"id":10100003128},{"Unnamed: 0":43,"title":"al dirwazah park and restauran","address":"2553 ath thumamah rd - Al Munisiyah Dist.","district":"Al Munisiyah ","latitude":24.847984025,"longitude":46.765687976,"id":10100003140},{"Unnamed: 0":44,"title":"al diyafah restauran","address":"2711 al imam abi hanifah - Middle Oraija Dist.","district":"Middle Oraija ","latitude":24.605345889,"longitude":46.622087161,"id":10100003128},{"Unnamed: 0":45,"title":"al ghadir chicken restauran","address":"7537 suraqat al bariqi - West Oraija Dist.","district":"West Oraija ","latitude":24.590615329,"longitude":46.605593359,"id":10100003126},{"Unnamed: 0":46,"title":"al diwan restauran","address":"6963 Hamzah Bin Abdulmuttaleb - Al Zahrah Dist.","district":"Al Zahrah ","latitude":24.569911169,"longitude":46.638360972,"id":10100003067},{"Unnamed: 0":47,"title":"al diyaffah restauran","address":"4950 Khadeejah Bint Khuwaylid - West Oraija Dist.","district":"West Oraija ","latitude":24.588523371,"longitude":46.590179679,"id":10100003126},{"Unnamed: 0":48,"title":"al diwan restauran","address":"3903 Al Qaqaa Bin Amr - West Oraija Dist.","district":"West Oraija ","latitude":24.603271844,"longitude":46.601824993,"id":10100003126},{"Unnamed: 0":49,"title":"al fardos restauran","address":"2349 abi bakr ar razi - Al Sulaimaniyah Dist.","district":"Al Sulaimaniyah ","latitude":24.692405214,"longitude":46.702384976,"id":10100003063},{"Unnamed: 0":50,"title":"al hawsawi restauran","address":"7715 al ajaliyah - Al Shumaisi Dist.","district":"Al Shumaisi ","latitude":24.628199382,"longitude":46.696714323,"id":10100003113},{"Unnamed: 0":51,"title":"al jazeerah al lubnanya restaurants","address":"4616 al madinah al munawarah - Dhahrat Al Badeah Dist.","district":"hahrat Al Badeah ","latitude":24.599155085,"longitude":46.640784645,"id":10100003091},{"Unnamed: 0":52,"title":"\"al hana' restaurant\"","address":"7561 abdullah ibn az zubairq - West Oraija Dist.","district":"West Oraija ","latitude":24.605209252,"longitude":46.604376863,"id":10100003126},{"Unnamed: 0":53,"title":"al jawharah markets restauran","address":"4452 al walidiyyah - West Oraija Dist.","district":"West Oraija ","latitude":24.590282287,"longitude":46.585475151,"id":10100003126},{"Unnamed: 0":54,"title":"al hadaib restauran","address":"3168 samahat ash shaikh muhammed ibn salih al uthaymen - West Umm Al Hamam Dist.","district":"West Umm Al Hamam ","latitude":24.685609906,"longitude":46.641034762,"id":10100003012},{"Unnamed: 0":55,"title":"al jandul restauran","address":"7038 sultanah - Sultanah Dist.","district":"Sultanah ","latitude":24.60635809,"longitude":46.691019738,"id":10100003069},{"Unnamed: 0":56,"title":"al jazeerah restauran","address":"6513 Hamzah Bin Abdulmuttaleb - Middle Oraija Dist.","district":"Middle Oraija ","latitude":24.593318619,"longitude":46.621175634,"id":10100003128},{"Unnamed: 0":57,"title":"al hadoog restauran","address":"7527 Unayzah - Al Rawabi Dist.","district":"Al Rawabi ","latitude":24.6931670725,"longitude":46.7856096035,"id":10100003089},{"Unnamed: 0":58,"title":"al janoub restauran","address":"\"7463 Ibn Al Muqafa' - West Oraija Dist.\"","district":"West Oraija ","latitude":24.58989326,"longitude":46.609483028,"id":10100003126},{"Unnamed: 0":59,"title":"al kabli restauran","address":"4414 al imam muhammad ibn saud ibn muqrin - Al Shumaisi Dist.","district":"Al Shumaisi ","latitude":24.628265299,"longitude":46.699170321,"id":10100003113},{"Unnamed: 0":60,"title":"al karawan bukhari restauran","address":"7433 Ayshah Bin Abi Bakr - Middle Oraija Dist.","district":"Middle Oraija ","latitude":24.613562426,"longitude":46.634574217,"id":10100003128},{"Unnamed: 0":61,"title":"al khair restauran","address":"4292 al imam abi hanifah - Middle Oraija Dist.","district":"Middle Oraija ","latitude":24.607571916,"longitude":46.624815825,"id":10100003128},{"Unnamed: 0":62,"title":"al kalaha restauran","address":"7493  Abdullah Bin Rawaha - Al Sulaimaniyah Dist.","district":"Al Sulaimaniyah ","latitude":24.709782016,"longitude":46.698413897,"id":10100003063},{"Unnamed: 0":63,"title":"al khaimah restauran","address":"2747 al amir nawaf ibn abdul aziz - West Umm Al Hamam Dist.","district":"West Umm Al Hamam ","latitude":24.686464809,"longitude":46.636868504,"id":10100003012},{"Unnamed: 0":64,"title":"al louluah restauran","address":"4197 Ibn Hazm - West Oraija Dist.","district":"West Oraija ","latitude":24.594263878,"longitude":46.582782623,"id":10100003126},{"Unnamed: 0":65,"title":"al karam al arabi restauran","address":"6047 Hamzah Bin Abdulmuttaleb - Middle Oraija Dist.","district":"Middle Oraija ","latitude":24.601636737,"longitude":46.615118544,"id":10100003128},{"Unnamed: 0":66,"title":"al khair restauran","address":"5483 al ris - Al Shumaisi Dist.","district":"Al Shumaisi ","latitude":24.621833024,"longitude":46.704741571,"id":10100003113},{"Unnamed: 0":67,"title":"al kahf restauran","address":"7917 at tamr - Al Shumaisi Dist.","district":"Al Shumaisi ","latitude":24.630043201,"longitude":46.69810951,"id":10100003113},{"Unnamed: 0":68,"title":"al karawan restauran","address":"2493 as suwaidi al am - Al Suwaidi Dist.","district":"Al Suwaidi ","latitude":24.583979307,"longitude":46.662797191,"id":10100003018},{"Unnamed: 0":69,"title":"al khair restauran","address":"3465 al amir musaid ibn abdul rahman ibn faisal rd - Middle Oraija Dist.","district":"Middle Oraija ","latitude":24.602180377,"longitude":46.629464694,"id":10100003128},{"Unnamed: 0":70,"title":"al maida al bukhari restaurants","address":"4114 al imam abi hanifah - Middle Oraija Dist.","district":"Middle Oraija ","latitude":24.606330013,"longitude":46.622760152,"id":10100003128},{"Unnamed: 0":71,"title":"al mas restauran","address":"7876 al hawwari - Al Malaz Dist.","district":"Al Malaz ","latitude":24.6778402477,"longitude":46.7277701337,"id":10100003051},{"Unnamed: 0":72,"title":"al madarib restauran","address":"8495 abdullah ibn nafi - Al Sulaimaniyah Dist.","district":"Al Sulaimaniyah ","latitude":24.705842957,"longitude":46.707191317,"id":10100003063},{"Unnamed: 0":73,"title":"al manjaf restauran","address":"4598 al urubah rd - Al Raed Dist.","district":"Al Raed ","latitude":24.702559054,"longitude":46.648750513,"id":10100003125},{"Unnamed: 0":74,"title":"\"al ma'wiyyah restaurant\"","address":"4814 al madhar - Al Sharafiyah Dist.","district":"Al Sharafiyah ","latitude":24.651319722,"longitude":46.670735621,"id":10100003009},{"Unnamed: 0":75,"title":"al madinah restauran","address":"5512 asir - Al Shumaisi Dist.","district":"Al Shumaisi ","latitude":24.617665312,"longitude":46.704916025,"id":10100003113},{"Unnamed: 0":76,"title":"al marzooqi restauran","address":"7602 Al Atayif - Al Dirah Dist.","district":"Al Dirah ","latitude":24.637261104,"longitude":46.70694037,"id":10100003007},{"Unnamed: 0":77,"title":"\"al maa'zeem restaurant\"","address":"6811 al thahabi - Tuwaiq Dist.","district":"Tuwaiq ","latitude":24.58037461,"longitude":46.547036562,"id":10100003102},{"Unnamed: 0":78,"title":"al mamlakah restauran","address":"2734 prince nawaf ibn abdulaziz - West Umm Al Hamam Dist.","district":"West Umm Al Hamam ","latitude":24.687093368,"longitude":46.636935812,"id":10100003012},{"Unnamed: 0":79,"title":"\"al ma'wiyyah restaurant\"","address":"4112 al madinah al munawarah - Middle Oraija Dist.","district":"Middle Oraija ","latitude":24.604140799,"longitude":46.649138672,"id":10100003128},{"Unnamed: 0":80,"title":"al nadi mandi restauran","address":"6797 qarn al manazil - Middle Oraija Dist.","district":"Middle Oraija ","latitude":24.608222053,"longitude":46.625640723,"id":10100003128},{"Unnamed: 0":81,"title":"al nafoura restaurant sitten","address":"8640 salah ad din al ayyubi rd - Al Dhubbat Dist.","district":"Al Dhubbat ","latitude":24.6884102049,"longitude":46.7238846111,"id":10100003056},{"Unnamed: 0":82,"title":"al mumtaz restauran","address":"2439 wadi al qatarah - Middle Oraija Dist.","district":"Middle Oraija ","latitude":24.596819848,"longitude":46.619226,"id":10100003128},{"Unnamed: 0":83,"title":"Al Nafoura Restaurant Khozama","address":"6399 ash shaikh jabir al ahmad as sabbah - Al Rimal Dist.","district":"Al Rimal ","latitude":24.8258937406,"longitude":46.7973438919,"id":10100003153},{"Unnamed: 0":84,"title":"\"al mis'ari restaurant\"","address":"5180 asir - Al Shumaisi Dist.","district":"Al Shumaisi ","latitude":24.61807335,"longitude":46.701705425,"id":10100003113},{"Unnamed: 0":85,"title":"al nadi mandi restauran","address":"3399 AL Khaleel Bin Ahmad - Al Marwah Dist.","district":"Al Marwah ","latitude":24.549432181,"longitude":46.684217448,"id":10100003064},{"Unnamed: 0":86,"title":"al nafurah restauran","address":"3767 king faisal - Al Murabba Dist.","district":"Al Murabba ","latitude":24.657296622,"longitude":46.706065758,"id":10100003021},{"Unnamed: 0":87,"title":"al muhaidi restauran","address":"8051 al ajaliyah - Umm Saleem Dist.","district":"Umm Saleem ","latitude":24.631195871,"longitude":46.698241576,"id":10100003122},{"Unnamed: 0":88,"title":"al nafoura restauran","address":"2982 ibn sina - Al Maseef Dist.","district":"Al Maseef ","latitude":24.7634007879,"longitude":46.6780447721,"id":10100003084},{"Unnamed: 0":89,"title":"\"al na'im restaurant\"","address":"7536 Al Atayif - Al Dirah Dist.","district":"Al Dirah ","latitude":24.636679878,"longitude":46.707017283,"id":10100003007},{"Unnamed: 0":90,"title":"al olaya chinese restauran","address":"7816 abdullah ibn sulaiman al hamadan - Al Olaya Dist.","district":"Al Olaya ","latitude":24.696511691,"longitude":46.694221048,"id":10100003075},{"Unnamed: 0":91,"title":"al rawdah bukhari restauran","address":"4621 as sibalah - Al Shumaisi Dist.","district":"Al Shumaisi ","latitude":24.624624594,"longitude":46.700864307,"id":10100003113},{"Unnamed: 0":92,"title":"al nawazer pancake restauran","address":"7956 abdullah ibn az zubairq - West Oraija Dist.","district":"West Oraija ","latitude":24.608728373,"longitude":46.60625832,"id":10100003126},{"Unnamed: 0":93,"title":"al raheeb restauran","address":"4292 al amir musaid ibn abdul rahman ibn faisal rd - West Oraija Dist.","district":"West Oraija ","latitude":24.595601245,"longitude":46.617638845,"id":10100003126},{"Unnamed: 0":94,"title":"al nakhil restauran","address":"4642 al imam muhammad ibn saud ibn muqrin - Al Shumaisi Dist.","district":"Al Shumaisi ","latitude":24.628536885,"longitude":46.701089818,"id":10100003113},{"Unnamed: 0":95,"title":"al rafedayn restauran","address":"7885 at takhassusi - Al Rahmaniyah Dist.","district":"Al Rahmaniyah ","latitude":24.7216945276,"longitude":46.6565163936,"id":10100003013},{"Unnamed: 0":96,"title":"al reef mandi restauran","address":"6749 asir - Al Shumaisi Dist.","district":"Al Shumaisi ","latitude":24.619369136,"longitude":46.69882319,"id":10100003113},{"Unnamed: 0":97,"title":"al najd restauran","address":"8452 Helal Bin Razeen - Al Wahah Dist.","district":"Al Wahah ","latitude":24.7426289086,"longitude":46.7045996521,"id":10100003042},{"Unnamed: 0":98,"title":"al qalzam restauran","address":"8255 at takhassusi - Al Olaya Dist.","district":"Al Olaya ","latitude":24.7079857476,"longitude":46.6643064658,"id":10100003075},{"Unnamed: 0":99,"title":"al rawdah fish restauran","address":"6583 at takhassusi - Al Olaya Dist.","district":"Al Olaya ","latitude":24.69297569,"longitude":46.671664508,"id":10100003075},{"Unnamed: 0":100,"title":"al romansiah restauran","address":"6854 mohammed rasheed rda - Al Aziziyah Dist.","district":"Al Aziziyah ","latitude":24.5690695821,"longitude":46.7710350891,"id":10100003029},{"Unnamed: 0":101,"title":"al rukn bukhari restauran","address":"3719 king faisal - Al Murabba Dist.","district":"Al Murabba ","latitude":24.657632416,"longitude":46.705497167,"id":10100003021},{"Unnamed: 0":102,"title":"al riadh flowers restauran","address":"6200 al amir abdullah ibn abdul rahman ibn faisal - Utayqah Dist.","district":"Utayqah ","latitude":24.606412292,"longitude":46.710433582,"id":10100003020},{"Unnamed: 0":103,"title":"al romansiah restaurants","address":"3143 southern ring rd - Al Aziziyah Dist.","district":"Al Aziziyah ","latitude":24.5999655757,"longitude":46.7487411342,"id":10100003029},{"Unnamed: 0":104,"title":"al safinah restauran","address":"8435 ibn taimiah rd - Badr Dist.","district":"Badr ","latitude":24.550539672,"longitude":46.698625837,"id":10100003164},{"Unnamed: 0":105,"title":"Al Romansiah Restauran","address":"7611 khalid ibn al walid - Al Andalus Dist.","district":"Al Andalus ","latitude":24.7449162614,"longitude":46.776556842,"id":10100003087},{"Unnamed: 0":106,"title":"al sadah local food restauran","address":"6893 Hamzah Bin Abdulmuttaleb - Middle Oraija Dist.","district":"Middle Oraija ","latitude":24.596848405,"longitude":46.618613508,"id":10100003128},{"Unnamed: 0":107,"title":"al rimal entertainment restauran","address":"2925 ath thumamah rd - Al Munisiyah Dist.","district":"Al Munisiyah ","latitude":24.850571007,"longitude":46.769316681,"id":10100003140},{"Unnamed: 0":108,"title":"al roun restauran","address":"7145 al imam abdul aziz ibn muhammad ibn saud - Al Wisham Dist.","district":"Al Wisham ","latitude":24.643928042,"longitude":46.693315786,"id":10100003114},{"Unnamed: 0":109,"title":"\"al sa'id restaurant\"","address":"7767 al ajaliyah - Al Shumaisi Dist.","district":"Al Shumaisi ","latitude":24.628649924,"longitude":46.69694398,"id":10100003113},{"Unnamed: 0":110,"title":"al saraya restauran","address":"7277 Haroun Al Khateeb - Al Wisham Dist.","district":"Al Wisham ","latitude":24.645038474,"longitude":46.699928545,"id":10100003114},{"Unnamed: 0":111,"title":"al shahamah restauran","address":"5297 al faqra - Al Duraihemiyah Dist.","district":"Al Duraihemiyah ","latitude":24.585298969,"longitude":46.690566376,"id":10100003076},{"Unnamed: 0":112,"title":"al saj al dahabi restauran","address":"7199 king fahd branch road - Al Murabba Dist.","district":"Al Murabba ","latitude":24.661014228,"longitude":46.701239534,"id":10100003021},{"Unnamed: 0":113,"title":"al satiah local food restauran","address":"3006 al amir sultan ibn abdul aziz - North Mathar Dist.","district":"North Mathar ","latitude":24.68400212,"longitude":46.673273478,"id":10100003011},{"Unnamed: 0":114,"title":"al shahamah restauran","address":"3703 Belal Bin Rabah - West Oraija Dist.","district":"West Oraija ","latitude":24.581732178,"longitude":46.592588816,"id":10100003126},{"Unnamed: 0":115,"title":"al saj restauran","address":"5096 al jawharah bint ibn muammar - Al Sharafiyah Dist.","district":"Al Sharafiyah ","latitude":24.656818153,"longitude":46.673542665,"id":10100003009},{"Unnamed: 0":116,"title":"al sayyadiyyah sea food restauran","address":"3751 al madinah al munawarah - West Suwaidi Dist.","district":"West Suwaidi ","latitude":24.586997383,"longitude":46.622167513,"id":10100003057},{"Unnamed: 0":117,"title":"al shaikh restauran","address":"7056 umm al hamam - West Umm Al Hamam Dist.","district":"West Umm Al Hamam ","latitude":24.684073298,"longitude":46.652467229,"id":10100003012},{"Unnamed: 0":118,"title":"al sallah al dhahabiyah restauran","address":"7946 al khalifah al mamun - Badr Dist.","district":"Badr ","latitude":24.545613408,"longitude":46.706522074,"id":10100003164},{"Unnamed: 0":119,"title":"al shabab bukhari restauran","address":"6792 al muthallath - West Oraija Dist.","district":"West Oraija ","latitude":24.591056655,"longitude":46.58286988,"id":10100003126},{"Unnamed: 0":120,"title":"al shallal al souri restauran","address":"6716 al amir abdullah ibn abdul rahman ibn faisal - Utayqah Dist.","district":"Utayqah ","latitude":24.611103364,"longitude":46.710275984,"id":10100003020},{"Unnamed: 0":121,"title":"\"al shira' restaurant\"","address":"4714 al madinah al munawarah - Dhahrat Al Badeah Dist.","district":"hahrat Al Badeah ","latitude":24.599728202,"longitude":46.64182822,"id":10100003091},{"Unnamed: 0":122,"title":"al suraya turkish restauran","address":"3159 al amir sultan ibn abdul aziz - Al Olaya Dist.","district":"Al Olaya ","latitude":24.69268343,"longitude":46.695268064,"id":10100003075},{"Unnamed: 0":123,"title":"\"al shira' restaurant\"","address":"6510 al khuzim - Sultanah Dist.","district":"Sultanah ","latitude":24.601381451,"longitude":46.696935065,"id":10100003069},{"Unnamed: 0":124,"title":"al sultan restauran","address":"3021 al urubah branch rd - West Umm Al Hamam Dist.","district":"West Umm Al Hamam ","latitude":24.697903405,"longitude":46.639602014,"id":10100003012},{"Unnamed: 0":125,"title":"al sham food restauran","address":"4726 al jawharah bint ibn muammar - Al Sharafiyah Dist.","district":"Al Sharafiyah ","latitude":24.654480361,"longitude":46.669849494,"id":10100003009},{"Unnamed: 0":126,"title":"\"al shira' restaurant\"","address":"7229 ibn taimiah rd - Badr Dist.","district":"Badr ","latitude":24.554090772,"longitude":46.701550989,"id":10100003164},{"Unnamed: 0":127,"title":"al taif restauran","address":"3095 al imam abi hanifah - West Oraija Dist.","district":"West Oraija ","latitude":24.595304645,"longitude":46.605844147,"id":10100003126},{"Unnamed: 0":128,"title":"al shira restauran","address":"4152 dirab branch rd - Namar Dist.","district":"Namar ","latitude":24.573318095,"longitude":46.692947656,"id":10100003060},{"Unnamed: 0":129,"title":"al sifarat restauran","address":"2934 Belal Bin Rabah - Tuwaiq Dist.","district":"Tuwaiq ","latitude":24.581010962,"longitude":46.538858232,"id":10100003102},{"Unnamed: 0":130,"title":"al tawoos restauran","address":"3547 Amr Bin Al As - Olaishah Dist.","district":"Olaishah ","latitude":24.640569928,"longitude":46.691365535,"id":10100003053},{"Unnamed: 0":131,"title":"al tazaj restauran","address":"2596 al amir turki ibn abdul aziz ath thani - Al Muruj Dist.","district":"Al Muruj ","latitude":24.7561270014,"longitude":46.6563943444,"id":10100003110},{"Unnamed: 0":132,"title":"al tayban bukhari restauran","address":"4166 al amir musaid ibn abdul rahman ibn faisal rd - Middle Oraija Dist.","district":"Middle Oraija ","latitude":24.60706884,"longitude":46.636499689,"id":10100003128},{"Unnamed: 0":133,"title":"al tazaj restauran","address":"7517 at takhassusi - Al Olaya Dist.","district":"Al Olaya ","latitude":24.688547442,"longitude":46.674159608,"id":10100003075},{"Unnamed: 0":134,"title":"al tanahat restauran","address":"3797 al budhuri - Shubra Dist.","district":"Shubra ","latitude":24.575164285,"longitude":46.675548903,"id":10100003066},{"Unnamed: 0":135,"title":"al tayyibat restauran","address":"2573 dirab branch rd - Al Shifa Dist.","district":"Al Shifa ","latitude":24.557042971,"longitude":46.676116255,"id":10100003061},{"Unnamed: 0":136,"title":"al waleemah restauran","address":"7411 ibrahim as salamuni - West Oraija Dist.","district":"West Oraija ","latitude":24.589463782,"longitude":46.608732602,"id":10100003126},{"Unnamed: 0":137,"title":"\"al taj al ma'wi restaurant\"","address":"3829 al amir musaid ibn abdul rahman ibn faisal rd - Middle Oraija Dist.","district":"Middle Oraija ","latitude":24.604358491,"longitude":46.633086455,"id":10100003128},{"Unnamed: 0":138,"title":"al tayf restauran","address":"8586 Al Maeer Sattam Bin Abdulaziz - Al Rafeah Dist.","district":"Al Rafeah ","latitude":24.648624386,"longitude":46.670313558,"id":10100003015},{"Unnamed: 0":139,"title":"al tazaj restauran","address":"8079 Mosab Bin Abdullah - Dhahrat Al Badeah Dist.","district":"hahrat Al Badeah ","latitude":24.600261187,"longitude":46.644426077,"id":10100003091},{"Unnamed: 0":140,"title":"al zalal restauran","address":"2654 ibn sina - Al Maseef Dist.","district":"Al Maseef ","latitude":24.7619850086,"longitude":46.6748146538,"id":10100003084},{"Unnamed: 0":141,"title":"aladhirah restaurants","address":"2315 king abdullah ibn abdul aziz rd - King Faisal Dist.","district":"King Faisal ","latitude":24.7686299834,"longitude":46.7623826376,"id":10100003027},{"Unnamed: 0":142,"title":"al yamamah restauran","address":"6467 al amir abdullah ibn abdul rahman ibn faisal - Al Yamamah Dist.","district":"Al Yamamah ","latitude":24.589312151,"longitude":46.711797625,"id":10100003070},{"Unnamed: 0":143,"title":"al zalal restauran","address":"7617 khalid ibn al walid - Ghirnatah Dist.","district":"Ghirnatah ","latitude":24.7984438327,"longitude":46.7415023279,"id":10100003155},{"Unnamed: 0":145,"title":"al yasmin restauran","address":"8126 al fajr - West Suwaidi Dist.","district":"West Suwaidi ","latitude":24.579911369,"longitude":46.616227936,"id":10100003057},{"Unnamed: 0":146,"title":"al zalal restaurant for pakistani and indian","address":"2566 ibn sina - Al Maseef Dist.","district":"Al Maseef ","latitude":24.7616280894,"longitude":46.6740026627,"id":10100003084},{"Unnamed: 0":147,"title":"مطعم العميد","address":"3465 ad dammam branch rd - Al Shohda Dist.","district":"Al Shohda ","latitude":24.7981232654,"longitude":46.7368324468,"id":10100003016},{"Unnamed: 0":148,"title":"al zalal restauran","address":"7811 al imam ali ibn abi talib  rd - Jareer Dist.","district":"Jareer ","latitude":24.6770193284,"longitude":46.7439898667,"id":10100003048},{"Unnamed: 0":149,"title":"alafandi restauran","address":"3542 al balqa - Al Munisiyah Dist.","district":"Al Munisiyah ","latitude":24.827810622,"longitude":46.7825537553,"id":10100003140},{"Unnamed: 0":150,"title":"مطعم بخاري","address":"7569 abi bakr as siddiq - Al Narjis Dist.","district":"Al Narjis ","latitude":24.8559862249,"longitude":46.6472572776,"id":10100003150},{"Unnamed: 0":151,"title":"aleanzi albakhari restauran","address":"7318  - Al Arid Dist.","district":"Al Arid ","latitude":24.8954493996,"longitude":46.6264264949,"id":10100003148},{"Unnamed: 0":152,"title":"aldersona restauran","address":"4132 al imam abdullah ibn saud ibn abdul aziz branch rd - Al Yarmuk Dist.","district":"Al Yarmuk ","latitude":24.7970133592,"longitude":46.7791023475,"id":10100003139},{"Unnamed: 0":153,"title":"aleiwad albkhary restauran","address":"7960 King Abdulaziz - Al Arid Dist.","district":"Al Arid ","latitude":24.8766890442,"longitude":46.614018085,"id":10100003148},{"Unnamed: 0":154,"title":"albayt albaladi restauran","address":"5784 anas ibn malik - Al Malqa Dist.","district":"Al Malqa ","latitude":24.8020586787,"longitude":46.6021291127,"id":10100003145},{"Unnamed: 0":155,"title":"aldhef almqsoos restauran","address":"3125 al imam abdullah ibn saud ibn abdul aziz branch rd - Al Hamra Dist.","district":"Al Hamra ","latitude":24.787975394,"longitude":46.7597289001,"id":10100003129},{"Unnamed: 0":156,"title":"alfarran restauran","address":"8666 an najah - Ishbiliyah Dist.","district":"Ishbiliyah ","latitude":24.8054144013,"longitude":46.8023514186,"id":10100003137},{"Unnamed: 0":157,"title":"alasaalah  restauran","address":"7458 an najah - Al Yarmuk Dist.","district":"Al Yarmuk ","latitude":24.8118373593,"longitude":46.7989582429,"id":10100003139},{"Unnamed: 0":158,"title":"aldhaghet restauran","address":"4418 al imam saud ibn abdul aziz rd - Al Ezdihar Dist.","district":"Al Ezdihar ","latitude":24.7756706459,"longitude":46.7283369487,"id":10100003086},{"Unnamed: 0":159,"title":"al-hayat restauran","address":"6853 Al Imam Al Shafie - Al Manar Dist.","district":"Al Manar ","latitude":24.7202926118,"longitude":46.7895352309,"id":10100003079},{"Unnamed: 0":160,"title":"الجود البخاري","address":"6871 abi bakr as siddiq - Al Narjis Dist.","district":"Al Narjis ","latitude":24.8672999779,"longitude":46.6415671989,"id":10100003150},{"Unnamed: 0":161,"title":"all bahsaly palace restauran","address":"2986 king abdullah ibn abdulaziz branch rd - King Fahd Dist.","district":"King Fahd ","latitude":24.7300324864,"longitude":46.6681065349,"id":10100003017},{"Unnamed: 0":162,"title":"alfatirah almomyizah  fast-food restauran","address":"2619 prince saud ibn abdulaziz al saud al kabir - Al Quds Dist.","district":"Al Quds ","latitude":24.753444174,"longitude":46.7449007158,"id":10100003081},{"Unnamed: 0":163,"title":"aljazirah and nile restauran","address":"2940 abi said al khadri - Al Khaleej Dist.","district":"Al Khaleej ","latitude":24.7649041112,"longitude":46.7856323523,"id":10100003055},{"Unnamed: 0":164,"title":"alkindy restaurants","address":"6549 khalid ibn al walid - King Faisal Dist.","district":"King Faisal ","latitude":24.7519969833,"longitude":46.7712580551,"id":10100003027},{"Unnamed: 0":165,"title":"aljami restauran","address":"8391 Al Matar - King Khalid International Airport","district":"King Khalid International Airpo","latitude":24.8471836597,"longitude":46.7340568353,"id":10100003149},{"Unnamed: 0":166,"title":"alkhimat alshshaebia restauran","address":"4668  - Al Arid Dist.","district":"Al Arid ","latitude":24.8932871824,"longitude":46.6047627904,"id":10100003148},{"Unnamed: 0":167,"title":"aljahez restauran","address":"3852 al imam abdullah ibn saud ibn abdul aziz rd - Al Qadisiyah Dist.","district":"Al Qadisiyah ","latitude":24.810972048,"longitude":46.8120700236,"id":10100003073},{"Unnamed: 0":168,"title":"alkabsa alhassawoah restauran","address":"4442 al amir bandar ibn abdul aziz - Al Khaleej Dist.","district":"Al Khaleej ","latitude":24.7635014889,"longitude":46.8004614976,"id":10100003055},{"Unnamed: 0":169,"title":"alliwan restauran","address":"8391 Al Matar - King Khalid International Airport","district":"King Khalid International Airpo","latitude":24.8473829396,"longitude":46.7343661653,"id":10100003149},{"Unnamed: 0":170,"title":"alnafoura restauran","address":"7892 al amir matab ibn abdul aziz - Al Rabwah Dist.","district":"Al Rabwah ","latitude":24.6900733067,"longitude":46.7642758054,"id":10100003047},{"Unnamed: 0":171,"title":"alottomaniyah restauran","address":"8304 as sahabah - Ishbiliyah Dist.","district":"Ishbiliyah ","latitude":24.7971196022,"longitude":46.7847871178,"id":10100003137},{"Unnamed: 0":172,"title":"المجلس التهامي","address":"3740 ad dammam branch rd - Qurtubah Dist.","district":"Qurtubah ","latitude":24.8043996833,"longitude":46.749012858,"id":10100003101},{"Unnamed: 0":173,"title":"alnafoura restauran","address":"2161 al imam abdullah ibn saud ibn abdulaziz rd - Ishbiliyah Dist.","district":"Ishbiliyah ","latitude":24.7989969969,"longitude":46.7857029724,"id":10100003137},{"Unnamed: 0":174,"title":"المجلس الخليجي","address":"4470 al imam abdullah ibn saud ibn abdulaziz rd - Al Shohda Dist.","district":"Al Shohda ","latitude":24.7835173548,"longitude":46.7465387546,"id":10100003016},{"Unnamed: 0":175,"title":"almadinah bukhari restauran","address":"3840 abu ubaydah amir ibn al jarrah - Al Fayha Dist.","district":"Al Fayha ","latitude":24.6719062684,"longitude":46.8140096564,"id":10100003133},{"Unnamed: 0":176,"title":"alnafoura restauran","address":"7811 Saad Bin Abi Waqqas - West Naseem Dist.","district":"West Naseem ","latitude":24.7416647325,"longitude":46.8094237422,"id":10100003167},{"Unnamed: 0":177,"title":"alqahtani restauran","address":"7156 ash shaikh sulaiman bin abdullah bin muhammed - Al Khaleej Dist.","district":"Al Khaleej ","latitude":24.7671341617,"longitude":46.7964018974,"id":10100003055},{"Unnamed: 0":178,"title":"alqurmosh restauran","address":"4340 abdulrahman al ghafaqi rd - Al Quds Dist.","district":"Al Quds ","latitude":24.7484376394,"longitude":46.7618173729,"id":10100003081},{"Unnamed: 0":179,"title":"alsadda restauran","address":"4561 ibn abi al uyun - Al Quds Dist.","district":"Al Quds ","latitude":24.7604571379,"longitude":46.76418906,"id":10100003081},{"Unnamed: 0":180,"title":"alwajba restauran","address":"3481 abi said al khadri - Al Khaleej Dist.","district":"Al Khaleej ","latitude":24.7676352546,"longitude":46.7908944927,"id":10100003055},{"Unnamed: 0":181,"title":"alqimmat mtluth restauran","address":"4412 Prince Mohammed Ibn Salman Ibn Abdulaziz Rd - Al Aqeeq Dist.","district":"Al Aqeeq ","latitude":24.7768277123,"longitude":46.63642979,"id":10100003107},{"Unnamed: 0":182,"title":"alromansiyah restaurants","address":"6912 Saad Bin Abi Waqqas - West Naseem Dist.","district":"West Naseem ","latitude":24.7334974705,"longitude":46.8147585889,"id":10100003167},{"Unnamed: 0":183,"title":"alwaan alsham restauran","address":"6357 an najah - Al Yarmuk Dist.","district":"Al Yarmuk ","latitude":24.8095701296,"longitude":46.801015515,"id":10100003139},{"Unnamed: 0":184,"title":"alromansiah restauran","address":"3809 prince saad ibn abdulrahman al awal rd - Al Jazeerah Dist.","district":"Al Jazeerah ","latitude":24.6853518856,"longitude":46.7955876498,"id":10100003035},{"Unnamed: 0":185,"title":" الشباب الخمسة","address":"3029 no. 17 - Al Shohda Dist.","district":"Al Shohda ","latitude":24.7957896086,"longitude":46.7325737646,"id":10100003016},{"Unnamed: 0":186,"title":"Alromansiah restaurants","address":"2537 ad dammam branch rd - Al Yarmuk Dist.","district":"Al Yarmuk ","latitude":24.8168174129,"longitude":46.7812445485,"id":10100003139},{"Unnamed: 0":187,"title":"altazaj restauran","address":"8150 abi bakr as siddiq - Al Nafel Dist.","district":"Al Nafel ","latitude":24.7886298751,"longitude":46.680233081,"id":10100003083},{"Unnamed: 0":188,"title":"appetite banquet restauran","address":"3168 abi bakr ar razi - Al Sulaimaniyah Dist.","district":"Al Sulaimaniyah ","latitude":24.691044108,"longitude":46.710480956,"id":10100003063},{"Unnamed: 0":189,"title":"ar rukn ash shami restauran","address":"4715 al imam faisal ibn turki ibn abdullah - Umm Saleem Dist.","district":"Umm Saleem ","latitude":24.637370654,"longitude":46.701960452,"id":10100003122},{"Unnamed: 0":190,"title":"anarkali restauran","address":"7084 sawmatarah - Al Muruj Dist.","district":"Al Muruj ","latitude":24.7557783227,"longitude":46.6576185026,"id":10100003110},{"Unnamed: 0":191,"title":"ar rukn al maksiki restauran","address":"6641 abdullah ibn sulaiman al hamadan - Al Sulaimaniyah Dist.","district":"Al Sulaimaniyah ","latitude":24.702170943,"longitude":46.692150094,"id":10100003063},{"Unnamed: 0":192,"title":"amwaj restauran","address":"3698 al madinah al munawarah - Middle Oraija Dist.","district":"Middle Oraija ","latitude":24.601618139,"longitude":46.644977907,"id":10100003128},{"Unnamed: 0":193,"title":"ar romansiah restauran","address":"6063 Al Tirmidhi - Al Shifa Dist.","district":"Al Shifa ","latitude":24.562186272,"longitude":46.707031055,"id":10100003061},{"Unnamed: 0":194,"title":"aras bukhari restauran","address":"4293 muhammad al maqdimi - Al Ghadeer Dist.","district":"Al Ghadeer ","latitude":24.7774454063,"longitude":46.6612566968,"id":10100003109},{"Unnamed: 0":195,"title":"amo shawarma restauran","address":"7742 Saad Bin Abi Waqqas - West Naseem Dist.","district":"West Naseem ","latitude":24.7410056218,"longitude":46.8091001355,"id":10100003167},{"Unnamed: 0":196,"title":"ar rayan restaurants","address":"7526  Abdullah Bin Rawaha - Al Sulaimaniyah Dist.","district":"Al Sulaimaniyah ","latitude":24.710054967,"longitude":46.697615527,"id":10100003063},{"Unnamed: 0":197,"title":"ARABIC FOOD RESTAURAN","address":"3099 al imam ahmad ibn hanbal - Al Salam Dist.","district":"Al Salam ","latitude":24.7188472481,"longitude":46.8057971521,"id":10100003078},{"Unnamed: 0":198,"title":"ard al fateerah restauran","address":"4726 al jawharah bint ibn muammar - Al Sharafiyah Dist.","district":"Al Sharafiyah ","latitude":24.65461042,"longitude":46.669979208,"id":10100003009},{"Unnamed: 0":199,"title":"arslan bukhari restauran","address":"8035 al ajaliyah - Umm Saleem Dist.","district":"Umm Saleem ","latitude":24.631083168,"longitude":46.698073098,"id":10100003122},{"Unnamed: 0":200,"title":"asfahan iranian restauran","address":"7479 at takhassusi - Al Olaya Dist.","district":"Al Olaya ","latitude":24.68815785,"longitude":46.674041734,"id":10100003075},{"Unnamed: 0":201,"title":"arrabwah saudi restauran","address":"7655 al amir matab ibn abdul aziz - Al Rabwah Dist.","district":"Al Rabwah ","latitude":24.6877352483,"longitude":46.765800564,"id":10100003047},{"Unnamed: 0":202,"title":"asalat najd restauran","address":"6487 al amir abdullah ibn abdul rahman ibn faisal - Manfuha Al Jadidah Dist.","district":"Manfuha Al Jadidah ","latitude":24.608932766,"longitude":46.710792364,"id":10100003005},{"Unnamed: 0":203,"title":"arrabwah restaurants &kitchens","address":"4247 salah ad din al ayyubi branch rd - Al Safa Dist.","district":"Al Safa ","latitude":24.6768870652,"longitude":46.7706904395,"id":10100003074},{"Unnamed: 0":204,"title":"as soda restaurants","address":"4392 al urubah branch rd - Al Raed Dist.","district":"Al Raed ","latitude":24.70121044,"longitude":46.645623517,"id":10100003125},{"Unnamed: 0":205,"title":"arqah bukhari restauran","address":"5085 jabal al amirine - Irqah","district":"Irqah","latitude":24.689878762,"longitude":46.612989973,"id":10100003142},{"Unnamed: 0":206,"title":"as sayf al hindi restauran","address":"7169 abdullah ibn sulaiman al hamadan - Al Sulaimaniyah Dist.","district":"Al Sulaimaniyah ","latitude":24.706802788,"longitude":46.691122508,"id":10100003063},{"Unnamed: 0":207,"title":"ash shoki restaurants","address":"3926 wadi at tulaiha - Shubra Dist.","district":"Shubra ","latitude":24.564680751,"longitude":46.649061988,"id":10100003066},{"Unnamed: 0":208,"title":"asian food house restauran","address":"7001 asir - Al Shumaisi Dist.","district":"Al Shumaisi ","latitude":24.621729534,"longitude":46.697090962,"id":10100003113},{"Unnamed: 0":209,"title":"aswaf al khaleej restauran","address":"2503 al walid ibn abdul malik - Tuwaiq Dist.","district":"Tuwaiq ","latitude":24.591048879,"longitude":46.566032424,"id":10100003102},{"Unnamed: 0":210,"title":"مطعم سلطان عوض الرويلي","address":"7220 Othman Bin Affan - Al Narjis Dist.","district":"Al Narjis ","latitude":24.8693546663,"longitude":46.6612464161,"id":10100003150},{"Unnamed: 0":211,"title":"assir bukhari restauran","address":"7279 asir - Al Shumaisi Dist.","district":"Al Shumaisi ","latitude":24.624287429,"longitude":46.69518432,"id":10100003113},{"Unnamed: 0":212,"title":"at taj restaurants","address":"7063 abi amamah al ansari - Al Sulaimaniyah Dist.","district":"Al Sulaimaniyah ","latitude":24.705917395,"longitude":46.699114183,"id":10100003063},{"Unnamed: 0":213,"title":"ayaami cafe and restauran","address":"3885 Al Ameer Miqren Bin Abdulaziz - Al Nuzha Dist.","district":"Al Nuzha ","latitude":24.7570696778,"longitude":46.713221048,"id":10100003025},{"Unnamed: 0":214,"title":"assir restauran","address":"4303 al mahdar - Al Shumaisi Dist.","district":"Al Shumaisi ","latitude":24.621184769,"longitude":46.697662694,"id":10100003113},{"Unnamed: 0":215,"title":"aton pasta restauran","address":"3314 prince turki ibn abdulaziz ath thani - Al Muruj Dist.","district":"Al Muruj ","latitude":24.759033751,"longitude":46.6635209094,"id":10100003110},{"Unnamed: 0":216,"title":"assir mandi restauran","address":"3181 Khadeejah Bint Khuwaylid - West Oraija Dist.","district":"West Oraija ","latitude":24.586339193,"longitude":46.587631964,"id":10100003126},{"Unnamed: 0":217,"title":"atheer lebanon restauran","address":"2498 muhammad abdullah al barqi - Al Munisiyah Dist.","district":"Al Munisiyah ","latitude":24.8249713857,"longitude":46.7725097966,"id":10100003140},{"Unnamed: 0":218,"title":"ayon istanbul restauran","address":"7415 balabak - Ghirnatah Dist.","district":"Ghirnatah ","latitude":24.7964419935,"longitude":46.7520308194,"id":10100003155},{"Unnamed: 0":219,"title":"baak restauran","address":"3345 Al Zubair Bin Al Awwam - Al Rawabi Dist.","district":"Al Rawabi ","latitude":24.6916774379,"longitude":46.7866446066,"id":10100003089},{"Unnamed: 0":220,"title":"bait al ma`idah restauran","address":"3124 prince nawaf ibn abdulaziz - West Umm Al Hamam Dist.","district":"West Umm Al Hamam ","latitude":24.687914962,"longitude":46.640623341,"id":10100003012},{"Unnamed: 0":221,"title":"az zumurrud restaurants","address":"3653 prince mamduh ibn abdulaziz - Al Sulaimaniyah Dist.","district":"Al Sulaimaniyah ","latitude":24.709333407,"longitude":46.690878366,"id":10100003063},{"Unnamed: 0":222,"title":"bahrya fish restauran","address":"8528 khalid ibn al walid - Al Quds Dist.","district":"Al Quds ","latitude":24.7627719073,"longitude":46.7624681248,"id":10100003081},{"Unnamed: 0":223,"title":"az zumurrud restauran","address":"4814 al madhar - Al Sharafiyah Dist.","district":"Al Sharafiyah ","latitude":24.651269281,"longitude":46.670649902,"id":10100003009},{"Unnamed: 0":224,"title":"baba najim restauran","address":"4323 al khuzim - Tuwaiq Dist.","district":"Tuwaiq ","latitude":24.5801127,"longitude":46.552632596,"id":10100003102},{"Unnamed: 0":225,"title":"bait al mandi restauran","address":"7025 umm al hamam - East Umm Al Hamam Dist.","district":"East Umm Al Hamam ","latitude":24.683730975,"longitude":46.653254075,"id":10100003008},{"Unnamed: 0":226,"title":"az zumurrud restauran","address":"5308 asir - Al Shumaisi Dist.","district":"Al Shumaisi ","latitude":24.61796425,"longitude":46.702861684,"id":10100003113},{"Unnamed: 0":227,"title":"bable restauran","address":"7845  - Al Shumaisi Dist.","district":"Al Shumaisi ","latitude":24.629214876,"longitude":46.704167375,"id":10100003113},{"Unnamed: 0":228,"title":"bakhari saeid alzzahrani  restauran","address":"3313  - Al Arid Dist.","district":"Al Arid ","latitude":24.8895124176,"longitude":46.623537561,"id":10100003148},{"Unnamed: 0":229,"title":"banquet restauran","address":"3735 Amr Bin Al As - Olaishah Dist.","district":"Olaishah ","latitude":24.640890072,"longitude":46.692320515,"id":10100003053},{"Unnamed: 0":230,"title":"bakliyah restaurants","address":"6995 Hamzah Bin Abdulmuttaleb - Al Zahrah Dist.","district":"Al Zahrah ","latitude":24.570160738,"longitude":46.638237631,"id":10100003067},{"Unnamed: 0":231,"title":"banquet restauran","address":"4111 ibn al kharasani - Middle Oraija Dist.","district":"Middle Oraija ","latitude":24.606586171,"longitude":46.62274897,"id":10100003128},{"Unnamed: 0":232,"title":"bait al mashwi restauran","address":"8012 umm al hamam - West Umm Al Hamam Dist.","district":"West Umm Al Hamam ","latitude":24.692718275,"longitude":46.649870191,"id":10100003012},{"Unnamed: 0":233,"title":"baloch restauran","address":"2837 Al Ameer Miqren Bin Abdulaziz - Al Nuzha Dist.","district":"Al Nuzha ","latitude":24.7532692476,"longitude":46.7027739933,"id":10100003025},{"Unnamed: 0":234,"title":"bawadi ar riyadh restaurants","address":"4392 al urubah branch rd - Al Raed Dist.","district":"Al Raed ","latitude":24.701661978,"longitude":46.646700475,"id":10100003125},{"Unnamed: 0":235,"title":"bait alkhayam restauran","address":"7361 khalid ibn al walid - Ghirnatah Dist.","district":"Ghirnatah ","latitude":24.7959870392,"longitude":46.742861595,"id":10100003155},{"Unnamed: 0":236,"title":"banquet restauran","address":"7165 al ulaya - Al Olaya Dist.","district":"Al Olaya ","latitude":24.690563327,"longitude":46.687071522,"id":10100003075},{"Unnamed: 0":237,"title":"bay bay indian restauran","address":"7343 al qubbah - Ishbiliyah Dist.","district":"Ishbiliyah ","latitude":24.7884211248,"longitude":46.7776238389,"id":10100003137},{"Unnamed: 0":238,"title":"bharath restaurant malaz","address":"7558 al imam ali ibn abi talib  rd - Al Malaz Dist.","district":"Al Malaz ","latitude":24.6746249957,"longitude":46.7445430914,"id":10100003051},{"Unnamed: 0":239,"title":"bikin chinese restauran","address":"3153 al madinah al munawarah - Dhahrat Al Badeah Dist.","district":"hahrat Al Badeah ","latitude":24.595188199,"longitude":46.636043182,"id":10100003091},{"Unnamed: 0":240,"title":"bayt al kibdah restauran","address":"5526 asir - Al Shumaisi Dist.","district":"Al Shumaisi ","latitude":24.617649645,"longitude":46.705058181,"id":10100003113},{"Unnamed: 0":241,"title":"big lebanon restauran","address":"3805 prince mamduh ibn abdulaziz - Al Sulaimaniyah Dist.","district":"Al Sulaimaniyah ","latitude":24.710246172,"longitude":46.693012568,"id":10100003063},{"Unnamed: 0":242,"title":"bilad alyamamah restauran","address":"8370 Al Imam Al Shafie - Al Rayan Dist.","district":"Al Rayan ","latitude":24.7158271963,"longitude":46.7919169523,"id":10100003090},{"Unnamed: 0":243,"title":"bayt ash shawaya restauran","address":"4224 al madinah al munawarah - Middle Oraija Dist.","district":"Middle Oraija ","latitude":24.604956773,"longitude":46.650378053,"id":10100003128},{"Unnamed: 0":244,"title":"bigin chinese restauran","address":"3295 abi al ghanaim ibn al muammar - Al Sulaimaniyah Dist.","district":"Al Sulaimaniyah ","latitude":24.695927012,"longitude":46.711857817,"id":10100003063},{"Unnamed: 0":245,"title":"bistro chino restauran","address":"7782 King Abdulaziz - Al Rabie Dist.","district":"Al Rabie ","latitude":24.7933835452,"longitude":46.6561918554,"id":10100003104},{"Unnamed: 0":246,"title":"beans & falafel restauran","address":"6215 prince muhammad ibn saad ibn abdulazizi - Al Qairawan Dist.","district":"Al Qairawan ","latitude":24.8210225126,"longitude":46.5955980271,"id":10100003146},{"Unnamed: 0":247,"title":"biharat alshwayh restauran","address":"7171 king abdul aziz branch rd - Al Nafel Dist.","district":"Al Nafel ","latitude":24.7808413898,"longitude":46.6633240835,"id":10100003083},{"Unnamed: 0":248,"title":"broasted restauran","address":"7083 ask shaikh hasan ibn hussain ibn ali - Al Yarmuk Dist.","district":"Al Yarmuk ","latitude":24.8010052048,"longitude":46.7618322952,"id":10100003139},{"Unnamed: 0":249,"title":"Bukhari corner restauran","address":"2363 abdulrahman al ghafaqi rd - Al Rawdah Dist.","district":"Al Rawdah ","latitude":24.7420914087,"longitude":46.752457765,"id":10100003088},{"Unnamed: 0":250,"title":"bombay restauran","address":"7951 al imam ali ibn abi talib  rd - Jareer Dist.","district":"Jareer ","latitude":24.6782364123,"longitude":46.7435023536,"id":10100003048},{"Unnamed: 0":251,"title":"bukhara restauran","address":"7936 abi bakr as siddiq - Al Rabie Dist.","district":"Al Rabie ","latitude":24.8036818213,"longitude":46.6726220863,"id":10100003104},{"Unnamed: 0":252,"title":"bukhari restauran","address":"7522  - Al Qairawan Dist.","district":"Al Qairawan ","latitude":24.8227476218,"longitude":46.5938491232,"id":10100003146},{"Unnamed: 0":253,"title":"blue dan restauran","address":"4402 ash shaikh salih ibn abdul aziz ibn abdul rahman - West Suwaidi Dist.","district":"West Suwaidi ","latitude":24.576571213,"longitude":46.628709552,"id":10100003057},{"Unnamed: 0":254,"title":"buffet egyptian cuisine bean and falafel restauran","address":"3523 abi said al khadri - Al Khaleej Dist.","district":"Al Khaleej ","latitude":24.7678993747,"longitude":46.7913827581,"id":10100003055},{"Unnamed: 0":255,"title":"bukhari restauran","address":"8642 ash shaikh hasan ibn hussain ibn ali - King Faisal Dist.","district":"King Faisal ","latitude":24.7708146626,"longitude":46.7802516216,"id":10100003027},{"Unnamed: 0":256,"title":"bright chicken broasted restauran","address":"3241 ibn sina - Al Maseef Dist.","district":"Al Maseef ","latitude":24.763884215,"longitude":46.6806798268,"id":10100003084},{"Unnamed: 0":257,"title":"bukhari al riyadh restauran","address":"7659 abi huraiyrah - East Naseem Dist.","district":"East Naseem ","latitude":24.7279306509,"longitude":46.8447764742,"id":10100003080},{"Unnamed: 0":258,"title":"bukhari restauran","address":"7176 street no. 397 - Al Munisiyah Dist.","district":"Al Munisiyah ","latitude":24.8348040086,"longitude":46.7655822127,"id":10100003140},{"Unnamed: 0":259,"title":"bukhari restauran","address":"3640 prince saud ibn abdulaziz al saud al kabir - Al Quds Dist.","district":"Al Quds ","latitude":24.7584731357,"longitude":46.7550967405,"id":10100003081},{"Unnamed: 0":260,"title":"bukhari restauran","address":"3646 abi said al khadri - King Faisal Dist.","district":"King Faisal ","latitude":24.7586467078,"longitude":46.7755011408,"id":10100003027},{"Unnamed: 0":261,"title":"bukhari restauran","address":"3790 ad dammam branch rd - Qurtubah Dist.","district":"Qurtubah ","latitude":24.8047255394,"longitude":46.7496189261,"id":10100003101},{"Unnamed: 0":262,"title":"bukhari restauran","address":"4010 al amir saud ibn abdul aziz al saud al kabir - Al Quds Dist.","district":"Al Quds ","latitude":24.760096523,"longitude":46.7586893697,"id":10100003081},{"Unnamed: 0":263,"title":"bukhari restauran","address":"6215 ash shaikh hasan ibn hussain ibn ali - Al Munisiyah Dist.","district":"Al Munisiyah ","latitude":24.8261675489,"longitude":46.7491441134,"id":10100003140},{"Unnamed: 0":264,"title":"bukhari restauran","address":"2883 ad dammam rd - Al Yarmuk Dist.","district":"Al Yarmuk ","latitude":24.8107021981,"longitude":46.7666227606,"id":10100003139},{"Unnamed: 0":265,"title":"مطعم بخاري","address":"7970 prince faisal bin bandar bin abdul aziz road - Al Narjis Dist.","district":"Al Narjis ","latitude":24.8519691192,"longitude":46.6803409015,"id":10100003150},{"Unnamed: 0":266,"title":"bukhari restauran","address":"3993 al qalam - Al Rabie Dist.","district":"Al Rabie ","latitude":24.8017425351,"longitude":46.6716736499,"id":10100003104},{"Unnamed: 0":267,"title":"bukhari restauran","address":"9476 prince muhammad ibn saad ibn abdulazizi - Al Malqa Dist.","district":"Al Malqa ","latitude":24.8179572474,"longitude":46.5963076986,"id":10100003145},{"Unnamed: 0":268,"title":"burg al hamam restauran","address":"7237 at takhassusi - Al Mutamarat Dist.","district":"Al Mutamarat ","latitude":24.667775965,"longitude":46.682009593,"id":10100003134},{"Unnamed: 0":269,"title":"bukhari restauran","address":"6672 al qiyas - Al Munisiyah Dist.","district":"Al Munisiyah ","latitude":24.8376487584,"longitude":46.7764985075,"id":10100003140},{"Unnamed: 0":270,"title":"bukhari restauran","address":"8786 prince muhammad ibn saad ibn abdulazizi - Al Malqa Dist.","district":"Al Malqa ","latitude":24.8115450709,"longitude":46.5993225508,"id":10100003145},{"Unnamed: 0":271,"title":"مطعم بخاري","address":"7926 khalid ibn al walid - Al Shohda Dist.","district":"Al Shohda ","latitude":24.7932974888,"longitude":46.743293933,"id":10100003016},{"Unnamed: 0":272,"title":"bukhari restauran","address":"8474 prince muhammad ibn saad ibn abdulazizi - Al Malqa Dist.","district":"Al Malqa ","latitude":24.8088586473,"longitude":46.6009324187,"id":10100003145},{"Unnamed: 0":273,"title":"burger king restauran","address":"2410 al amir sultan ibn abdul aziz - Al Olaya Dist.","district":"Al Olaya ","latitude":24.690158783,"longitude":46.687870618,"id":10100003075},{"Unnamed: 0":274,"title":"charity restauran","address":"3332 al urayja - Al Uraija Dist.","district":"Al Uraija ","latitude":24.62616429,"longitude":46.670422086,"id":10100003127},{"Unnamed: 0":275,"title":"come chinese restauran","address":"3556 no 28 - Al Olaya Dist.","district":"Al Olaya ","latitude":24.687177883,"longitude":46.687079113,"id":10100003075},{"Unnamed: 0":276,"title":"burger king restauran","address":"8427 King Fahd - Al Olaya Dist.","district":"Al Olaya ","latitude":24.700820799,"longitude":46.678420328,"id":10100003075},{"Unnamed: 0":277,"title":"cham zaman restauran","address":"3386 Jareer - Al Malaz Dist.","district":"Al Malaz ","latitude":24.672535472,"longitude":46.7401325225,"id":10100003051},{"Unnamed: 0":278,"title":"coffee land restauran","address":"7945 prince ahmad ibn abdulaziz - Al Woroud Dist.","district":"Al Woroud ","latitude":24.7309480885,"longitude":46.6788558759,"id":10100003026},{"Unnamed: 0":279,"title":"burger king restauran","address":"6987 Ayshah Bin Abi Bakr - Dhahrat Al Badeah Dist.","district":"hahrat Al Badeah ","latitude":24.590312467,"longitude":46.651699371,"id":10100003091},{"Unnamed: 0":280,"title":"cocina restauran","address":"3896 Al Ameer Miqren Bin Abdulaziz - Al Nuzha Dist.","district":"Al Nuzha ","latitude":24.7585826185,"longitude":46.7142403694,"id":10100003025},{"Unnamed: 0":281,"title":"burger king restauran","address":"8028 at takhassusi - North Mathar Dist.","district":"North Mathar ","latitude":24.705522163,"longitude":46.664177051,"id":10100003011},{"Unnamed: 0":282,"title":"cherry restauran","address":"7444 abi bakr as siddiq - Al Yasmeen Dist.","district":"Al Yasmeen ","latitude":24.8319501487,"longitude":46.6584254952,"id":10100003147},{"Unnamed: 0":283,"title":"d.bak restaurants","address":"4619 hail - Al Khaleej Dist.","district":"Al Khaleej ","latitude":24.7650407623,"longitude":46.8018925055,"id":10100003055},{"Unnamed: 0":284,"title":"damascus pancake house restauran","address":"7352 Al Tirmidhi - Al Shifa Dist.","district":"Al Shifa ","latitude":24.563423597,"longitude":46.705351968,"id":10100003061},{"Unnamed: 0":285,"title":"dar alfateera restauran","address":"8296 prince muhammad ibn saad ibn abdulazizi - Al Malqa Dist.","district":"Al Malqa ","latitude":24.8072581713,"longitude":46.6017269894,"id":10100003145},{"Unnamed: 0":286,"title":"country restaurant bukhar","address":"7718 prince muhammad ibn saad ibn abdulazizi - Hitteen Dist.","district":"Hitteen ","latitude":24.7776464166,"longitude":46.6166903908,"id":10100003144},{"Unnamed: 0":287,"title":"damascene glare pie restauran","address":"7520 ash shabab - Al Aziziyah Dist.","district":"Al Aziziyah ","latitude":24.5950776869,"longitude":46.7566297613,"id":10100003029},{"Unnamed: 0":288,"title":"danube silver restaurants","address":"8464 ash shaikh hasan ibn hussain ibn ali - Al Hamra Dist.","district":"Al Hamra ","latitude":24.789848361,"longitude":46.7665316005,"id":10100003129},{"Unnamed: 0":289,"title":"dagen restauran","address":"7767 at takhassusi - Al Olaya Dist.","district":"Al Olaya ","latitude":24.690714221,"longitude":46.672772784,"id":10100003075},{"Unnamed: 0":290,"title":"damascus pancake tower restauran","address":"8303 abdullah al wabil - West Suwaidi Dist.","district":"West Suwaidi ","latitude":24.581170969,"longitude":46.628797515,"id":10100003057},{"Unnamed: 0":291,"title":"dajen restauran","address":"3381 al madinah al munawarah - Dhahrat Al Badeah Dist.","district":"hahrat Al Badeah ","latitude":24.59671731,"longitude":46.638013455,"id":10100003091},{"Unnamed: 0":292,"title":"damascus restauran","address":"7625 Al Atayif - Al Dirah Dist.","district":"Al Dirah ","latitude":24.637499288,"longitude":46.707235003,"id":10100003007},{"Unnamed: 0":293,"title":"deratti restauran","address":"4464 as suwaidi al am - Al Suwaidi Dist.","district":"Al Suwaidi ","latitude":24.587662319,"longitude":46.667935215,"id":10100003018},{"Unnamed: 0":294,"title":"diyar as saudia restauran","address":"6917 salalah - West Oraija Dist.","district":"West Oraija ","latitude":24.580750846,"longitude":46.600899974,"id":10100003126},{"Unnamed: 0":295,"title":"deerati restaurants","address":"4506 as suwaidi al am - Al Suwaidi Dist.","district":"Al Suwaidi ","latitude":24.587922806,"longitude":46.668360199,"id":10100003018},{"Unnamed: 0":296,"title":"dinning sultan restauran","address":"7074 al ulaya - Al Sahafah Dist.","district":"Al Sahafah ","latitude":24.787158083,"longitude":46.6374408203,"id":10100003123},{"Unnamed: 0":297,"title":"dooh cafeteria and restauran","address":"2921 ad dammam rd - Al Janadriyah Dist.","district":"Al Janadriyah ","latitude":24.9103060357,"longitude":46.9288047766,"id":10100003136},{"Unnamed: 0":298,"title":"dar shawarma  restauran","address":"3218 muhammad abdullah al barqi - Al Munisiyah Dist.","district":"Al Munisiyah ","latitude":24.8279620509,"longitude":46.7796459588,"id":10100003140},{"Unnamed: 0":299,"title":"dicks restauran","address":"6967 ash shaikh hasan ibn hussain ibn ali - Al Munisiyah Dist.","district":"Al Munisiyah ","latitude":24.8161665437,"longitude":46.7541240217,"id":10100003140},{"Unnamed: 0":300,"title":"dominoes pizza restauran","address":"3356 makkah al mukarramah branch rd - North Mathar Dist.","district":"North Mathar ","latitude":24.676153315,"longitude":46.675157644,"id":10100003011},{"Unnamed: 0":301,"title":"deratti restauran","address":"4187 salih al hadyan - Al Shifa Dist.","district":"Al Shifa ","latitude":24.563805191,"longitude":46.703274939,"id":10100003061},{"Unnamed: 0":302,"title":"dominoes pizza restauran","address":"3664 husn barka - Al Olaya Dist.","district":"Al Olaya ","latitude":24.694519027,"longitude":46.70021296,"id":10100003075},{"Unnamed: 0":303,"title":"gyptian restauran","address":"2920 abi said al khadri - Al Khaleej Dist.","district":"Al Khaleej ","latitude":24.7648027462,"longitude":46.7854210562,"id":10100003055},{"Unnamed: 0":304,"title":"rez restauran","address":"6875 ename\\tashaikh hasan ibn hussain ibn ali rd - Al Munisiyah Dist.","district":"Al Munisiyah ","latitude":24.8156038086,"longitude":46.7544632644,"id":10100003140},{"Unnamed: 0":305,"title":"durrat al rafidain restauran","address":"4104 at takhassusi - Al Muhammadiyah Dist.","district":"Al Muhammadiyah ","latitude":24.7245998443,"longitude":46.6541717955,"id":10100003062},{"Unnamed: 0":306,"title":"gyptian restauran","address":"2815 al imam ahmad ibn hanbal - West Naseem Dist.","district":"West Naseem ","latitude":24.7298914297,"longitude":46.8231085966,"id":10100003167},{"Unnamed: 0":307,"title":"مطعم عثمانية","address":"6975 abi bakr as siddiq - Al Narjis Dist.","district":"Al Narjis ","latitude":24.8684597986,"longitude":46.641283698,"id":10100003150},{"Unnamed: 0":308,"title":"ast restauran","address":"6846 abdullah al hamadhani - Al Malaz Dist.","district":"Al Malaz ","latitude":24.6684224547,"longitude":46.7324059367,"id":10100003051},{"Unnamed: 0":309,"title":"ajen restauran","address":"2097 king abdullah ibn abdul aziz rd - Al Quds Dist.","district":"Al Quds ","latitude":24.7597895224,"longitude":46.7398153317,"id":10100003081},{"Unnamed: 0":310,"title":"درة الصين","address":"7010 Saeed Bin Zayd - Qurtubah Dist.","district":"Qurtubah ","latitude":24.8015085753,"longitude":46.7388173281,"id":10100003101},{"Unnamed: 0":311,"title":"me restauran","address":"6641 at takhassusi - Al Muhammadiyah Dist.","district":"Al Muhammadiyah ","latitude":24.7267118722,"longitude":46.6528505004,"id":10100003062},{"Unnamed: 0":312,"title":"xcellent steamy restauran","address":"6964 al amir abdullah ibn abdul rahman ibn faisal - Utayqah Dist.","district":"Utayqah ","latitude":24.613486007,"longitude":46.710104995,"id":10100003020},{"Unnamed: 0":313,"title":"fahd restauran","address":"8101 Unayzah - Al Rawabi Dist.","district":"Al Rawabi ","latitude":24.6984077614,"longitude":46.7815577925,"id":10100003089},{"Unnamed: 0":314,"title":"faris restauran","address":"3647 al madinah al munawarah - West Suwaidi Dist.","district":"West Suwaidi ","latitude":24.586494708,"longitude":46.621373743,"id":10100003057},{"Unnamed: 0":315,"title":"fatayer atayr restauran","address":"2713 ahmad al bidayri - West Naseem Dist.","district":"West Naseem ","latitude":24.7401293734,"longitude":46.8108380938,"id":10100003167},{"Unnamed: 0":316,"title":"xpert fast food restauran","address":"4237 al bayan - Al Fayha Dist.","district":"Al Fayha ","latitude":24.6824868937,"longitude":46.8180556569,"id":10100003133},{"Unnamed: 0":317,"title":"falafel restauran","address":"3023 abi said al khadri - Al Khaleej Dist.","district":"Al Khaleej ","latitude":24.7648053616,"longitude":46.7863862469,"id":10100003055},{"Unnamed: 0":318,"title":"fast food restauran","address":"2936 abi jafar al mansur - Al Yarmuk Dist.","district":"Al Yarmuk ","latitude":24.8028392101,"longitude":46.7675111287,"id":10100003139},{"Unnamed: 0":319,"title":"falafel restauran","address":"2051 al amir bandar ibn abdul aziz - Al Nahdah Dist.","district":"Al Nahdah ","latitude":24.7674143712,"longitude":46.8079136093,"id":10100003054},{"Unnamed: 0":320,"title":"fast food restauran","address":"7047 ask shaikh hasan ibn hussain ibn ali - Al Yarmuk Dist.","district":"Al Yarmuk ","latitude":24.8006111661,"longitude":46.7622206232,"id":10100003139},{"Unnamed: 0":321,"title":"falafel restauran","address":"7715 al ihsa - Al Rabwah Dist.","district":"Al Rabwah ","latitude":24.6944659332,"longitude":46.7321734636,"id":10100003047},{"Unnamed: 0":322,"title":"farouj aldiwan restauran","address":"2800 ammarat al baghdadi - Al Quds Dist.","district":"Al Quds ","latitude":24.7549571014,"longitude":46.7467263082,"id":10100003081},{"Unnamed: 0":323,"title":"fez restaurant damascen","address":"7129 King Fahd - Al Sahafah Dist.","district":"Al Sahafah ","latitude":24.7875772151,"longitude":46.6343648217,"id":10100003123},{"Unnamed: 0":324,"title":"friend restauran","address":"3582 al masani - Al Hamra Dist.","district":"Al Hamra ","latitude":24.7752821261,"longitude":46.7642174365,"id":10100003129},{"Unnamed: 0":325,"title":"garden restauran","address":"2731 king abdullah ibn abdul aziz rd - King Faisal Dist.","district":"King Faisal ","latitude":24.7703890238,"longitude":46.7665759617,"id":10100003027},{"Unnamed: 0":326,"title":"fish restauran","address":"4492 abdulrahman al ghafaqi rd - Al Quds Dist.","district":"Al Quds ","latitude":24.7494056041,"longitude":46.7633535529,"id":10100003081},{"Unnamed: 0":327,"title":"gad restauran","address":"2466 Jareer - Al Malaz Dist.","district":"Al Malaz ","latitude":24.6709582068,"longitude":46.7310668556,"id":10100003051},{"Unnamed: 0":328,"title":"fatirati allthethah  Restauran","address":"7521 ash shaikh sulaiman ibn abdullah ibn muhammad - Al Khaleej Dist.","district":"Al Khaleej ","latitude":24.7704748383,"longitude":46.7943524491,"id":10100003055},{"Unnamed: 0":329,"title":"french cane restauran","address":"3197 prince muhammad ibn abdulaziz rd - Al Sulaimaniyah Dist.","district":"Al Sulaimaniyah ","latitude":24.701103646,"longitude":46.695709947,"id":10100003063},{"Unnamed: 0":330,"title":"garden restauran","address":"3779 samahat ash shaikh muhammed ibn salih al uthaymen - West Umm Al Hamam Dist.","district":"West Umm Al Hamam ","latitude":24.685739729,"longitude":46.64701539,"id":10100003012},{"Unnamed: 0":331,"title":"fish restauran","address":"7721 Salman Al Farsi - Al Nahdah Dist.","district":"Al Nahdah ","latitude":24.7661104265,"longitude":46.8085360763,"id":10100003054},{"Unnamed: 0":332,"title":"garden restauran","address":"3673 al malik abdullah ibn abdulaziz rd - Al Woroud Dist.","district":"Al Woroud ","latitude":24.7354248344,"longitude":46.6836229833,"id":10100003026},{"Unnamed: 0":333,"title":"gawar restauran","address":"6982 abdullah al hamadhani - Al Malaz Dist.","district":"Al Malaz ","latitude":24.6697625672,"longitude":46.7315345781,"id":10100003051},{"Unnamed: 0":334,"title":"golden palace chinese restauran","address":"2653 Mousa Bin Naseer - Al Olaya Dist.","district":"Al Olaya ","latitude":24.703297147,"longitude":46.681447141,"id":10100003075},{"Unnamed: 0":335,"title":"hachikm restauran","address":"8410 ash shaikh hasan ibn hussain ibn ali - King Faisal Dist.","district":"King Faisal ","latitude":24.768654112,"longitude":46.7818054097,"id":10100003027},{"Unnamed: 0":336,"title":"golden house restauran","address":"7833 ash shaikh muhammad ibn abdul latif ibn abdul rahm - Shubra Dist.","district":"Shubra ","latitude":24.586129625,"longitude":46.685267413,"id":10100003066},{"Unnamed: 0":337,"title":"green land indian restauran","address":"4531 abi said al khadri - King Faisal Dist.","district":"King Faisal ","latitude":24.7634293213,"longitude":46.7841589901,"id":10100003027},{"Unnamed: 0":338,"title":"gdod alklig restauran","address":"3653 rajiyah - Al Munisiyah Dist.","district":"Al Munisiyah ","latitude":24.8170022659,"longitude":46.7657493256,"id":10100003140},{"Unnamed: 0":339,"title":"golden royal chinese restauran","address":"7116 king fahd branch road - Al Rahmaniyah Dist.","district":"Al Rahmaniyah ","latitude":24.7145619279,"longitude":46.6701859346,"id":10100003013},{"Unnamed: 0":340,"title":"hadhramoot restauran","address":"7678 al amir abdullah ibn abdul rahman ibn faisal - Utayqah Dist.","district":"Utayqah ","latitude":24.600392077,"longitude":46.710900889,"id":10100003020},{"Unnamed: 0":341,"title":"ghouzi restauran","address":"7652 prince abdulaziz ibn musaid ibn jalawi - Al Olaya Dist.","district":"Al Olaya ","latitude":24.694909591,"longitude":46.702062976,"id":10100003075},{"Unnamed: 0":342,"title":"green apple restauran","address":"8921 al hair rd - Al Haer Dist.","district":"Al Haer ","latitude":24.4098906881,"longitude":46.8372516963,"id":10100003159},{"Unnamed: 0":343,"title":"haiti restauran","address":"3896 Belal Bin Rabah - West Oraija Dist.","district":"West Oraija ","latitude":24.583647781,"longitude":46.594709653,"id":10100003126},{"Unnamed: 0":344,"title":"hardees restauran","address":"7886 al aziziah branch road - Al Dar Al Baida Dist.","district":"Al Dar Al Baida ","latitude":24.5660081456,"longitude":46.7895380356,"id":10100003130},{"Unnamed: 0":345,"title":"hashim restauran","address":"8946 khalid ibn al walid - Al Quds Dist.","district":"Al Quds ","latitude":24.7665772167,"longitude":46.7596661508,"id":10100003081},{"Unnamed: 0":346,"title":"halab alshahbaa restauran","address":"7361 Saad Bin Abi Waqqas - West Naseem Dist.","district":"West Naseem ","latitude":24.7152552948,"longitude":46.8289580154,"id":10100003167},{"Unnamed: 0":347,"title":"hardeez restauran","address":"7816 at takhassusi - North Mathar Dist.","district":"North Mathar ","latitude":24.704242046,"longitude":46.665047989,"id":10100003011},{"Unnamed: 0":348,"title":"hardees restauran","address":"8105 Ayshah Bin Abi Bakr - Dhahrat Al Badeah Dist.","district":"hahrat Al Badeah ","latitude":24.600445527,"longitude":46.644292564,"id":10100003091},{"Unnamed: 0":349,"title":"hashim restauran","address":"7100  Abdullah Bin Rawaha - Al Sulaimaniyah Dist.","district":"Al Sulaimaniyah ","latitude":24.706223515,"longitude":46.699351572,"id":10100003063},{"Unnamed: 0":350,"title":"hala restauran","address":"3185 al amir sultan ibn abdul aziz - North Mathar Dist.","district":"North Mathar ","latitude":24.684194893,"longitude":46.674836784,"id":10100003011},{"Unnamed: 0":351,"title":"hardeez restauran","address":"4199 prince mamduh ibn abdulaziz - Al Sulaimaniyah Dist.","district":"Al Sulaimaniyah ","latitude":24.711625902,"longitude":46.696947308,"id":10100003063},{"Unnamed: 0":352,"title":"hashim restauran","address":"3211 ibn sina - Al Maseef Dist.","district":"Al Maseef ","latitude":24.7636986171,"longitude":46.6802182114,"id":10100003084},{"Unnamed: 0":353,"title":"hayyah restauran","address":"2689 al amir mansur ibn abdul aziz - Al Murabba Dist.","district":"Al Murabba ","latitude":24.672594682,"longitude":46.706437011,"id":10100003021},{"Unnamed: 0":354,"title":"herfy restauran","address":"7289 king fahd branch road - Al Murabba Dist.","district":"Al Murabba ","latitude":24.661765823,"longitude":46.701165787,"id":10100003021},{"Unnamed: 0":355,"title":"herfy restauran","address":"3227 al madinah al munawarah - West Suwaidi Dist.","district":"West Suwaidi ","latitude":24.58380285,"longitude":46.617058336,"id":10100003057},{"Unnamed: 0":356,"title":"herfy restauran","address":"3356 makkah al mukarramah branch rd - North Mathar Dist.","district":"North Mathar ","latitude":24.675626834,"longitude":46.675102404,"id":10100003011},{"Unnamed: 0":357,"title":"herfy restauran","address":"9011 al imam abdul aziz ibn muhammad ibn saud - Al Wisham Dist.","district":"Al Wisham ","latitude":24.639926093,"longitude":46.693154547,"id":10100003114},{"Unnamed: 0":358,"title":"hayat restauran","address":"7944 al hawwari - Al Malaz Dist.","district":"Al Malaz ","latitude":24.6784131029,"longitude":46.7276154688,"id":10100003051},{"Unnamed: 0":359,"title":"herfy restauran","address":"7472 at takhassusi - North Mathar Dist.","district":"North Mathar ","latitude":24.688216155,"longitude":46.673353658,"id":10100003011},{"Unnamed: 0":360,"title":"herfy restauran","address":"3480 as suwaidi al am - Sultanah Dist.","district":"Sultanah ","latitude":24.598132417,"longitude":46.684814548,"id":10100003069},{"Unnamed: 0":361,"title":"herfy restauran","address":"3467 al amir sultan ibn abdul aziz - Al Olaya Dist.","district":"Al Olaya ","latitude":24.694086472,"longitude":46.698422016,"id":10100003075},{"Unnamed: 0":362,"title":"herfy restauran","address":"2343 al amir faisal ibn turki ibn abdul aziz - Al Murabba Dist.","district":"Al Murabba ","latitude":24.665599771,"longitude":46.710829888,"id":10100003021},{"Unnamed: 0":363,"title":"herfy restauran","address":"3461 dirab branch road - Al Shifa Dist.","district":"Al Shifa ","latitude":24.574429207,"longitude":46.696088304,"id":10100003061},{"Unnamed: 0":364,"title":"bn bajah restauran","address":"2433 as suwaidi al am - Al Suwaidi Dist.","district":"Al Suwaidi ","latitude":24.583561632,"longitude":46.662166042,"id":10100003018},{"Unnamed: 0":365,"title":"ndian palace restauran","address":"3414 al amir saud ibn abdul aziz al saud al kabir - Al Quds Dist.","district":"Al Quds ","latitude":24.7575629919,"longitude":46.7528699814,"id":10100003081},{"Unnamed: 0":366,"title":"hong kong restauran","address":"6998 al ulaya - Al Olaya Dist.","district":"Al Olaya ","latitude":24.687731151,"longitude":46.687440665,"id":10100003075},{"Unnamed: 0":367,"title":"ndian and pakistani restauran","address":"3627 ad dammam rd - Al Yarmuk Dist.","district":"Al Yarmuk ","latitude":24.8135956227,"longitude":46.7737278312,"id":10100003139},{"Unnamed: 0":368,"title":"hot dough restauran","address":"7663 an najah - Al Yarmuk Dist.","district":"Al Yarmuk ","latitude":24.8215170864,"longitude":46.7949878791,"id":10100003139},{"Unnamed: 0":369,"title":"ndian palace restauran","address":"3314 abdulrahman al ghafaqi rd - Al Quds Dist.","district":"Al Quds ","latitude":24.7421699848,"longitude":46.7515440927,"id":10100003081},{"Unnamed: 0":370,"title":"herfy restauran","address":"3493 Belal Bin Rabah - Tuwaiq Dist.","district":"Tuwaiq ","latitude":24.577978061,"longitude":46.570605869,"id":10100003102},{"Unnamed: 0":371,"title":"skandar basha restauran","address":"2834 al amir turki ibn abdul aziz ath thani - Al Muruj Dist.","district":"Al Muruj ","latitude":24.757002881,"longitude":46.6587489004,"id":10100003110},{"Unnamed: 0":372,"title":"ndian restauran","address":"7291 prince ahmad ibn abdulaziz - King Fahd Dist.","district":"King Fahd ","latitude":24.7406923333,"longitude":46.6739115472,"id":10100003017},{"Unnamed: 0":373,"title":"التاج الهندي","address":"6113 Saeed Bin Zayd - Qurtubah Dist.","district":"Qurtubah ","latitude":24.8177557334,"longitude":46.7322380391,"id":10100003101},{"Unnamed: 0":374,"title":"raqi restauran","address":"6967 ash shaikh hasan ibn hussain ibn ali - Al Munisiyah Dist.","district":"Al Munisiyah ","latitude":24.8160011786,"longitude":46.7542015237,"id":10100003140},{"Unnamed: 0":375,"title":"ndian restauran","address":"3475 Al Ameer Miqren Bin Abdulaziz - Al Nuzha Dist.","district":"Al Nuzha ","latitude":24.7552603806,"longitude":46.709198538,"id":10100003025},{"Unnamed: 0":376,"title":"ndonesian islands restauran","address":"3214 Makkah Al Mukarramah - Al Olaya Dist.","district":"Al Olaya ","latitude":24.68207027,"longitude":46.695519983,"id":10100003075},{"Unnamed: 0":377,"title":"stanbul restauran","address":"7835 abdullah ibn az zubairq - West Oraija Dist.","district":"West Oraija ","latitude":24.607632331,"longitude":46.606212441,"id":10100003126},{"Unnamed: 0":378,"title":"ndian restauran","address":"3724 prince muhammad ibn abdulaziz rd - Al Olaya Dist.","district":"Al Olaya ","latitude":24.700448403,"longitude":46.691925777,"id":10100003075},{"Unnamed: 0":379,"title":"nnyan seafood restauran","address":"8120 King Abdulaziz - King Fahd Dist.","district":"King Fahd ","latitude":24.7480374426,"longitude":46.6787797356,"id":10100003017},{"Unnamed: 0":380,"title":"alian country restauran","address":"3252 prince muhammad ibn abdulaziz rd - Al Olaya Dist.","district":"Al Olaya ","latitude":24.698442974,"longitude":46.687344059,"id":10100003075},{"Unnamed: 0":381,"title":"ndian rural restauran","address":"3441 Al Shaikh Abdullah Al Anqari - Al Woroud Dist.","district":"Al Woroud ","latitude":24.7243783621,"longitude":46.6812979069,"id":10100003026},{"Unnamed: 0":382,"title":"raqi grill restauran","address":"3518 al imam abdullah ibn saud ibn abdulaziz branch rd - Al Yarmuk Dist.","district":"Al Yarmuk ","latitude":24.8020044453,"longitude":46.7907638004,"id":10100003139},{"Unnamed: 0":383,"title":"jad restauran","address":"4160 al kirki - East Umm Al Hamam Dist.","district":"East Umm Al Hamam ","latitude":24.691882164,"longitude":46.650886458,"id":10100003008},{"Unnamed: 0":384,"title":"jodah alshwaa restauran","address":"7555 Saad Bin Abi Waqqas - West Naseem Dist.","district":"West Naseem ","latitude":24.7392642014,"longitude":46.8111407612,"id":10100003167},{"Unnamed: 0":385,"title":"jabal al zaytoun restauran","address":"3831 al imam turki ibn abdullah ibn muhammad - Al Shumaisi Dist.","district":"Al Shumaisi ","latitude":24.629739014,"longitude":46.693077801,"id":10100003113},{"Unnamed: 0":387,"title":"kabli restauran","address":"3912 prince bandar ibn abdulaziz - King Faisal Dist.","district":"King Faisal ","latitude":24.7494610926,"longitude":46.7779642487,"id":10100003027},{"Unnamed: 0":388,"title":"jad restauran","address":"2527 al imam faisal ibn turki ibn abdullah - Al Dirah Dist.","district":"Al Dirah ","latitude":24.637763754,"longitude":46.707213068,"id":10100003007},{"Unnamed: 0":389,"title":"johoh pie levantine restauran","address":"8416 abi huraiyrah - East Naseem Dist.","district":"East Naseem ","latitude":24.7350851548,"longitude":46.8387448539,"id":10100003080},{"Unnamed: 0":390,"title":"jabal sanah restauran","address":"7634 prince faisal bin bandar bin abdul aziz road - Al Narjis Dist.","district":"Al Narjis ","latitude":24.8490879132,"longitude":46.6821576732,"id":10100003150},{"Unnamed: 0":391,"title":"jeddati restauran","address":"6821 al hadrah - Tuwaiq Dist.","district":"Tuwaiq ","latitude":24.580371835,"longitude":46.555493328,"id":10100003102},{"Unnamed: 0":392,"title":"kabsa restauran","address":"2535 prince saud ibn abdulaziz al saud al kabir - Al Quds Dist.","district":"Al Quds ","latitude":24.7531348441,"longitude":46.7440916991,"id":10100003081},{"Unnamed: 0":393,"title":"karam restauran","address":"7721 Salman Al Farsi - Al Nahdah Dist.","district":"Al Nahdah ","latitude":24.7660304767,"longitude":46.8085931834,"id":10100003054},{"Unnamed: 0":394,"title":"kaveri restauran","address":"7315 prince ahmad ibn abdulaziz - King Fahd Dist.","district":"King Fahd ","latitude":24.740910054,"longitude":46.6738544401,"id":10100003017},{"Unnamed: 0":395,"title":"kabsa restauran","address":"2219 king abdullah ibn abdul aziz rd - King Faisal Dist.","district":"King Faisal ","latitude":24.7682635464,"longitude":46.761502237,"id":10100003027},{"Unnamed: 0":396,"title":"katakit restaurants","address":"4619 hail - Al Khaleej Dist.","district":"Al Khaleej ","latitude":24.7650549994,"longitude":46.8025252438,"id":10100003055},{"Unnamed: 0":397,"title":"khaybar restauran","address":"7875 al ajaliyah - Al Shumaisi Dist.","district":"Al Shumaisi ","latitude":24.629627522,"longitude":46.697354186,"id":10100003113},{"Unnamed: 0":398,"title":"كرم شامي","address":"4023 al qalam - Qurtubah Dist.","district":"Qurtubah ","latitude":24.8138338466,"longitude":46.7519367131,"id":10100003101},{"Unnamed: 0":399,"title":"مطعم كوثر","address":"4203 Anas Bin Malek - Al Narjis Dist.","district":"Al Narjis ","latitude":24.8354075687,"longitude":46.6834633173,"id":10100003150},{"Unnamed: 0":400,"title":"kabsat  restauran","address":"8384 ash shaikh hasan ibn hussain ibn ali - King Faisal Dist.","district":"King Faisal ","latitude":24.7684328221,"longitude":46.7819648335,"id":10100003027},{"Unnamed: 0":401,"title":"kausar restaurants","address":"7282 al ulaya - Al Sahafah Dist.","district":"Al Sahafah ","latitude":24.8054387569,"longitude":46.6283304368,"id":10100003123},{"Unnamed: 0":402,"title":"koch alchef  restauran","address":"6872 abdullah al jasir - Ishbiliyah Dist.","district":"Ishbiliyah ","latitude":24.7892246957,"longitude":46.8028216043,"id":10100003137},{"Unnamed: 0":403,"title":"kruathai seafoods restauran","address":"8518 Al Imam Al Shafie - Al Rayan Dist.","district":"Al Rayan ","latitude":24.7171300701,"longitude":46.791004548,"id":10100003090},{"Unnamed: 0":404,"title":"kudu restauran","address":"2772 ibn taymeeyah rd - Badr Dist.","district":"Badr ","latitude":24.561356606,"longitude":46.707662597,"id":10100003164},{"Unnamed: 0":405,"title":"ktakit restauran","address":"7569 khalid ibn al walid - Ghirnatah Dist.","district":"Ghirnatah ","latitude":24.7979471202,"longitude":46.7418473498,"id":10100003155},{"Unnamed: 0":406,"title":"a ayonak restauran","address":"7495 ash shaikh hasan ibn hussain ibn ali - Al Khaleej Dist.","district":"Al Khaleej ","latitude":24.7702983196,"longitude":46.7813747272,"id":10100003055},{"Unnamed: 0":407,"title":"koch kosheri restaurant mahash","address":"8416 ash shaikh hasan ibn hussain ibn ali - Al Hamra Dist.","district":"Al Hamra ","latitude":24.7895599703,"longitude":46.7666943556,"id":10100003129},{"Unnamed: 0":408,"title":"kudu restauran","address":"2883 al madinah al munawarah - Dhahrat Al Badeah Dist.","district":"hahrat Al Badeah ","latitude":24.59355602,"longitude":46.633050447,"id":10100003091},{"Unnamed: 0":409,"title":"ahore kehabi restauran","address":"7386 al amir abdul rahman ibn abdul aziz - Al Murabba Dist.","district":"Al Murabba ","latitude":24.677259375,"longitude":46.707982475,"id":10100003021},{"Unnamed: 0":410,"title":"kudu restauran","address":"3988 as suwaidi al am - Sultanah Dist.","district":"Sultanah ","latitude":24.598712388,"longitude":46.689432455,"id":10100003069},{"Unnamed: 0":411,"title":"abnah assal restauran","address":"6968 an najah - Al Yarmuk Dist.","district":"Al Yarmuk ","latitude":24.807431629,"longitude":46.8012278966,"id":10100003139},{"Unnamed: 0":412,"title":"ahzah mandi restauran","address":"2943 al imam abi hanifah - West Oraija Dist.","district":"West Oraija ","latitude":24.594394139,"longitude":46.604307468,"id":10100003126},{"Unnamed: 0":413,"title":"ayali altut restauran","address":"4259 al dawud - Al Hamra Dist.","district":"Al Hamra ","latitude":24.7818141265,"longitude":46.7708407578,"id":10100003129},{"Unnamed: 0":414,"title":"banon fruits restauran","address":"9179 al ulaya - Al Olaya Dist.","district":"Al Olaya ","latitude":24.679127488,"longitude":46.692827673,"id":10100003075},{"Unnamed: 0":415,"title":"athani restauran","address":"2537 no 78 - Al Olaya Dist.","district":"Al Olaya ","latitude":24.705035672,"longitude":46.677248227,"id":10100003075},{"Unnamed: 0":416,"title":"ayali beirut restauran","address":"7750 at takhassusi - North Mathar Dist.","district":"North Mathar ","latitude":24.703642534,"longitude":46.665585967,"id":10100003011},{"Unnamed: 0":417,"title":"banon hdaag restauran","address":"7270 al qana - Al Munisiyah Dist.","district":"Al Munisiyah ","latitude":24.8190788131,"longitude":46.7615587378,"id":10100003140},{"Unnamed: 0":418,"title":"atia chinese & thailand restauran","address":"2444 abi bakr ar razi - Al Sulaimaniyah Dist.","district":"Al Sulaimaniyah ","latitude":24.69276454,"longitude":46.703365477,"id":10100003063},{"Unnamed: 0":419,"title":"banese fruit restauran","address":"2553 ath thumamah rd - Al Munisiyah Dist.","district":"Al Munisiyah ","latitude":24.848285336,"longitude":46.764809277,"id":10100003140},{"Unnamed: 0":420,"title":"ayali al hilmiyyah restauran","address":"4863 ash shaydiyah - Al Shumaisi Dist.","district":"Al Shumaisi ","latitude":24.628961468,"longitude":46.703327837,"id":10100003113},{"Unnamed: 0":421,"title":"banon fruits restauran","address":"9137 al ulaya - Al Olaya Dist.","district":"Al Olaya ","latitude":24.678795058,"longitude":46.692969583,"id":10100003075},{"Unnamed: 0":422,"title":"kloz muzosato japanese restauran","address":"3423 al amir muhammad ibn abdul aziz rd - Al Sulaimaniyah Dist.","district":"Al Sulaimaniyah ","latitude":24.702022703,"longitude":46.697911839,"id":10100003063},{"Unnamed: 0":423,"title":"wan restauran","address":"3402 king abdullah ibn abdul aziz rd - Al Hamra Dist.","district":"Al Hamra ","latitude":24.7693490964,"longitude":46.7621376256,"id":10100003129},{"Unnamed: 0":424,"title":"ubnan al kubra restaurants","address":"3761 prince mamduh ibn abdulaziz - Al Sulaimaniyah Dist.","district":"Al Sulaimaniyah ","latitude":24.710025283,"longitude":46.692639144,"id":10100003063},{"Unnamed: 0":425,"title":"ve and salt restauran","address":"3410 al hussain ibn ali - Al Maseef Dist.","district":"Al Maseef ","latitude":24.7670381765,"longitude":46.6823178275,"id":10100003084},{"Unnamed: 0":426,"title":"ondon restaurants ltd","address":"8496 King Abdulaziz - Al Ghadeer Dist.","district":"Al Ghadeer ","latitude":24.7835785631,"longitude":46.6610617695,"id":10100003109},{"Unnamed: 0":427,"title":"banon restauran","address":"3301 ibn sina - Al Maseef Dist.","district":"Al Maseef ","latitude":24.7641364379,"longitude":46.6812271029,"id":10100003084},{"Unnamed: 0":428,"title":"ver and cheese restauran","address":"4201 muhammad al maqdimi - Al Ghadeer Dist.","district":"Al Ghadeer ","latitude":24.7772580238,"longitude":46.6607629586,"id":10100003109},{"Unnamed: 0":429,"title":"ubad restauran","address":"6621 Hamzah Bin Abdulmuttaleb - Middle Oraija Dist.","district":"Middle Oraija ","latitude":24.594176321,"longitude":46.62062028,"id":10100003128},{"Unnamed: 0":430,"title":"ujannid restauran","address":"3468 al imam saud ibn faysal rd - Al Malqa Dist.","district":"Al Malqa ","latitude":24.7892018876,"longitude":46.6188603523,"id":10100003145},{"Unnamed: 0":431,"title":"wuliwat alhamra restauran","address":"7236 king fahad branch rd - Al Aqeeq Dist.","district":"Al Aqeeq ","latitude":24.7807902163,"longitude":46.6366695829,"id":10100003107},{"Unnamed: 0":432,"title":"madhaq alhayat albkhari restauran","address":"7856  - Al Arid Dist.","district":"Al Arid ","latitude":24.8686241717,"longitude":46.6399842664,"id":10100003148},{"Unnamed: 0":433,"title":"mahboob restauran","address":"7484 tumair - Al Muruj Dist.","district":"Al Muruj ","latitude":24.7591753289,"longitude":46.6638873464,"id":10100003110},{"Unnamed: 0":434,"title":"makkah restauran","address":"3831 al imam turki ibn abdullah ibn muhammad - Al Shumaisi Dist.","district":"Al Shumaisi ","latitude":24.629744069,"longitude":46.693175978,"id":10100003113},{"Unnamed: 0":435,"title":"madhbi and madghout house restauran","address":"6452 al yaseen valley - Al Sharafiyah Dist.","district":"Al Sharafiyah ","latitude":24.653449081,"longitude":46.668714701,"id":10100003009},{"Unnamed: 0":436,"title":"mahboub restauran","address":"4120 al imam muhammad ibn saud ibn muqrin - Al Shumaisi Dist.","district":"Al Shumaisi ","latitude":24.627769904,"longitude":46.69594302,"id":10100003113},{"Unnamed: 0":437,"title":"madhaq alhayat albkhari restauran","address":"7720 King Abdulaziz - Al Yasmeen Dist.","district":"Al Yasmeen ","latitude":24.8255048863,"longitude":46.6398976846,"id":10100003147},{"Unnamed: 0":438,"title":"madura restauran","address":"6684 al muhandis masaid al anqari - Al Woroud Dist.","district":"Al Woroud ","latitude":24.7195930479,"longitude":46.6800252125,"id":10100003026},{"Unnamed: 0":439,"title":"maken restaurant  coff","address":"3940 al hussain ibn ali - Al Maseef Dist.","district":"Al Maseef ","latitude":24.7692403677,"longitude":46.6876073693,"id":10100003084},{"Unnamed: 0":440,"title":"madhinaa  restauran","address":"6405 Othman Bin Affan - Al Mughrazat Dist.","district":"Al Mughrazat ","latitude":24.7554864083,"longitude":46.7198926343,"id":10100003105},{"Unnamed: 0":441,"title":"mahndi restauran","address":"7893 fatimah az zahra - Jareer Dist.","district":"Jareer ","latitude":24.6776693971,"longitude":46.744809829,"id":10100003048},{"Unnamed: 0":442,"title":"malaz restauran","address":"7240 dhabiyat bint al barra - Al Maseef Dist.","district":"Al Maseef ","latitude":24.7645742587,"longitude":46.6825262886,"id":10100003084},{"Unnamed: 0":443,"title":"mandi restauran","address":"4818 al jawharah bint ibn muammar - Al Sharafiyah Dist.","district":"Al Sharafiyah ","latitude":24.655220716,"longitude":46.670875592,"id":10100003009},{"Unnamed: 0":444,"title":"makkah restauran","address":"5351 al ris - Al Shumaisi Dist.","district":"Al Shumaisi ","latitude":24.621156172,"longitude":46.70338653,"id":10100003113},{"Unnamed: 0":445,"title":"malh and falfl restaurant women","address":"3950 muhammadali junah - Al Yarmuk Dist.","district":"Al Yarmuk ","latitude":24.8128096574,"longitude":46.7952081391,"id":10100003139},{"Unnamed: 0":446,"title":"maradem restauran","address":"2779 al amir nawaf ibn abdul aziz - West Umm Al Hamam Dist.","district":"West Umm Al Hamam ","latitude":24.686573106,"longitude":46.637200262,"id":10100003012},{"Unnamed: 0":447,"title":"malaz restauran","address":"6799 fatimah az zahra - Al Zahra Dist.","district":"Al Zahra ","latitude":24.6861563795,"longitude":46.7338846529,"id":10100003132},{"Unnamed: 0":448,"title":"mandi nur hudarmut restauran","address":"2980 king salman bin abdul aziz rd - Al Qairawan Dist.","district":"Al Qairawan ","latitude":24.8200748725,"longitude":46.5972779952,"id":10100003146},{"Unnamed: 0":449,"title":"makki corner restauran","address":"4028 Hesham Bin Abdulmalek - King Fahd Dist.","district":"King Fahd ","latitude":24.7455377582,"longitude":46.6785776353,"id":10100003017},{"Unnamed: 0":450,"title":"mandi kingdom restauran","address":"7282 weastern ring rd - West Oraija Dist.","district":"West Oraija ","latitude":24.584133629,"longitude":46.598811216,"id":10100003126},{"Unnamed: 0":451,"title":"mareez restaurants","address":"3673 al malik abdullah ibn abdulaziz rd - Al Woroud Dist.","district":"Al Woroud ","latitude":24.7356925238,"longitude":46.683730059,"id":10100003026},{"Unnamed: 0":452,"title":"\"ma'rufah restaurant\"","address":"2606 al amir muhammad ibn abdul rahman branch rd - Manfuha Al Jadidah Dist.","district":"Manfuha Al Jadidah ","latitude":24.606352467,"longitude":46.711594509,"id":10100003005},{"Unnamed: 0":453,"title":"maxim restauran","address":"7113 at takhassusi - Al Nakheel Dist.","district":"Al Nakheel ","latitude":24.7451694259,"longitude":46.6435219126,"id":10100003108},{"Unnamed: 0":454,"title":"marked restauran","address":"7010 dirab branch rd - Dirab Dist.","district":"ab ","latitude":24.4856578577,"longitude":46.6214351628,"id":10100003058},{"Unnamed: 0":455,"title":"mathaq  beirut restauran","address":"6733 an najah - Al Yarmuk Dist.","district":"Al Yarmuk ","latitude":24.8130003209,"longitude":46.7993805973,"id":10100003139},{"Unnamed: 0":456,"title":"marhaba restauran","address":"2975 al amir ahmad ibn abdul aziz - Al Woroud Dist.","district":"Al Woroud ","latitude":24.7323805856,"longitude":46.6774981596,"id":10100003026},{"Unnamed: 0":457,"title":"massar restauran","address":"3704 Ibn Al Jawzi - Middle Oraija Dist.","district":"Middle Oraija ","latitude":24.596600323,"longitude":46.631771544,"id":10100003128},{"Unnamed: 0":458,"title":"mazad restauran","address":"3381 al urubah rd - Al Olaya Dist.","district":"Al Olaya ","latitude":24.7098219118,"longitude":46.6678624458,"id":10100003075},{"Unnamed: 0":459,"title":"marhaba restaurant malaz","address":"7676 fatimah az zahra - Jareer Dist.","district":"Jareer ","latitude":24.6758538684,"longitude":46.7459735044,"id":10100003048},{"Unnamed: 0":460,"title":"mateam restauran","address":"6735 al ulaya - Al Sahafah Dist.","district":"Al Sahafah ","latitude":24.7999564787,"longitude":46.6318425212,"id":10100003123},{"Unnamed: 0":461,"title":"mazoon sham restauran","address":"4178 Anas Bin Malek - Al Yasmeen Dist.","district":"Al Yasmeen ","latitude":24.8251100374,"longitude":46.656830625,"id":10100003147},{"Unnamed: 0":462,"title":"medina restaurant pakistani indian food","address":"6774 al bahar al mutawassit - Al Aqeeq Dist.","district":"Al Aqeeq ","latitude":24.7767532575,"longitude":46.6293009315,"id":10100003107},{"Unnamed: 0":463,"title":"Mislan restauran","address":"3577  - King Khalid International Airport","district":"King Khalid International Airpo","latitude":24.8663894012,"longitude":46.714469207,"id":10100003149},{"Unnamed: 0":464,"title":"menara restauran","address":"3990 Anas Bin Malek - Al Malqa Dist.","district":"Al Malqa ","latitude":24.8081976965,"longitude":46.6159583398,"id":10100003145},{"Unnamed: 0":465,"title":"miz restauran","address":"4015 as suwaidi al am - Al Suwaidi Dist.","district":"Al Suwaidi ","latitude":24.593369818,"longitude":46.678007238,"id":10100003018},{"Unnamed: 0":466,"title":"mecca restauran","address":"3517 ad dammam rd - Al Munisiyah Dist.","district":"Al Munisiyah ","latitude":24.811080009,"longitude":46.7645456419,"id":10100003140},{"Unnamed: 0":467,"title":"milan restauran","address":"3577  - King Khalid International Airport","district":"King Khalid International Airpo","latitude":24.8652269165,"longitude":46.7116826343,"id":10100003149},{"Unnamed: 0":468,"title":"more restauran","address":"7630 King Abdulaziz - Al Muruj Dist.","district":"Al Muruj ","latitude":24.7602089383,"longitude":46.6728577619,"id":10100003110},{"Unnamed: 0":469,"title":"mbzul restauran","address":"4382 al imam abdullah ibn saud ibn abdul aziz branch rd - Al Yarmuk Dist.","district":"Al Yarmuk ","latitude":24.7981075544,"longitude":46.7814877572,"id":10100003139},{"Unnamed: 0":470,"title":"middle east local food restauran","address":"8096 Hamzah Bin Abdulmuttaleb - West Suwaidi Dist.","district":"West Suwaidi ","latitude":24.579302519,"longitude":46.63074832,"id":10100003057},{"Unnamed: 0":471,"title":"modern bait al arid restauran","address":"7678 umm al hamam - West Umm Al Hamam Dist.","district":"West Umm Al Hamam ","latitude":24.689636652,"longitude":46.650273877,"id":10100003012},{"Unnamed: 0":472,"title":"my family restauran","address":"3380 al imam abi hanifah - Middle Oraija Dist.","district":"Middle Oraija ","latitude":24.601988271,"longitude":46.615682302,"id":10100003128},{"Unnamed: 0":473,"title":"najd bukhari restauran","address":"8089 al ajaliyah - Umm Saleem Dist.","district":"Umm Saleem ","latitude":24.631567657,"longitude":46.698319787,"id":10100003122},{"Unnamed: 0":474,"title":"najdi restauran","address":"4390 dirab branch road - Namar Dist.","district":"Namar ","latitude":24.575279942,"longitude":46.695290028,"id":10100003060},{"Unnamed: 0":475,"title":"naif restauran","address":"2758 prince nawaf ibn abdulaziz - West Umm Al Hamam Dist.","district":"West Umm Al Hamam ","latitude":24.687165945,"longitude":46.637077454,"id":10100003012},{"Unnamed: 0":476,"title":"najd restauran","address":"4090 al imam muhammad ibn saud ibn muqrin - Al Shumaisi Dist.","district":"Al Shumaisi ","latitude":24.627908295,"longitude":46.69570747,"id":10100003113},{"Unnamed: 0":477,"title":"my family restauran","address":"2589 al fadli - Middle Oraija Dist.","district":"Middle Oraija ","latitude":24.594584058,"longitude":46.620731347,"id":10100003128},{"Unnamed: 0":478,"title":"najd restauran","address":"6691 tabuk - Al Ezdihar Dist.","district":"Al Ezdihar ","latitude":24.7746892372,"longitude":46.7220176951,"id":10100003086},{"Unnamed: 0":479,"title":"nasma al khaimah restaurant for fast food","address":"7141 prince muhammad ibn saad ibn abdulazizi - Al Malqa Dist.","district":"Al Malqa ","latitude":24.8127397585,"longitude":46.5997167534,"id":10100003145},{"Unnamed: 0":480,"title":"nabaa lebanon restaurant grills and fresh shawarma","address":"4146 abi jafar al mansur - Al Yarmuk Dist.","district":"Al Yarmuk ","latitude":24.8078806435,"longitude":46.7793303527,"id":10100003139},{"Unnamed: 0":481,"title":"najd restauran","address":"4417 al imam muhammad ibn saud ibn muqrin - Al Shumaisi Dist.","district":"Al Shumaisi ","latitude":24.628139528,"longitude":46.700062484,"id":10100003113},{"Unnamed: 0":482,"title":"new sham restauran","address":"6227 Othman Bin Affan - Al Mughrazat Dist.","district":"Al Mughrazat ","latitude":24.7539420042,"longitude":46.7206521285,"id":10100003105},{"Unnamed: 0":483,"title":"\"norwell's restaurant\"","address":"8140 prince abdulaziz ibn musaid ibn jalawi - Al Sulaimaniyah Dist.","district":"Al Sulaimaniyah ","latitude":24.699312467,"longitude":46.703770955,"id":10100003063},{"Unnamed: 0":484,"title":"pakistani\/ indian restaurant bait al usmania","address":"8800 Ibn Al Haytahm - Al Nahdah Dist.","district":"Al Nahdah ","latitude":24.7756590368,"longitude":46.8247232751,"id":10100003054},{"Unnamed: 0":485,"title":"noor mahal indian restauran","address":"8052 Salman Al Farsi - Al Nahdah Dist.","district":"Al Nahdah ","latitude":24.7583959284,"longitude":46.8135052237,"id":10100003054},{"Unnamed: 0":486,"title":"pager restauran","address":"3647 Khadeejah Bint Khuwaylid - West Oraija Dist.","district":"West Oraija ","latitude":24.589161465,"longitude":46.592283393,"id":10100003126},{"Unnamed: 0":487,"title":"nights cabin restauran","address":"2977 northern ring branch rd - Al Maseef Dist.","district":"Al Maseef ","latitude":24.7734584412,"longitude":46.6781336002,"id":10100003084},{"Unnamed: 0":488,"title":"off white restaurant & loung","address":"6699 King Abdulaziz - Al Nafel Dist.","district":"Al Nafel ","latitude":24.776116732,"longitude":46.6657206766,"id":10100003083},{"Unnamed: 0":489,"title":"palace grill restauran","address":"7610 abi huraiyrah - East Naseem Dist.","district":"East Naseem ","latitude":24.727840053,"longitude":46.8440047357,"id":10100003080},{"Unnamed: 0":490,"title":"non restauran","address":"3244 king khalid rd - Al Nakheel Dist.","district":"Al Nakheel ","latitude":24.7247472606,"longitude":46.6026244373,"id":10100003108},{"Unnamed: 0":491,"title":"olive leaves restauran","address":"2867 anas ibn malik - Al Sahafah Dist.","district":"Al Sahafah ","latitude":24.8133660547,"longitude":46.6310470278,"id":10100003123},{"Unnamed: 0":492,"title":"pandaro gourmet restauran","address":"3955 Al Shaikh Abdullah Al Anqari - Al Woroud Dist.","district":"Al Woroud ","latitude":24.7260023443,"longitude":46.6865339108,"id":10100003026},{"Unnamed: 0":493,"title":"pizza hadeel restauran","address":"3550 prince nawaf ibn abdulaziz - West Umm Al Hamam Dist.","district":"West Umm Al Hamam ","latitude":24.688578098,"longitude":46.644834043,"id":10100003012},{"Unnamed: 0":494,"title":"pizza hut restauran","address":"6635 at takhassusi - Al Olaya Dist.","district":"Al Olaya ","latitude":24.693494732,"longitude":46.671772637,"id":10100003075},{"Unnamed: 0":495,"title":"pancake and turkish pizza restauran","address":"3018 Belal Bin Rabah - West Oraija Dist.","district":"West Oraija ","latitude":24.589976117,"longitude":46.60502121,"id":10100003126},{"Unnamed: 0":496,"title":"peshawar bukhari restauran","address":"4179 al imam muhammad ibn saud ibn muqrin - Al Shumaisi Dist.","district":"Al Shumaisi ","latitude":24.62744661,"longitude":46.69645918,"id":10100003113},{"Unnamed: 0":497,"title":"pizza hut restauran","address":"3698 prince nawaf ibn abdulaziz - West Umm Al Hamam Dist.","district":"West Umm Al Hamam ","latitude":24.688908014,"longitude":46.646431679,"id":10100003012},{"Unnamed: 0":498,"title":"peruvi restauran","address":"2917 king salman bin abdul aziz branch road - Al Malqa Dist.","district":"Al Malqa ","latitude":24.8223540561,"longitude":46.6052344528,"id":10100003145},{"Unnamed: 0":499,"title":"pizza hut restauran","address":"3021 Mousa Bin Naseer - Al Olaya Dist.","district":"Al Olaya ","latitude":24.705169959,"longitude":46.685152998,"id":10100003075},{"Unnamed: 0":500,"title":"\"pearl's taste restaurant\"","address":"2745 al amir bandar ibn abdul aziz - Al Andalus Dist.","district":"Al Andalus ","latitude":24.7512563483,"longitude":46.7819432095,"id":10100003087},{"Unnamed: 0":501,"title":"pizza hut restauran","address":"6970 al ulaya - Al Olaya Dist.","district":"Al Olaya ","latitude":24.687628303,"longitude":46.687885112,"id":10100003075},{"Unnamed: 0":502,"title":"pizza hut restauran","address":"7289 king fahd branch road - Al Murabba Dist.","district":"Al Murabba ","latitude":24.661980968,"longitude":46.701124609,"id":10100003021},{"Unnamed: 0":503,"title":"pizza hut restauran","address":"3464 Belal Bin Rabah - Tuwaiq Dist.","district":"Tuwaiq ","latitude":24.578570016,"longitude":46.570332303,"id":10100003102},{"Unnamed: 0":504,"title":"pizza inn restauran","address":"4240 prince muhammad ibn abdulaziz rd - Al Sulaimaniyah Dist.","district":"Al Sulaimaniyah ","latitude":24.702528348,"longitude":46.697214447,"id":10100003063},{"Unnamed: 0":505,"title":"pizza hut restauran","address":"7384 Al Maeer Sattam Bin Abdulaziz - Al Rafeah Dist.","district":"Al Rafeah ","latitude":24.637744693,"longitude":46.673637346,"id":10100003015},{"Unnamed: 0":506,"title":"pizza hutt restauran","address":"7368 King Fahd - Al Olaya Dist.","district":"Al Olaya ","latitude":24.687063599,"longitude":46.683870755,"id":10100003075},{"Unnamed: 0":507,"title":"pizza hut restauran","address":"7935 Ayshah Bin Abi Bakr - Dhahrat Al Badeah Dist.","district":"hahrat Al Badeah ","latitude":24.59878893,"longitude":46.645434066,"id":10100003091},{"Unnamed: 0":508,"title":"pizza hutt restauran","address":"2896 samahat ash shaikh abdul aziz ibn baz - Al Badeah Dist.","district":"Al Badeah ","latitude":24.622938587,"longitude":46.683783676,"id":10100003071},{"Unnamed: 0":509,"title":"pizza hut restauran","address":"2341 king abdullah ibn abdulaziz rd - Al Raed Dist.","district":"Al Raed ","latitude":24.706896789,"longitude":46.626458183,"id":10100003125},{"Unnamed: 0":510,"title":"pizza hut restauran","address":"4477 as suwaidi al am - Al Suwaidi Dist.","district":"Al Suwaidi ","latitude":24.596074504,"longitude":46.682413886,"id":10100003018},{"Unnamed: 0":511,"title":"pizza inn restauran","address":"7761 Ayshah Bin Abi Bakr - Dhahrat Al Badeah Dist.","district":"hahrat Al Badeah ","latitude":24.598239298,"longitude":46.64616954,"id":10100003091},{"Unnamed: 0":512,"title":"pizza inn restauran","address":"3356 makkah al mukarramah branch rd - North Mathar Dist.","district":"North Mathar ","latitude":24.676242113,"longitude":46.675438795,"id":10100003011},{"Unnamed: 0":513,"title":"popular yemeni restauran","address":"2736 ibn sina - Al Maseef Dist.","district":"Al Maseef ","latitude":24.762362748,"longitude":46.6757396692,"id":10100003084},{"Unnamed: 0":514,"title":"qasr mandi restauran","address":"8272 al imam abdul aziz ibn muhammad ibn saud - Olaishah Dist.","district":"Olaishah ","latitude":24.633328816,"longitude":46.692176676,"id":10100003053},{"Unnamed: 0":515,"title":"pomegranate orchards restauran","address":"6493 al muhandis masaid al anqari - Al Woroud Dist.","district":"Al Woroud ","latitude":24.717781247,"longitude":46.6814821366,"id":10100003026},{"Unnamed: 0":516,"title":"qasoor bukhari restauran","address":"2505  - Al Arid Dist.","district":"Al Arid ","latitude":24.9063062326,"longitude":46.6004443849,"id":10100003148},{"Unnamed: 0":517,"title":"pizza inn restauran","address":"3131 al urubah branch rd - West Umm Al Hamam Dist.","district":"West Umm Al Hamam ","latitude":24.698483115,"longitude":46.641035844,"id":10100003012},{"Unnamed: 0":518,"title":"prince bukhari food restauran","address":"4666 al imam muhammad ibn saud ibn muqrin - Al Shumaisi Dist.","district":"Al Shumaisi ","latitude":24.628696596,"longitude":46.701455425,"id":10100003113},{"Unnamed: 0":519,"title":"qimmat at tahi restauran","address":"7094 abdullah ibn sulaiman al hamadan - Al Olaya Dist.","district":"Al Olaya ","latitude":24.706264775,"longitude":46.690828976,"id":10100003075},{"Unnamed: 0":520,"title":"pizza inn restauran","address":"3145 dirab branch road - Al Shifa Dist.","district":"Al Shifa ","latitude":24.57196737,"longitude":46.6930683,"id":10100003061},{"Unnamed: 0":521,"title":"punjab sweets and restauran","address":"7884 al ajaliyah - Al Shumaisi Dist.","district":"Al Shumaisi ","latitude":24.62972794,"longitude":46.697173707,"id":10100003113},{"Unnamed: 0":522,"title":"rabieh restauran","address":"3918 umar ibn abdul aziz branch rd - Al Rayan Dist.","district":"Al Rayan ","latitude":24.6975387822,"longitude":46.7806845303,"id":10100003090},{"Unnamed: 0":523,"title":"ranwah restauran","address":"8866 Ayshah Bin Abi Bakr - Al Zahrah Dist.","district":"Al Zahrah ","latitude":24.587039725,"longitude":46.653157803,"id":10100003067},{"Unnamed: 0":524,"title":"rawabi al qassim restauran","address":"6873 Ayshah Bin Abi Bakr - Al Suwaidi Dist.","district":"Al Suwaidi ","latitude":24.577716597,"longitude":46.660942842,"id":10100003018},{"Unnamed: 0":525,"title":"raheeb restauran","address":"4072 al imam faisal ibn turki ibn abdullah - Al Wisham Dist.","district":"Al Wisham ","latitude":24.637373869,"longitude":46.695613303,"id":10100003114},{"Unnamed: 0":526,"title":"rashin restauran","address":"6741 al amir matab ibn abdul aziz - Al Rabwah Dist.","district":"Al Rabwah ","latitude":24.6794878161,"longitude":46.7691854305,"id":10100003047},{"Unnamed: 0":527,"title":"raam restauran","address":"7491 khalid ibn al walid - Ghirnatah Dist.","district":"Ghirnatah ","latitude":24.7972719482,"longitude":46.7422637555,"id":10100003155},{"Unnamed: 0":528,"title":"rama pizza restauran","address":"7033 ali al fazari - Al Munisiyah Dist.","district":"Al Munisiyah ","latitude":24.8245700143,"longitude":46.7811538986,"id":10100003140},{"Unnamed: 0":529,"title":"rawabi al janoub restauran","address":"7511 habibah bint abi sufyan - West Oraija Dist.","district":"West Oraija ","latitude":24.590363733,"longitude":46.606755493,"id":10100003126},{"Unnamed: 0":530,"title":"rahmath indian restauran","address":"3841 al amir majid ibn abdul aziz - Al Rayan Dist.","district":"Al Rayan ","latitude":24.7125454389,"longitude":46.7799321571,"id":10100003090},{"Unnamed: 0":531,"title":"rasi restauran","address":"3380 fatimah az zahra - Al Zahra Dist.","district":"Al Zahra ","latitude":24.6851406205,"longitude":46.7363456029,"id":10100003132},{"Unnamed: 0":532,"title":"rawafid alearab restauran","address":"6343 king fahad branch rd - Al Arid Dist.","district":"Al Arid ","latitude":24.8466041863,"longitude":46.6047991041,"id":10100003148},{"Unnamed: 0":533,"title":"red sea restauran","address":"9055 falih ibn saghir - Al Murabba Dist.","district":"Al Murabba ","latitude":24.650286787,"longitude":46.709386469,"id":10100003021},{"Unnamed: 0":534,"title":"renad alsham restauran","address":"3075 wadi ad dawasir - Al Qadisiyah Dist.","district":"Al Qadisiyah ","latitude":24.8232806032,"longitude":46.8224765963,"id":10100003073},{"Unnamed: 0":535,"title":"rayiz restauran","address":"6651 king fahad branch rd - Al Arid Dist.","district":"Al Arid ","latitude":24.8487397526,"longitude":46.6035617844,"id":10100003148},{"Unnamed: 0":536,"title":"ريف العلا","address":"4152 Prince Mohammed Ibn Salman Ibn Abdulaziz Rd - Qurtubah Dist.","district":"Qurtubah ","latitude":24.8233535139,"longitude":46.7467911616,"id":10100003101},{"Unnamed: 0":537,"title":"Raydan Restaurants","address":"7581 khalid ibn al walid - Al Andalus Dist.","district":"Al Andalus ","latitude":24.7446740263,"longitude":46.7767468915,"id":10100003087},{"Unnamed: 0":538,"title":"redan restauran","address":"2995 al amir turki ibn abdul aziz ath thani - Al Muruj Dist.","district":"Al Muruj ","latitude":24.757194102,"longitude":46.6603340625,"id":10100003110},{"Unnamed: 0":539,"title":"rawabi najd restauran","address":"7816 sulaiman ibn majid - Middle Oraija Dist.","district":"Middle Oraija ","latitude":24.616981693,"longitude":46.643267483,"id":10100003128},{"Unnamed: 0":540,"title":"red oten restauran","address":"9073 al ulaya - Al Olaya Dist.","district":"Al Olaya ","latitude":24.678381586,"longitude":46.693252505,"id":10100003075},{"Unnamed: 0":541,"title":"reem restauran","address":"7898 al ajaliyah - Al Shumaisi Dist.","district":"Al Shumaisi ","latitude":24.629834235,"longitude":46.697182482,"id":10100003113},{"Unnamed: 0":542,"title":"restauran","address":"6087  - Al Arid Dist.","district":"Al Arid ","latitude":24.8601623561,"longitude":46.5982418726,"id":10100003148},{"Unnamed: 0":543,"title":"restaurant adana for bbq","address":"4178 al amir saad ibn abdulrahman al awal rd - East Naseem Dist.","district":"East Naseem ","latitude":24.7157146597,"longitude":46.8515715769,"id":10100003080},{"Unnamed: 0":544,"title":"restaurant and grill bukhar","address":"6641 al muhandis masaid al anqari - Al Woroud Dist.","district":"Al Woroud ","latitude":24.7191185041,"longitude":46.6808016108,"id":10100003026},{"Unnamed: 0":545,"title":"restauran","address":"4118 abu ubaydah amir ibn al jarrah - Al Fayha Dist.","district":"Al Fayha ","latitude":24.6732098538,"longitude":46.8167761432,"id":10100003133},{"Unnamed: 0":546,"title":"restaurant alzzajil bukhar","address":"4009 anas ibn malik - Al Sahafah Dist.","district":"Al Sahafah ","latitude":24.8182333612,"longitude":46.6424680639,"id":10100003123},{"Unnamed: 0":547,"title":"restauran","address":"6743 Al Imam Al Shafie - Al Salam Dist.","district":"Al Salam ","latitude":24.6993228909,"longitude":46.8050129327,"id":10100003078},{"Unnamed: 0":548,"title":"restaurant al ziafa","address":"3995 al qana - Al Yasmeen Dist.","district":"Al Yasmeen ","latitude":24.8344860403,"longitude":46.6550471509,"id":10100003147},{"Unnamed: 0":549,"title":"restauran","address":"3371 prince muhammad ibn abdulaziz rd - Al Sulaimaniyah Dist.","district":"Al Sulaimaniyah ","latitude":24.701817918,"longitude":46.697575594,"id":10100003063},{"Unnamed: 0":550,"title":"restaurant  bukhar","address":"2319 salah ad din al ayyubi rd - Al Safa Dist.","district":"Al Safa ","latitude":24.6693129405,"longitude":46.7516924672,"id":10100003074},{"Unnamed: 0":551,"title":"مطعم ومقهى مشاغيث","address":"2748 Prince Mohammed Ibn Salman Ibn Abdulaziz Rd - Qurtubah Dist.","district":"Qurtubah ","latitude":24.817460804,"longitude":46.7329123407,"id":10100003101},{"Unnamed: 0":552,"title":"restaurants and kitchens erez palac","address":"3511 ad dammam rd - Al Yarmuk Dist.","district":"Al Yarmuk ","latitude":24.8134171631,"longitude":46.7731662784,"id":10100003139},{"Unnamed: 0":553,"title":"restaurants and kitchens majlis azzam","address":"8313 an najah - Ishbiliyah Dist.","district":"Ishbiliyah ","latitude":24.8020855702,"longitude":46.804787707,"id":10100003137},{"Unnamed: 0":554,"title":"restaurants and kitchens of the era of riyadh","address":"4173 Al Shaikh Abdullah Al Anqari - Al Woroud Dist.","district":"Al Woroud ","latitude":24.7269695952,"longitude":46.6888289009,"id":10100003026},{"Unnamed: 0":555,"title":"restaurants and kitchens erez palac","address":"2675 King Abdulaziz - Al Mursalat Dist.","district":"Al Mursalat ","latitude":24.7415201266,"longitude":46.6831478073,"id":10100003024},{"Unnamed: 0":556,"title":"restaurants and kitchens meez riyadh","address":"7115 Othman Bin Affan - Al Mughrazat Dist.","district":"Al Mughrazat ","latitude":24.7620207017,"longitude":46.7165948461,"id":10100003105},{"Unnamed: 0":557,"title":"restaurants and kitchens amo abu saleh","address":"8701 Saad Bin Abi Waqqas - West Naseem Dist.","district":"West Naseem ","latitude":24.7274750673,"longitude":46.8200030549,"id":10100003167},{"Unnamed: 0":558,"title":"Restaurants and kitchens Noir Food Yemen","address":"8354 Hassan Bin Thabit - West Naseem Dist.","district":"West Naseem ","latitude":24.7242296066,"longitude":46.8396908527,"id":10100003167},{"Unnamed: 0":559,"title":"restaurants and kitchens happy flavor mandi and madhb","address":"3629 al imam saud ibn abdulaziz rd - King Fahd Dist.","district":"King Fahd ","latitude":24.7523228602,"longitude":46.6749287621,"id":10100003017},{"Unnamed: 0":560,"title":"restaurants and kitchens najd","address":"8440 ash shaikh hasan ibn hussain ibn ali - King Faisal Dist.","district":"King Faisal ","latitude":24.7690300668,"longitude":46.7815174949,"id":10100003027},{"Unnamed: 0":561,"title":"restaurants bader","address":"7351 al qana - Al Munisiyah Dist.","district":"Al Munisiyah ","latitude":24.8196761852,"longitude":46.7618720533,"id":10100003140},{"Unnamed: 0":562,"title":"rimaz restaurants","address":"2773 king abdullah ibn abdul aziz rd - Al Quds Dist.","district":"Al Quds ","latitude":24.7625028908,"longitude":46.7465282739,"id":10100003081},{"Unnamed: 0":563,"title":"riyadh restauran","address":"2604 Belal Bin Rabah - West Oraija Dist.","district":"West Oraija ","latitude":24.587440229,"longitude":46.600889485,"id":10100003126},{"Unnamed: 0":564,"title":"\"restaurants chef's corner\"","address":"2921 ad dammam rd - Al Janadriyah Dist.","district":"Al Janadriyah ","latitude":24.9095089163,"longitude":46.9289713389,"id":10100003136},{"Unnamed: 0":565,"title":"بخاري الرياض","address":"7846 Othman Bin Affan - Al Narjis Dist.","district":"Al Narjis ","latitude":24.8758927559,"longitude":46.657918839,"id":10100003150},{"Unnamed: 0":566,"title":"roasters restauran","address":"6395 al ulaya - Al Olaya Dist.","district":"Al Olaya ","latitude":24.7000288,"longitude":46.682548377,"id":10100003075},{"Unnamed: 0":567,"title":"restaurants emtyaz  damascen","address":"3096 ash shaikh abdulaziz ibn abdulrahman ibn bishr - Al Khaleej Dist.","district":"Al Khaleej ","latitude":24.7753199696,"longitude":46.7873011048,"id":10100003055},{"Unnamed: 0":568,"title":"riyadh bukhari restauran","address":"5053 al jawharah bint ibn muammar - Al Sharafiyah Dist.","district":"Al Sharafiyah ","latitude":24.656021888,"longitude":46.67307285,"id":10100003009},{"Unnamed: 0":569,"title":"restaurants toarn art of cooking alhaila","address":"8370 ash shaikh hasan ibn hussain ibn ali - Al Hamra Dist.","district":"Al Hamra ","latitude":24.7890217362,"longitude":46.7669613312,"id":10100003129},{"Unnamed: 0":570,"title":"riyadh chinese restauran","address":"7678  Abdullah Bin Rawaha - Al Sulaimaniyah Dist.","district":"Al Sulaimaniyah ","latitude":24.711465085,"longitude":46.696974027,"id":10100003063},{"Unnamed: 0":571,"title":"rokn almthaq restauran","address":"6739 an najah - Al Yarmuk Dist.","district":"Al Yarmuk ","latitude":24.813110371,"longitude":46.7993359824,"id":10100003139},{"Unnamed: 0":572,"title":"rosemary restauran","address":"6709 at takhassusi - Al Nakheel Dist.","district":"Al Nakheel ","latitude":24.7413901723,"longitude":46.6454974107,"id":10100003108},{"Unnamed: 0":573,"title":"rukn alwalima restauran","address":"4404 al imam saud ibn faysal rd - Al Malqa Dist.","district":"Al Malqa ","latitude":24.793267048,"longitude":46.6281610705,"id":10100003145},{"Unnamed: 0":574,"title":"rose restauran","address":"5199 al ris - Al Shumaisi Dist.","district":"Al Shumaisi ","latitude":24.6201873,"longitude":46.701823009,"id":10100003113},{"Unnamed: 0":575,"title":"royal restaurant mtluth","address":"7481 Salman Al Farsi - Al Khaleej Dist.","district":"Al Khaleej ","latitude":24.7807981572,"longitude":46.7976672259,"id":10100003055},{"Unnamed: 0":576,"title":"romantic restaurants","address":"3659 ash shaikh ishaq ibn abdul rahman ibn hasan - Al Zahrah Dist.","district":"Al Zahrah ","latitude":24.573816604,"longitude":46.646543649,"id":10100003067},{"Unnamed: 0":577,"title":"\"rowad al fada' bukhari restaurant\"","address":"7317  - Manfuha Al Jadidah Dist.","district":"Manfuha Al Jadidah ","latitude":24.61641785,"longitude":46.710369626,"id":10100003005},{"Unnamed: 0":578,"title":"romantic house restauran","address":"4932 abu ubaydah amir ibn al jarrah - Al Fayha Dist.","district":"Al Fayha ","latitude":24.6769606059,"longitude":46.8248812156,"id":10100003133},{"Unnamed: 0":579,"title":"roukn algithaa restauran","address":"7324 Saad Bin Abi Waqqas - West Naseem Dist.","district":"West Naseem ","latitude":24.7373117465,"longitude":46.8119376427,"id":10100003167},{"Unnamed: 0":580,"title":"رمانة قرطية","address":"3891 al qalam - Qurtubah Dist.","district":"Qurtubah ","latitude":24.8133401084,"longitude":46.7508124177,"id":10100003101},{"Unnamed: 0":581,"title":"جزيرة الريان","address":"7864 prince faisal bin bandar bin abdul aziz road - Al Narjis Dist.","district":"Al Narjis ","latitude":24.8509816429,"longitude":46.6809179208,"id":10100003150},{"Unnamed: 0":582,"title":"sager restauran","address":"8096 Hamzah Bin Abdulmuttaleb - West Suwaidi Dist.","district":"West Suwaidi ","latitude":24.579178613,"longitude":46.630845979,"id":10100003057},{"Unnamed: 0":583,"title":"sahwah restauran","address":"2805 dirab branch road - Al Shifa Dist.","district":"Al Shifa ","latitude":24.568966873,"longitude":46.689689041,"id":10100003061},{"Unnamed: 0":584,"title":"runq alktkwt restauran","address":"2685 ibn sina - Al Maseef Dist.","district":"Al Maseef ","latitude":24.7615571022,"longitude":46.675116647,"id":10100003084},{"Unnamed: 0":585,"title":"saba tower restauran","address":"4232 al imam ahmad ibn hanbal - West Naseem Dist.","district":"West Naseem ","latitude":24.7320888891,"longitude":46.8257963137,"id":10100003167},{"Unnamed: 0":586,"title":"sahayib tayiba restauran","address":"6530 al muhandis masaid al anqari - Al Woroud Dist.","district":"Al Woroud ","latitude":24.7182224784,"longitude":46.6807319124,"id":10100003026},{"Unnamed: 0":587,"title":"\"sa'ad restaurant\"","address":"3735 Amr Bin Al As - Olaishah Dist.","district":"Olaishah ","latitude":24.640853222,"longitude":46.692170737,"id":10100003053},{"Unnamed: 0":588,"title":"sahab restauran","address":"2976 Belal Bin Rabah - Tuwaiq Dist.","district":"Tuwaiq ","latitude":24.578950629,"longitude":46.565513692,"id":10100003102},{"Unnamed: 0":589,"title":"sab marion seefood restauran","address":"2767 abdullah ibn badil - West Naseem Dist.","district":"West Naseem ","latitude":24.7208618313,"longitude":46.8227138559,"id":10100003167},{"Unnamed: 0":590,"title":"sahari albadiah restauran","address":"4045 al amir saad ibn abdulrahman al awal rd - Al Saadah Dist.","district":"Al Saadah ","latitude":24.7166716279,"longitude":46.854462163,"id":10100003036},{"Unnamed: 0":591,"title":"سمرقندي","address":"2407 ath thumamah rd - Qurtubah Dist.","district":"Qurtubah ","latitude":24.8305999774,"longitude":46.7294814509,"id":10100003101},{"Unnamed: 0":592,"title":"sarees restauran","address":"2957 al bahar al ahmar - Al Wadi Dist.","district":"Al Wadi ","latitude":24.7865519768,"longitude":46.6874248772,"id":10100003082},{"Unnamed: 0":593,"title":"sea fish restauran","address":"2965 abdulmalek ibn marwen - Al Olaya Dist.","district":"Al Olaya ","latitude":24.675404818,"longitude":46.698437576,"id":10100003075},{"Unnamed: 0":594,"title":"salah grill restauran","address":"2781 king abdullah ibn abdul aziz rd - Al Quds Dist.","district":"Al Quds ","latitude":24.7625552389,"longitude":46.746642488,"id":10100003081},{"Unnamed: 0":595,"title":"sarb alhamam restauran","address":"7744 an najah - Al Yarmuk Dist.","district":"Al Yarmuk ","latitude":24.8144861106,"longitude":46.7977850131,"id":10100003139},{"Unnamed: 0":596,"title":"saudia restauran","address":"7413 al qamh - Namar Dist.","district":"Namar ","latitude":24.57370746,"longitude":46.675971419,"id":10100003060},{"Unnamed: 0":597,"title":"sanabil al khair restauran","address":"2827 al amir musaid ibn abdul rahman ibn faisal road - Middle Oraija Dist.","district":"Middle Oraija ","latitude":24.598261969,"longitude":46.623125445,"id":10100003128},{"Unnamed: 0":598,"title":"saudi ideal restauran","address":"3651 al imam abi hanifah - Middle Oraija Dist.","district":"Middle Oraija ","latitude":24.611016911,"longitude":46.631494686,"id":10100003128},{"Unnamed: 0":599,"title":"saqr al khaleej restauran","address":"4469 Hamzah Bin Abdulmuttaleb - West Oraija Dist.","district":"West Oraija ","latitude":24.610680842,"longitude":46.60741512,"id":10100003126},{"Unnamed: 0":600,"title":"saudi restauran","address":"6300 Saad Bin Abi Waqqas - West Naseem Dist.","district":"West Naseem ","latitude":24.7281299912,"longitude":46.8186561692,"id":10100003167}]