,title,address,district,latitude,longitude,id
0,مسجد,7619 Baghdad - Al Yarmuk Dist.,Al Yarmuk ,24.8057950955403,46.7646884930764,10100003139
1,مسجد,6485 ibn yasmini - Al Aziziyah Dist.,Al Aziziyah ,24.5790823022925,46.7886825295095,10100003029
2,مسجد,6480 abi al faraj ad dawadmi - Middle Oraija Dist.,Middle Oraija ,24.6055408640001,46.6156480020001,10100003128
3,مسجد,2921 ad dammam rd - Al Janadriyah Dist.,Al Janadriyah ,24.9106153656415,46.9284835493819,10100003136
4,مسجد,4731 abi al ashbal - Jareer Dist.,Jareer ,24.6874153600978,46.753703437133,10100003048
5,مسجد,3307  - Dhahrat Al Badeah Dist.,hahrat Al Badeah ,24.5942047950002,46.6372390200001,10100003091
6,مسجد,7689 ibn abi al birr - Middle Oraija Dist.,Middle Oraija ,24.6158309170002,46.636588965,10100003128
7,مسجد,2601 al faydhiya - Irqah,Irqah,24.6859791400001,46.5882585610001,10100003142
8,مسجد,6870 ibn tahir - Al Murabba Dist.,Al Murabba ,24.6726072220002,46.7077719810001,10100003021
9,مسجد,6622 al bashair - Al Suwaidi Dist.,Al Suwaidi ,24.5868971440001,46.6641991060002,10100003018
10,مسجد,8820 muhammad ibn abi al azhar - Dhahrat Al Badeah Dist.,hahrat Al Badeah ,24.6066678180001,46.6696845890001,10100003091
11,مسجد,7717 at tarfiyah - Middle Oraija Dist.,Middle Oraija ,24.6160407270001,46.6417556870001,10100003128
12,مسجد,7387 muhammad ibn muqrin - Middle Oraija Dist.,Middle Oraija ,24.6012010900002,46.6205568790001,10100003128
13,مسجد,7993 wag valley - Al Malqa Dist.,Al Malqa ,24.8041685881564,46.6162536514008,10100003145
14,مسجد,4211 khulais - Middle Oraija Dist.,Middle Oraija ,24.6060341890001,46.6368870040001,10100003128
15,مسجد,8057 King Fahd - Al Muruj Dist.,Al Muruj ,24.7462677588669,46.6580946753155,10100003110
16,مسجد,7772 as saharawi - Al Zahrah Dist.,Al Zahrah ,24.5769758280001,46.6581163180002,10100003067
17,مسجد,6577 street no. 314 - Al Munisiyah Dist.,Al Munisiyah ,24.8368136453369,46.7739289380444,10100003140
18,مسجد,4483 al muraqish al asghar - West Oraija Dist.,West Oraija ,24.577551418,46.6004640970001,10100003126
19,مسجد,4206 Belal Bin Rabah - Tuwaiq Dist.,Tuwaiq ,24.5802434020001,46.5514787660001,10100003102
20,مسجد,6679 yusuf ath thaqafi - West Suwaidi Dist.,West Suwaidi ,24.5665261450001,46.627518191,10100003057
21,مسجد,3405 Anas Bin Malek - Al Malqa Dist.,Al Malqa ,24.8078776506404,46.6186208793794,10100003145
22,مسجد,2896 dirab branch rd - Namar Dist.,Namar ,24.562191349,46.6804001740001,10100003060
23,مسجد عبدالله العقيل ووالديه,2993 muhammad al manofi - Al Narjis Dist.,Al Narjis ,24.8795630491403,46.6379960436158,10100003150
24,مسجد,3488 no. 408 - Al Malqa Dist.,Al Malqa ,24.8101860608826,46.6107154545217,10100003145
25,مسجد,4802 Al Shihab Al Tayib - West Oraija Dist.,West Oraija ,24.5968258190001,46.5890821480001,10100003126
26,مسجد,4187 Zarqaa Al Yamama - Al Murabba Dist.,Al Murabba ,24.656589326,46.7101329700001,10100003021
27,مسجد,6725 al makhzumi - Al Yarmuk Dist.,Al Yarmuk ,24.7974800138306,46.7754541799741,10100003139
28,مسجد,8344 al khalifah al mamun - Badr Dist.,Badr ,24.530774396,46.6942745300001,10100003164
29,مسجد,3325 al khuzam - Dirab Dist.,ab ,24.4896676460681,46.6160940659788,10100003058
30,مسجد,3121 as sail al kabir - Al Ghadeer Dist.,Al Ghadeer ,24.7706538297629,46.6498972688913,10100003109
31,مسجد,4201 al ajmi - Shubra Dist.,Shubra ,24.5676799510002,46.6518545430001,10100003066
32,مسجد,7739 abi al fadl ad darir - West Oraija Dist.,West Oraija ,24.588221042,46.5938357950001,10100003126
33,مسجد,8250 al wafra - Al Zahrah Dist.,Al Zahrah ,24.581324147,46.6548479970002,10100003067
34,مسجد,4131 southern ring rd - Namar Dist.,Namar ,24.5661615830001,46.6547153340001,10100003060
35,abdullah bin abbas,may allah be pleased with him mosqu,Street': 'ahamad bin al khattab,UnitNumber': Non,atitude': '24.5631017918352,PKAddressID': '1451532866181
36,مسجد,3589 al mashtal - Al Hazm Dist.,Al Hazm ,24.546764094,46.649177862,10100003019
37,مسجد,6466 la jamuh - Tuwaiq Dist.,Tuwaiq ,24.589679845,46.5553116880001,10100003102
38,مسجد,6998 ammarat ibn safwan - West Suwaidi Dist.,West Suwaidi ,24.5693098180001,46.6335920000001,10100003057
39,مسجد,4445 as sihah - Irqah,Irqah,24.6905866320001,46.6065500930001,10100003142
40,مسجد,3329 baydah - Al Aqeeq Dist.,Al Aqeeq ,24.7741506203339,46.6343060219198,10100003107
41,مسجد,4117 jabal as suda - Middle Oraija Dist.,Middle Oraija ,24.613158435,46.649344872,10100003128
42,مسجد,3625 prince abdullah ibn saud ibn abdullah ath thunayy - Al Sahafah Dist.,Al Sahafah ,24.8073941512522,46.6395162033762,10100003123
43,مسجد,4014 abi al hasan al masri - Al Hamra Dist.,Al Hamra ,24.7698622925635,46.7504314950706,10100003129
44,مسجد,6701 ash shuwimis - Al Zahrah Dist.,Al Zahrah ,24.5674700100001,46.6424732900001,10100003067
45,مسجد,3639 zamil ibn salim - Al Rawabi Dist.,Al Rawabi ,24.6952008248119,46.7897343367183,10100003089
46,مسجد,3740 ahmad al ghafi - Al Rahmaniyah Dist.,Al Rahmaniyah ,24.7245272494179,46.6640640736261,10100003013
47,مسجد,7289 ad dir al arabi - Al Saadah Dist.,Al Saadah ,24.6892632298402,46.8305331855872,10100003036
48,مسجد,7212 wadi thumamah - West Oraija Dist.,West Oraija ,24.6021036650002,46.6007132130001,10100003126
49,مسجد,3386 prince faysal abdullah ibn abdulrahman - Hitteen Dist.,Hitteen ,24.7703231020183,46.5860291450048,10100003144
50,مسجد,7345 al awwadi - West Suwaidi Dist.,West Suwaidi ,24.5726191410001,46.6188356070002,10100003057
51,مسجد,4936 al madhnab - Al Sulaimaniyah Dist.,Al Sulaimaniyah ,24.706123973,46.7041066320001,10100003063
52,مسجد,6421 eastern ring branch rd - Al Hamra Dist.,Al Hamra ,24.7637213100257,46.7381297592323,10100003129
53,مسجد,7418 abi bakr as siddiq branch - Al Maseef Dist.,Al Maseef ,24.7661559810363,46.6916581502383,10100003084
54,مسجد,7344 ash shaikh sulaiman ibn abdullah ibn muhammad - Al Khaleej Dist.,Al Khaleej ,24.768851349492,46.7948644567833,10100003055
55,مسجد,3304 Al Zubair Bin Al Awwam - Al Rawabi Dist.,Al Rawabi ,24.6921534221426,46.7864215946023,10100003089
56,مسجد,3509 al nassefa - Al Sahafah Dist.,Al Sahafah ,24.8153638501665,46.6374979250227,10100003123
57,مسجدأبوعبيده,3190  - Al Narjis Dist.,Al Narjis ,24.8704137495003,46.6476757551231,10100003150
58,مسجدالدخيل,3612 ushba - Al Shohda Dist.,Al Shohda ,24.7950483043424,46.7381099261954,10100003016
59,مسجد,6757 al jahidh - Al Hamra Dist.,Al Hamra ,24.7666052167649,46.7410707730354,10100003129
60,مسجد,3577 mawdud arsalan - West Oraija Dist.,West Oraija ,24.5819437110001,46.591505925,10100003126
61,مسجد,8051 bakr ibn an nutah - Al Sulaimaniyah Dist.,Al Sulaimaniyah ,24.698532375,46.6962457110001,10100003063
62,مسجد,9310 Al Diyaa - Al Rayan Dist.,Al Rayan ,24.7243619064801,46.7847736319467,10100003090
63,مسجد,3854 urwah ibn udhaina - Al Zahrah Dist.,Al Zahrah ,24.5718357490001,46.6483685990002,10100003067
64,مسجد,3840 ad dahin - Al Manar Dist.,Al Manar ,24.7276299344764,46.8015532234852,10100003079
65,مسجد,4816 as sulaylan - Shubra Dist.,Shubra ,24.5691431820002,46.6577605850001,10100003066
66,مسجد,4785 al hammadah - Al Suwaidi Dist.,Al Suwaidi ,24.593250928,46.6712463750002,10100003018
67,مسجد,3860 king fahad branch rd - Al Malqa Dist.,Al Malqa ,24.807246996678,46.6231635318043,10100003145
68,مسجد,8099 muhammad al khattab - Al Marwah Dist.,Al Marwah ,24.5439635620001,46.6658284020002,10100003064
69,مسجد,3059 umar ibn abdul aziz branch rd - Al Rabwah Dist.,Al Rabwah ,24.6913673923477,46.7648893101709,10100003047
70,مسجد,7323 al bohayrat - Middle Oraija Dist.,Middle Oraija ,24.6005226990001,46.6297458130001,10100003128
71,مسجد,9022 ata ibn abi rubah - Al Murabba Dist.,Al Murabba ,24.6499734600001,46.7069274860001,10100003021
72,مسجد,6565 rawdat - Badr Dist.,Badr ,24.5336687850001,46.6986156220001,10100003164
73,مسجد,6575 Othman Bin Affan - Al Falah Dist.,Al Falah ,24.7902290412443,46.7026361610576,10100003022
74,مسجد,4089 Tameem Al Dari - Shubra Dist.,Shubra ,24.5835272510001,46.6785965770001,10100003066
75,مسجد,7373 al aziziah rd - Al Aziziyah Dist.,Al Aziziyah ,24.5984419211474,46.772313922533,10100003029
76,مسجد,7401 street no. 75 - Al Yasmeen Dist.,Al Yasmeen ,24.8153486567671,46.6467793101086,10100003147
77,مسجد,3957 said ibn musib - West Umm Al Hamam Dist.,West Umm Al Hamam ,24.6915233670001,46.6490102370001,10100003012
78,مسجد,6322 Al Haytham Bin Obaid - Al Duraihemiyah Dist.,Al Duraihemiyah ,24.588342313,46.6935645280002,10100003076
79,مسجد,3805 muhna ibn isa - Dhahrat Al Badeah Dist.,hahrat Al Badeah ,24.5937562460001,46.6421797860002,10100003091
80,مسجد,7224 al hair rd - Al Haer Dist.,Al Haer ,24.3967439677312,46.8336852412116,10100003159
81,مسجد,8546 abi al faraj al katib - West Umm Al Hamam Dist.,West Umm Al Hamam ,24.69763177,46.64247697,10100003012
82,مسجد,7025 al washimah - Tuwaiq Dist.,Tuwaiq ,24.5819563910001,46.5795192240001,10100003102
83,مسجد,7561 farsan - East Umm Al Hamam Dist.,East Umm Al Hamam ,24.6888039390001,46.6531917770001,10100003008
84,مسجد,4639 abi ar ruh ash shafi - West Suwaidi Dist.,West Suwaidi ,24.5753877200001,46.6310641130001,10100003057
85,مسجد,8501 al wafra - Al Zahrah Dist.,Al Zahrah ,24.5835966970001,46.6539841530001,10100003067
86,مسجد,8192  - Al Sulaimaniyah Dist.,Al Sulaimaniyah ,24.6844751050001,46.7078994310001,10100003063
87,مسجد,7261 mahfudh ash shafi - Al Suwaidi Dist.,Al Suwaidi ,24.5926101080001,46.6681986500002,10100003018
88,مسجد,7257 street no. 20 - Al Yasmeen Dist.,Al Yasmeen ,24.8139907885021,46.650181017005,10100003147
89,مسجد,7667 al salim - Dhahrat Al Badeah Dist.,hahrat Al Badeah ,24.5953719320001,46.6401095570002,10100003091
90,مسجدالخير,7372 al ashi bin khais - Qurtubah Dist.,Qurtubah ,24.8049859016906,46.7214022668327,10100003101
91,مسجد,7374 abi al alaa al maari - Al Malaz Dist.,Al Malaz ,24.6731381895176,46.7333288106377,10100003051
92,مسجد,7821 Maymun Bint Al Harith - Dhahrat Al Badeah Dist.,hahrat Al Badeah ,24.5978133560002,46.6542425940001,10100003091
93,مسجد,5324 Khadeejah Bint Khuwaylid - West Oraija Dist.,West Oraija ,24.5908185500002,46.5938899400002,10100003126
94,مسجد,3074  - Al Badeah Dist.,Al Badeah ,24.6150516600001,46.6853911000002,10100003071
95,مسجد,7974 abi al hasan al qassar - Al Zahrah Dist.,Al Zahrah ,24.5789156500002,46.6455494420001,10100003067
96,مسجد,6372 masoud bin dahmash - Al Qairawan Dist.,Al Qairawan ,24.8222745384281,46.6002694517459,10100003146
97,مسجد,3899 al jadwal - Al Dar Al Baida Dist.,Al Dar Al Baida ,24.5556549162807,46.7902509765003,10100003130
98,مسجد,7579 al babeya - Al Dar Al Baida Dist.,Al Dar Al Baida ,24.5697396163609,46.7983727363393,10100003130
99,مسجد,3455 northern ring rd - Al Taawun Dist.,Al Taawun ,24.7828481116319,46.7008420656023,10100003085
100,مسجد,8134 king abdulaziz branch rd - Al Woroud Dist.,Al Woroud ,24.7326164590112,46.6866445568782,10100003026
101,مسجد,3325 no. 420 - Al Malqa Dist.,Al Malqa ,24.8073743291445,46.6090847424763,10100003145
102,مسجد,4149 Salman Al Hanbali - West Oraija Dist.,West Oraija ,24.5960191090002,46.6163986430001,10100003126
103,مسجد,6833 no. 353 - Al Malqa Dist.,Al Malqa ,24.810047661516,46.6035829527387,10100003145
104,مسجد,4620 al farisah - Al Jarradiyah Dist.,Al Jarradiyah ,24.6156960060001,46.6960607510001,10100003003
105,مسجد,2737 muthibah - Al Shifa Dist.,Al Shifa ,24.5783118760001,46.7033385800001,10100003061
106,مسجد,2741 abi firas al hamdani - Al Raed Dist.,Al Raed ,24.704766887,46.63042661,10100003125
107,مسجد,2649 king salman bin abdul aziz rd - Al Malqa Dist.,Al Malqa ,24.8211371521908,46.6024983819461,10100003145
108,مسجد,8882 prince abdulaziz ibn musaid ibn jalawi - Al Olaya Dist.,Al Olaya ,24.67435676,46.7019677050001,10100003075
109,مسجد,7672 al amir mitib ibn abdul aziz - Al Rabwah Dist.,Al Rabwah ,24.7033173641337,46.7583607675155,10100003047
110,مسجد,4604 al madinah al munawarah - West Oraija Dist.,West Oraija ,24.5867805810001,46.6206075700001,10100003126
111,مسجد,7046 Unayzah - Al Rawabi Dist.,Al Rawabi ,24.6888705067515,46.7881979187463,10100003089
112,مسجد,7220 al matar - Al Fayha Dist.,Al Fayha ,24.678871679052,46.8064180438491,10100003133
113,مسجد,6966 yusuf ibn an nahwi - West Oraija Dist.,West Oraija ,24.5812243290001,46.5948603740002,10100003126
114,مسجد,6778 al irwanah - West Oraija Dist.,West Oraija ,24.5981467290002,46.5965347740002,10100003126
115,مسجد,8137 Hayat Bin Qays - Al Jarradiyah Dist.,Al Jarradiyah ,24.6176670500001,46.6981949050001,10100003003
116,مسجد,2918 al ardiyyah - Al Rabwah Dist.,Al Rabwah ,24.6924260638665,46.7541045763801,10100003047
117,مسجد,2612 yusuf abi al muhasin - Al Shifa Dist.,Al Shifa ,24.5741914850001,46.7018497020001,10100003061
118,مسجد,3068 abdulaziz al bawardi - Al Khaleej Dist.,Al Khaleej ,24.7767528809766,46.7870568531516,10100003055
119,مسجد,4236 prince saad ibn abdulrahman al awal rd - Al Salam Dist.,Al Salam ,24.6962503405254,46.8165979897267,10100003078
120,مسجد,3848 as sanhaji - Shubra Dist.,Shubra ,24.5802891840001,46.675828003,10100003066
121,مسجد,3409 wadi as sarh - Al Wadi Dist.,Al Wadi ,24.7896407832029,46.6918487018364,10100003082
122,مسجد,3927 al hayari - Dirab Dist.,ab ,24.4879657365836,46.6220275494296,10100003058
123,مسجد,8429 abdul rahman ibn salim - Al Rafeah Dist.,Al Rafeah ,24.6471668600001,46.6689357010001,10100003015
124,مسجد,5236  - Oraid Dist.,Oraid ,24.4777591881067,46.7725660034118,10100003163
125,مسجد,8717 abi al manaqib ad dainuri - West Suwaidi Dist.,West Suwaidi ,24.5850012940001,46.6210763390001,10100003057
126,مسجد,7131 al wadiy - West Oraija Dist.,West Oraija ,24.594029945,46.5908165980001,10100003126
127,مسجد,6643 Kaab Bin Zuhair - Al Suwaidi Dist.,Al Suwaidi ,24.587067495,46.6659855230001,10100003018
128,مسجد,8773 dirab rd - Al Marwah Dist.,Al Marwah ,24.5499848440001,46.6702238910001,10100003064
129,مسجد,3502 sadir - Al Suwaidi Dist.,Al Suwaidi ,24.5843070710001,46.6727872060001,10100003018
130,مسجد,7237 al mahd - West Suwaidi Dist.,West Suwaidi ,24.5715881630001,46.6254833280001,10100003057
131,مسجد,3516 yathrib - Shubra Dist.,Shubra ,24.5830933480001,46.6728587620001,10100003066
132,مسجد,2660 al bahar al ahmar - Al Wadi Dist.,Al Wadi ,24.7860737050883,46.6844446022453,10100003082
133,مسجد,7075 al fanus - Al Fayha Dist.,Al Fayha ,24.6776866145613,46.8161459595065,10100003133
134,مسجد,3166 abi zarah - Al Murabba Dist.,Al Murabba ,24.6696200200001,46.7002244190001,10100003021
135,مسجد,7428 al umara - Al Aziziyah Dist.,Al Aziziyah ,24.5742738202825,46.7727567480671,10100003029
136,مسجد,7394 abi al hasan an nidham - West Oraija Dist.,West Oraija ,24.60376925,46.5980133240001,10100003126
137,مسجد,3165 ash shaikh abdullah ibn muhammad - Sultanah Dist.,Sultanah ,24.6036404550001,46.6815017600001,10100003069
138,مسجد,4086 Northern Ring Rd - Al Falah Dist.,Al Falah ,24.791100524139,46.7167832273444,10100003022
139,مسجد,3305 abdul halim ibn al faras - West Suwaidi Dist.,West Suwaidi ,24.5750298870001,46.6179098450001,10100003057
140,مسجد,3126 Shaqraa - Al Rabwah Dist.,Al Rabwah ,24.70006821013,46.7562608931776,10100003047
141,مسجد,4395 Al Ashaj - Al Rayan Dist.,Al Rayan ,24.7185883727337,46.785546465946,10100003090
142,مسجد,7525 as sahra al kubra - Al Ghadeer Dist.,Al Ghadeer ,24.7744324138401,46.6556114255239,10100003109
143,مسجد,8140 jabal nuam - Al Olaya Dist.,Al Olaya ,24.7071491971149,46.6668381816525,10100003075
144,مسجد,7970 al ashbal - Al Sahafah Dist.,Al Sahafah ,24.8114523219976,46.6340612890202,10100003123
145,مسجد,2774 marakish - Al Quds Dist.,Al Quds ,24.758301676341,46.7464876358737,10100003081
146,مسجد,2883 yusuf ibn abi ishaq - West Naseem Dist.,West Naseem ,24.7178943065415,46.8237795135585,10100003167
147,مسجد,4113 nahr al baraduni - Al Sahafah Dist.,Al Sahafah ,24.8029448645353,46.643278771157,10100003123
148,مسجد,8184 mohammed rasheed rda - Al Aziziyah Dist.,Al Aziziyah ,24.581237280266,46.7559560812147,10100003029
149,مسجد,3435 masafi - Al Falah Dist.,Al Falah ,24.8005412487356,46.7103782705954,10100003022
150,مسجد,7057 washi - Al Rabwah Dist.,Al Rabwah ,24.6978077221743,46.7625402907717,10100003047
151,مسجد,3753 yahya as sayrafi - East Naseem Dist.,East Naseem ,24.7166103285169,46.8473546008822,10100003080
152,مسجد,7542 King Abdulaziz - Al Rabie Dist.,Al Rabie ,24.7917631322706,46.6568295509574,10100003104
153,مسجد,7784 Haroun Al Rasheed - Al Jazeerah Dist.,Al Jazeerah ,24.6828712975147,46.7972028278871,10100003035
154,مسجد,6749 an nahdah rd - Al Rabwah Dist.,Al Rabwah ,24.6797508090822,46.7583781640705,10100003047
155,مسجد,2917 atalalah - Al Rawabi Dist.,Al Rawabi ,24.6994209358779,46.7830359137052,10100003089
156,مسجد,4163 jabir ibn jubarah - Al Mughrazat Dist.,Al Mughrazat ,24.76008701186,46.7339540888248,10100003105
157,مسجد,6533 abi al fadl al alimi - Al Rabwah Dist.,Al Rabwah ,24.6930311921518,46.7626211924469,10100003047
158,مسجد,7066 al abu haimid - Al Nuzha Dist.,Al Nuzha ,24.7537598475774,46.7155124689102,10100003025
159,مسجد,2433 ayn rim - West Naseem Dist.,West Naseem ,24.7236884527214,46.8194271224596,10100003167
160,مسجد,7070 al bihar - Al Hamra Dist.,Al Hamra ,24.7773388528917,46.7613434541225,10100003129
161,مسجد,3159 al athya - Middle Oraija Dist.,Middle Oraija ,24.610377242,46.6398162060001,10100003128
162,مسجد,8148 jabal aban - West Naseem Dist.,West Naseem ,24.722446195394,46.8244433671027,10100003167
163,مسجد,6938 eastern ring rd - Al Mughrazat Dist.,Al Mughrazat ,24.7600253045046,46.7376229797497,10100003105
164,مسجد,2948 ahmad al hasbani - Al Rabwah Dist.,Al Rabwah ,24.6946431266581,46.7544751774315,10100003047
165,مسجد,3046 abi dhar al ghaffari - Al Rabwah Dist.,Al Rabwah ,24.6837208772512,46.7646128202377,10100003047
166,مسجد,7175 kuda - Al Rabwah Dist.,Al Rabwah ,24.6989427445322,46.7508771499429,10100003047
167,مسجد,6733 ibn al baghdadi - Al Mughrazat Dist.,Al Mughrazat ,24.7583309696377,46.7287858995202,10100003105
168,مسجد,6533 as sahabah - Al Munisiyah Dist.,Al Munisiyah ,24.8200578383962,46.7741292577909,10100003140
169,مسجد,7555 al amir matab ibn abdul aziz - Al Rabwah Dist.,Al Rabwah ,24.6870018984059,46.7661100128786,10100003047
170,مسجد,3662 abu ubaydah amir ibn al jarrah - Al Fayha Dist.,Al Fayha ,24.6712302236396,46.8123532381201,10100003133
171,مسجد,7465 Al Thuray - Al Nakheel Dist.,Al Nakheel ,24.7484520658194,46.6357494640891,10100003108
172,مسجد,3082 abi al fath ar rasi - West Naseem Dist.,West Naseem ,24.7247946242628,46.825878289165,10100003167
173,مسجد,2604 al imam muhammad ibn saud ibn muqrin - Al Dirah Dist.,Al Dirah ,24.6296893090002,46.7076114340002,10100003007
174,مسجد,3245 hamad ibn musa - Al Rabwah Dist.,Al Rabwah ,24.6920923444599,46.7573876377027,10100003047
175,مسجد,3384 Murrat - Al Rabwah Dist.,Al Rabwah ,24.6987785422647,46.7587022201694,10100003047
176,مسجد,7399 ash shaikh hasan ibn hussain ibn ali - Ishbiliyah Dist.,Ishbiliyah ,24.7890422788868,46.7682346402426,10100003137
177,مسجد,2491 al imam abdullah ibn saud ibn abdul aziz rd - Ishbiliyah Dist.,Ishbiliyah ,24.7925534561619,46.7712451690077,10100003137
178,مسجد,2272 Jareer - Al Malaz Dist.,Al Malaz ,24.6706974178827,46.7291556724754,10100003051
179,مسجد,8393 al bughdadi - Al Rayan Dist.,Al Rayan ,24.7162902804441,46.7723632950416,10100003090
180,مسجد,6975 dhat al harmal - Al Rabwah Dist.,Al Rabwah ,24.6971956252886,46.7523292160218,10100003047
181,مسجد,8157 Al Abbas Bin Al Ahnaf - Al Mursalat Dist.,Al Mursalat ,24.7558721905165,46.6952584657176,10100003024
182,مسجد,8506 Othman Bin Affan - Al Nada Dist.,Al Nada ,24.8164673814318,46.6878410662496,10100003023
183,مسجد,2451  - Al Rabwah Dist.,Al Rabwah ,24.7041861248038,46.7496094920918,10100003047
184,مسجد,3378 ibn sina - Al Maseef Dist.,Al Maseef ,24.7650787044459,46.6819980482462,10100003084
185,مسجد,7131 eastern ring branch rd - Al Jazeerah Dist.,Al Jazeerah ,24.6769664202621,46.7790220032733,10100003035
186,مسجد,7016 al ajali - Al Quds Dist.,Al Quds ,24.7490505885294,46.7600539543093,10100003081
187,مسجد,7089 al khaznzh - Ishbiliyah Dist.,Ishbiliyah ,24.7859334974175,46.7817353492349,10100003137
188,مسجد,3264 Northern Ring Rd - Al Falah Dist.,Al Falah ,24.787783732899,46.7085347247136,10100003022
189,مسجد,6592 abi huraiyrah - East Naseem Dist.,East Naseem ,24.7184828770817,46.850914821823,10100003080
190,مسجد,6733 inabah - Al Rabwah Dist.,Al Rabwah ,24.6949476976669,46.7575494410513,10100003047
191,مسجد,7741  - Al Arid Dist.,Al Arid ,24.8666059314012,46.6209254380897,10100003148
192,مسجد,3518 amr al kindi - Al Quds Dist.,Al Quds ,24.7602160908939,46.7538550782334,10100003081
193,مسجد,7505 eastern ring branch rd - Al Rawabi Dist.,Al Rawabi ,24.6935384125684,46.7768745362836,10100003089
194,مسجد,4050 muhammad ibn muqrin - West Naseem Dist.,West Naseem ,24.7371522717153,46.8037572531757,10100003167
195,مسجد,3377 abi sadiq al qudai - Al Quds Dist.,Al Quds ,24.7500792902046,46.7523882629336,10100003081
196,مسجد,7127 muatah - Al Yasmeen Dist.,Al Yasmeen ,24.8129415651715,46.6573698445958,10100003147
197,مسجد,6259 abdul muhsin al faram - Al Badeah Dist.,Al Badeah ,24.6151917770001,46.6827840540001,10100003071
198,مسجد,4017 al amir sultan ibn salman ibn abdul aziz - Al Rahmaniyah Dist.,Al Rahmaniyah ,24.7197724307774,46.6667511578927,10100003013
199,مسجد,7567 Ayshah Bin Abi Bakr - Middle Oraija Dist.,Middle Oraija ,24.6148336337158,46.6337405444279,10100003128
200,مسجد,3662 street no. 164 - Al Yasmeen Dist.,Al Yasmeen ,24.8297726255255,46.651793208263,10100003147
201,مسجد,4310 no. 458 - Al Malqa Dist.,Al Malqa ,24.8111741320652,46.6188889030767,10100003145
202,مسجد,6356 street no. 408 - Al Malqa Dist.,Al Malqa ,24.805773903672,46.6052808885233,10100003145
203,مسجد,7399 al arin - Al Hamra Dist.,Al Hamra ,24.7723488293146,46.7515795850059,10100003129
204,مسجد,7086 wadi ar rashad - Shubra Dist.,Shubra ,24.5793562570001,46.669700565,10100003066
205,مسجد,7697 abdullah almakhzomi - West Suwaidi Dist.,West Suwaidi ,24.5758860480001,46.611828813,10100003057
206,مسجد,7041 ayn mahrah - Al Aziziyah Dist.,Al Aziziyah ,24.5966486365909,46.7680088535414,10100003029
207,مسجد,7286 ibn al wardi - Al Shifa Dist.,Al Shifa ,24.55068467,46.6918465950001,10100003061
208,مسجد,5200 no. 296 - Al Malqa Dist.,Al Malqa ,24.8005534317173,46.5965164004701,10100003145
209,مسجد,2443 obaidallah al thaqafi - Al Dar Al Baida Dist.,Al Dar Al Baida ,24.5569398037724,46.762320075178,10100003130
210,مسجد,4288 Al Deyafah - Al Raed Dist.,Al Raed ,24.7016096250001,46.6447756930001,10100003125
211,مسجد,2991 al khatamah - Middle Oraija Dist.,Middle Oraija ,24.5962079640001,46.6248233110002,10100003128
212,مسجد,3437 Asad Bin Obaid - Dhahrat Al Badeah Dist.,hahrat Al Badeah ,24.5992054300001,46.6580136990001,10100003091
213,مسجد,7944 al hadirah - Al Suwaidi Dist.,Al Suwaidi ,24.5987182370002,46.6732662310002,10100003018
214,مسجد,3161 al kisai - Al Zahrah Dist.,Al Zahrah ,24.5810887980002,46.6417702870001,10100003067
215,مسجد,7493 amr ibn shaiban - Shubra Dist.,Shubra ,24.5744359610001,46.6598683190001,10100003066
216,مسجد,4015 street no. 28 - Al Yasmeen Dist.,Al Yasmeen ,24.8202420818375,46.6635145671305,10100003147
217,مسجد,2816 al asakir - Al Nuzha Dist.,Al Nuzha ,24.7495917077436,46.7025807017553,10100003025
218,مسجد,3085 abi abdullah al barjuni - West Oraija Dist.,West Oraija ,24.5795892220001,46.605531619,10100003126
219,مسجد,2643 al khold - Al Dar Al Baida Dist.,Al Dar Al Baida ,24.5678888715894,46.7915220301566,10100003130
220,مسجد,8352 ad darb - Al Fayha Dist.,Al Fayha ,24.6890405424078,46.8134873018681,10100003133
221,مسجد,3766 ayn qasari - Middle Oraija Dist.,Middle Oraija ,24.6049802040001,46.6195178430001,10100003128
222,مسجد,6770 ad dawadmi - King Faisal Dist.,King Faisal ,24.7539722690603,46.7732044780249,10100003027
223,مسجد,6303 idris ash shuma - Al Quds Dist.,Al Quds ,24.7428370127751,46.749934267265,10100003081
224,مسجد,7143 muhammad al hussain - Al Shifa Dist.,Al Shifa ,24.5494236560002,46.6956047750002,10100003061
225,مسجد,3374 al qayyas - Ishbiliyah Dist.,Ishbiliyah ,24.7942409393705,46.7799111949413,10100003137
226,مسجد,7228 al dar - Al Aziziyah Dist.,Al Aziziyah ,24.5858703258965,46.7831331064576,10100003029
227,مسجدعيدالبدراني,6699 abdul wahid al azji - Qurtubah Dist.,Qurtubah ,24.8228598490869,46.7414371979035,10100003101
228,مسجد,3617 al qawiyah - Al Rabie Dist.,Al Rabie ,24.7827903290296,46.64653423608,10100003104
229,مسجد,7283 abdullah ibn az zubairq - West Oraija Dist.,West Oraija ,24.6027198890002,46.602748036,10100003126
230,مسجد,7152 al suwailim - Al Dirah Dist.,Al Dirah ,24.6331870980001,46.709046749,10100003007
231,مسجد,3980 kharis branch rd - Al Rawdah Dist.,Al Rawdah ,24.7245117790556,46.7755695924979,10100003088
232,مسجد,7115 ibn mudhaffar - Al Ezdihar Dist.,Al Ezdihar ,24.7784117974634,46.721719481318,10100003086
233,مسجد,8460 al qadi at tilmisani - Dhahrat Al Badeah Dist.,hahrat Al Badeah ,24.603432561,46.663590427,10100003091
234,مسجد,3558  - King Saud University,King Saud University,24.7151829520947,46.6261653823108,10100003166
235,مسجد,7669 abi hamid as saadi - Al Zahrah Dist.,Al Zahrah ,24.576189786,46.636341006,10100003067
236,مسجد,8496 abdullah al matrudi - Al Zahrah Dist.,Al Zahrah ,24.5836025470001,46.6481350300001,10100003067
237,مسجد,3326 al mizan - Al Falah Dist.,Al Falah ,24.7970046260995,46.7089077636937,10100003022
238,مسجد,3162 wadi ar rimma - Al Sahafah Dist.,Al Sahafah ,24.8035568916493,46.6339142536523,10100003123
239,مسجد,7400 Asafan - Al Ezdihar Dist.,Al Ezdihar ,24.7810158795882,46.726644489708,10100003086
240,مسجد,4118 at turath - Al Ghadeer Dist.,Al Ghadeer ,24.7823639906285,46.6599889287382,10100003109
241,مسجد,3444 al hamran - Ghirnatah Dist.,Ghirnatah ,24.8041743632863,46.7546061871695,10100003155
242,مسجد,8060 an najah - Ishbiliyah Dist.,Ishbiliyah ,24.7998337849991,46.8049232711384,10100003137
243,مسجد,2637 al imam saud ibn abdul aziz rd - Al Mursalat Dist.,Al Mursalat ,24.7556932953098,46.683058567397,10100003024
244,مسجد,6816 street no. 144 - Al Munisiyah Dist.,Al Munisiyah ,24.8313979192168,46.7607165817541,10100003140
245,مسجد,2798 eastern ring branch rd - Al Jazeerah Dist.,Al Jazeerah ,24.6562751041213,46.792933437031,10100003035
246,مسجد,5196 prince saad ibn abdulrahman al awal rd - Al Rawabi Dist.,Al Rawabi ,24.6911563427882,46.8049681988774,10100003089
247,مسجد,7949 al henakiya - Al Hamra Dist.,Al Hamra ,24.7772646906875,46.749543094831,10100003129
248,مسجد,9382 Othman Bin Affan - Al Wahah Dist.,Al Wahah ,24.7509977880791,46.7208946451261,10100003042
249,مسجد,7611 al mahd - Ghirnatah Dist.,Ghirnatah ,24.798307603888,46.7460289242528,10100003155
250,مسجد,6812 dokhna - Al Fayha Dist.,Al Fayha ,24.6752177243942,46.8076767644324,10100003133
251,مسجد,4062 al amoudiya - Ishbiliyah Dist.,Ishbiliyah ,24.8032876738816,46.8046749205217,10100003137
252,مسجد,6848 street no. 59 - Al Malqa Dist.,Al Malqa ,24.7822548949739,46.5883257471863,10100003145
253,مسجد,4017 Husayn Bin Marwan - Al Salam Dist.,Al Salam ,24.7016943093615,46.8145844898241,10100003078
254,مسجد,7409 abdul aziz ibn shabanah - Al Aziziyah Dist.,Al Aziziyah ,24.5998892283043,46.7687072545139,10100003029
255,مسجد,7157 abi al maali az zaki - Middle Oraija Dist.,Middle Oraija ,24.599129676,46.6189923540001,10100003128
256,مسجد,2837 ayn as sufra - Al Aqeeq Dist.,Al Aqeeq ,24.7777415949923,46.6207890123389,10100003107
257,مسجد,2444 al amanah al qaysi - Hitteen Dist.,Hitteen ,24.7617260145831,46.6075004420166,10100003144
258,مسجد,7881 al barqa - Sultanah Dist.,Sultanah ,24.5979973970001,46.6822632860002,10100003069
259,مسجد,3005 al imam saud ibn faisal rd - Al Aqeeq Dist.,Al Aqeeq ,24.7896649267292,46.6227389951155,10100003107
260,مسجد,3684 al amir majid ibn abdul aziz - Al Rayan Dist.,Al Rayan ,24.712112376984,46.7784539169641,10100003090
261,مسجد,6845 al rona - Al Saadah Dist.,Al Saadah ,24.6852990478044,46.8283060100858,10100003036
262,مسجد,6958 al imam saud ibn faisal rd - Al Malqa Dist.,Al Malqa ,24.7864595587738,46.6118140544222,10100003145
263,مسجد,7975 Al Bawadri - Al Ghadeer Dist.,Al Ghadeer ,24.7787919677223,46.6495093042072,10100003109
264,مسجد,3411 at tahliyyah - Al Aqeeq Dist.,Al Aqeeq ,24.7817261055567,46.6265477888236,10100003107
265,مسجد,7357 al ulaya - Al Ghadeer Dist.,Al Ghadeer ,24.7733343963015,46.6453211355756,10100003109
266,مسجد,7676  - Dahiyat Namar Dist.,ahiyat Namar ,24.4885059638581,46.5966643526729,10100003097
267,مسجد,2879 al imam turki ibn abdullah ibn muhammad - Al Dirah Dist.,Al Dirah ,24.6307848160001,46.7106973550001,10100003007
268,مسجد,2302 Ibn Al Tafil - Al Mursalat Dist.,Al Mursalat ,24.750502802101,46.679605884423,10100003024
269,مسجد,3403 qalat at tur - West Oraija Dist.,West Oraija ,24.5965070480001,46.6089035520002,10100003126
270,مسجد,7605 abdullah  al sahmi street - Assafarat Dist.,Assafarat ,24.6818735929359,46.6227657040833,10100003099
271,مسجد,2282 street no. 306 - Al Yasmeen Dist.,Al Yasmeen ,24.832768428942,46.638120584133,10100003147
272,مسجد,7768 Labeed Bin Rabeah - Al Zahrah Dist.,Al Zahrah ,24.577032241,46.6381545810001,10100003067
273,مسجد,8258 khalifah ibn khayyat - Al Shifa Dist.,Al Shifa ,24.5716188650001,46.6950533290002,10100003061
274,مسجد,3451 al imam abi hanifah - West Oraija Dist.,West Oraija ,24.5974905920002,46.6093806630001,10100003126
275,مسجد,6887 ramlan - Al Salam Dist.,Al Salam ,24.7008445562183,46.8047381049959,10100003078
276,مسجد,7450  - Al Rahmaniyah Dist.,Al Rahmaniyah ,24.7177731758756,46.657615704557,10100003013
277,مسجد,6165 salbukh rd - Al Malqa Dist.,Al Malqa ,24.7762389191305,46.5732921323414,10100003145
278,مسجد,4143 al jabarti - Badr Dist.,Badr ,24.5424106230001,46.7097461560001,10100003164
279,مسجد,7787 Thumama Bin Oday - East Naseem Dist.,East Naseem ,24.752513575434,46.8282846699132,10100003080
280,مسجد,7038 abdullah al kharji - Al Malqa Dist.,Al Malqa ,24.7955237376403,46.6240509914444,10100003145
281,مسجد,7177 al fadilah - Tuwaiq Dist.,Tuwaiq ,24.582126799,46.573814374,10100003102
282,مسجد,3983 no. 550 - Al Malqa Dist.,Al Malqa ,24.8189721135709,46.6156042147974,10100003145
283,مسجد,8752 ali ibn abdul karim - Ishbiliyah Dist.,Ishbiliyah ,24.8060612005791,46.8059840487471,10100003137
284,مسجد,2904 Hassan Bin Manae - Al Quds Dist.,Al Quds ,24.7519494077534,46.7476484559253,10100003081
285,مسجد,6602 Malek Bin Hamzah - Dhahrat Al Badeah Dist.,hahrat Al Badeah ,24.585891362,46.6285995100001,10100003091
286,مسجد,6387 al hasan al wasiti - Al Salam Dist.,Al Salam ,24.6961932334611,46.8142780152457,10100003078
287,مسجد,6273 al jabiri - Middle Oraija Dist.,Middle Oraija ,24.603115003,46.643001859,10100003128
288,مسجد,3478 Al Waleed Bin Moslem - Hitteen Dist.,Hitteen ,24.7632552862401,46.617792737145,10100003144
289,مسجد,8663 King Fahd - Al Muruj Dist.,Al Muruj ,24.7533407577042,46.6546905720059,10100003110
290,مسجد,6977 al bahar al mutawassit - Al Aqeeq Dist.,Al Aqeeq ,24.7785884167737,46.6283610443739,10100003107
291,مسجد,3910 Prince Mohammed Ibn Salman Ibn Abdulaziz Rd - Imam Muhammed Bin Saud Islamic University,Imam Muhammed Bin Saud Islamic University,24.809448919366,46.7062318894759,10100003151
292,مسجد,8558 al bareya - Al Aziziyah Dist.,Al Aziziyah ,24.584473004317,46.7642032523726,10100003029
293,مسجد,7173 musahar ibn an numan - Dhahrat Al Badeah Dist.,hahrat Al Badeah ,24.5919923230001,46.6531664730001,10100003091
294,مسجد,3100 al faliq - West Oraija Dist.,West Oraija ,24.600230716,46.5938648510001,10100003126
295,مسجد,2462 al kurah - Al Dirah Dist.,Al Dirah ,24.6372575480002,46.7066486400001,10100003007
296,مسجد,6314 muhammad al jamaz - Dhahrat Al Badeah Dist.,hahrat Al Badeah ,24.583254189,46.6310944740001,10100003091
297,مسجد,3932 al melisan - Al Yarmuk Dist.,Al Yarmuk ,24.80037076152,46.7771439938651,10100003139
298,مسجد,3104 ibrahim ibn musharrif - Al Shifa Dist.,Al Shifa ,24.5670458890001,46.6926869540001,10100003061
299,مسجد,3797 hibatullah ad dafari - Middle Oraija Dist.,Middle Oraija ,24.6111471100002,46.6461631190001,10100003128
300,مسجد,7233 abi muhammad al ilaf - Al Zahrah Dist.,Al Zahrah ,24.5723013040002,46.6452597260001,10100003067
301,مسجد,3424 al abdul qadir - Sultanah Dist.,Sultanah ,24.5997388280002,46.6840060820002,10100003069
302,مسجد,7011 skaka - Al Olaya Dist.,Al Olaya ,24.6838859520001,46.677098164,10100003075
303,مسجد,3660 qas ibn saidah - King Faisal Dist.,King Faisal ,24.7636992545202,46.7755563294445,10100003027
304,مسجد,3096 al qariya - Ishbiliyah Dist.,Ishbiliyah ,24.7779775274346,46.7769672323908,10100003137
305,مسجد,7716 abi al maali an nuqash - Al Sulaimaniyah Dist.,Al Sulaimaniyah ,24.6955182920001,46.6982698020001,10100003063
306,مسجد,2533 ahmad ibn hashim - Ishbiliyah Dist.,Ishbiliyah ,24.796936592936,46.7895084783053,10100003137
307,مسجد,3755 Nahmoud Al Azji - West Oraija Dist.,West Oraija ,24.5900012860001,46.6122860080001,10100003126
308,مسجد,4336 muhammad al khashab - Al Rayan Dist.,Al Rayan ,24.7206585038088,46.7849658774606,10100003090
309,مسجد,7544 Kaab Bin Zuhair - Al Suwaidi Dist.,Al Suwaidi ,24.5837584710002,46.667178091,10100003018
310,مسجد,3461 al rayah - Al Zahrah Dist.,Al Zahrah ,24.576324776,46.6446235490001,10100003067
311,مسجد,4792 abi al hasan ibn masud - Al Quds Dist.,Al Quds ,24.7522067732261,46.766381554876,10100003081
312,مسجد,3301 al hatar - West Oraija Dist.,West Oraija ,24.5908301210002,46.6078150630001,10100003126
313,مسجد,8432 al shaikh jabir al ahmed al shaba - Al Khaleej Dist.,Al Khaleej ,24.7891525464346,46.8222101227759,10100003055
314,مسجد,7408 Al Mowaffaq Al Sabooni - Al Zahrah Dist.,Al Zahrah ,24.5737778710001,46.6441330820001,10100003067
315,مسجد,6441 hamad bin kabbaa - Shubra Dist.,Shubra ,24.5650418960001,46.6489779720001,10100003066
316,مسجد,7892 Al Mowaffaq Al Sabooni - Al Zahrah Dist.,Al Zahrah ,24.578218282,46.6408963850001,10100003067
317,مسجد,4108 ahmad bin muhammad al natfi - West Oraija Dist.,West Oraija ,24.5787258140001,46.5967049240001,10100003126
318,مسجد,6847 King Fahd - Al Yasmeen Dist.,Al Yasmeen ,24.8173259310005,46.619651903796,10100003147
319,مسجد,6519 al khair rd - Al Aqeeq Dist.,Al Aqeeq ,24.7580816918584,46.6276657869954,10100003107
320,مسجد,3625 ad dawimah - Middle Oraija Dist.,Middle Oraija ,24.6094096440001,46.6443614800002,10100003128
321,مسجد,3724 jabal tariq - West Umm Al Hamam Dist.,West Umm Al Hamam ,24.6872888660001,46.646647671,10100003012
322,مسجد,6340 ashrah - Al Hamra Dist.,Al Hamra ,24.7707430198585,46.7617174878573,10100003129
323,مسجد,5166 al amir fahad ibn faisal ibn farhan al saud - Al Rafeah Dist.,Al Rafeah ,24.6255770330001,46.6747574150001,10100003015
324,مسجد,8459 dirab branch rd - Ohod Dist.,Ohod ,24.488121936358,46.6247858584911,10100003059
325,مسجد,4641 Ahmad Bin Sahl - West Oraija Dist.,West Oraija ,24.58903014,46.620997194,10100003126
326,مسجد,9740  - Al Rimal Dist.,Al Rimal ,25.0739680586865,46.7135125251693,10100003153
327,مسجد,7720 al safrat - King Abdullah Dist.,King Abdullah ,24.746157712567,46.72578798289,10100003041
328,مسجد,3447 al ward - Al Rayan Dist.,Al Rayan ,24.7203446448592,46.7761402368192,10100003090
329,مسجد,7939  - West Oraija Dist.,West Oraija ,24.6086126950001,46.6023840410002,10100003126
330,مسجد خالد بن الوليد,2841 al shawka valley - Qurtubah Dist.,Qurtubah ,24.8106149839473,46.7402424231728,10100003101
331,مسجد,2805 ad darb - Al Yasmeen Dist.,Al Yasmeen ,24.8062002240648,46.6514133104174,10100003147
332,مسجد,8141 salmah al adawi - Al Zahrah Dist.,Al Zahrah ,24.5804438420001,46.644273974,10100003067
333,مسجد,2760 Maymun Bint Al Harith - Dhahrat Al Badeah Dist.,hahrat Al Badeah ,24.6011280760002,46.651290224,10100003091
334,مسجد,7673 salmah al adawi - Al Zahrah Dist.,Al Zahrah ,24.576161792,46.6475478020002,10100003067
335,مسجد,3641 abdullah ibn muammar - West Umm Al Hamam Dist.,West Umm Al Hamam ,24.6958080780001,46.6459249610001,10100003012
336,مسجد,7235 luiy ibn shuraih - Al Shifa Dist.,Al Shifa ,24.572788862,46.7061144660001,10100003061
337,مسجد,4176  - West Umm Al Hamam Dist.,West Umm Al Hamam ,24.7006139420001,46.6512704460002,10100003012
338,مسجد,8034 ibn zahr - Al Suwaidi Dist.,Al Suwaidi ,24.588046477,46.6774472470001,10100003018
339,مسجد,8423  - West Oraija Dist.,West Oraija ,24.598550172,46.6142709070001,10100003126
340,مسجد,6530  - Al Aqeeq Dist.,Al Aqeeq ,24.7613603507818,46.63891416769,10100003107
341,مسجد,4298 umm al hamam - West Umm Al Hamam Dist.,West Umm Al Hamam ,24.7009751690002,46.6524919780002,10100003012
342,مسجد,2722 Al Malek Saud - Al Murabba Dist.,Al Murabba ,24.6456308560001,46.709159766,10100003021
343,مسجد,4333 al mudhaffar ibn saban - King Faisal Dist.,King Faisal ,24.7555316554735,46.7821274093004,10100003027
344,مسجد,4034 abi abdullah ibn abdul jabbar - Al Shifa Dist.,Al Shifa ,24.5651681960001,46.7019469440001,10100003061
345,مسجد,4207 al ammar - East Umm Al Hamam Dist.,East Umm Al Hamam ,24.695090757,46.6514979790001,10100003008
346,مسجد,3308 ali al bahili - West Oraija Dist.,West Oraija ,24.6003645100001,46.5782116820001,10100003126
347,مسجد,6342 at taj - Laban Dist.,Laban ,24.6325710660001,46.6036579030001,10100003014
348,مسجد,3922 zaidal khyr - Al Rawdah Dist.,Al Rawdah ,24.7294748030598,46.7743246255165,10100003088
349,مسجد,3469 dar as safa - Sultanah Dist.,Sultanah ,24.602818861,46.6844338870001,10100003069
350,مسجد,3103  - Al Nasiriyah Dist.,Al Nasiriyah ,24.6492397840001,46.6827351210001,10100003037
351,مسجد,3210 ismail al baghdadi - Al Yarmuk Dist.,Al Yarmuk ,24.7992672765641,46.7698715381343,10100003139
352,مسجد,6561 ad dar - Middle Oraija Dist.,Middle Oraija ,24.593675409,46.6233236830001,10100003128
353,مسجد,7336 al jeera - Dirab Dist.,ab ,24.5029923180001,46.6304757950001,10100003058
354,مسجد,3801 yathrib - Al Falah Dist.,Al Falah ,24.7960762715333,46.7139918882348,10100003022
355,مسجد,3138 no. 408 - Al Malqa Dist.,Al Malqa ,24.8088339321661,46.6072348979355,10100003145
356,مسجد,3587 wadi zaymar - West Oraija Dist.,West Oraija ,24.5941129490002,46.6106873380002,10100003126
357,مسجد,8230 an nahar - Hitteen Dist.,Hitteen ,24.7562588982867,46.6044949942257,10100003144
358,مسجد,3977 al barra - Al Wahah Dist.,Al Wahah ,24.7413752338913,46.7227080482216,10100003042
359,مسجد,7007 al zafaran - Dhahrat Al Badeah Dist.,hahrat Al Badeah ,24.5893766090002,46.6406275880001,10100003091
360,مسجد,7834 ibn maknun - West Oraija Dist.,West Oraija ,24.6077058630001,46.5993142320001,10100003126
361,مسجد,4241 Saad Bin Wael - West Naseem Dist.,West Naseem ,24.7326428276427,46.8258686492809,10100003167
362,مسجد,3901 Prince Mohammed Ibn Salman Ibn Abdulaziz Rd - Hitteen Dist.,Hitteen ,24.7607344026981,46.6010067638778,10100003144
363,مسجد,3008 abdul rahman al haji - Dhahrat Al Badeah Dist.,hahrat Al Badeah ,24.5972731060001,46.6536822150002,10100003091
364,مسجد,5002 abdul rahman ibn mihanna - Al Quds Dist.,Al Quds ,24.754205044579,46.7684729821269,10100003081
365,مسجد,7619 quraynat - Al Khaleej Dist.,Al Khaleej ,24.7712729580313,46.7963417053195,10100003055
366,مسجد,3171 al hasan - Al Yarmuk Dist.,Al Yarmuk ,24.8138897723348,46.7873053155288,10100003139
367,مسجد,8493 abi huraiyrah - East Naseem Dist.,East Naseem ,24.735866807742,46.8390410967568,10100003080
368,مسجد,7188 muqbil uawida jabir al hajuri - Al Shohda Dist.,Al Shohda ,24.7867724199911,46.7386604779512,10100003016
369,مسجد,3285 abdullah ibn shayiq - Qurtubah Dist.,Qurtubah ,24.8228414346772,46.7262922419588,10100003101
370,مسجد,4267 hafsah bint umar - Al Rawdah Dist.,Al Rawdah ,24.7344236060597,46.7777757957594,10100003088
371,مسجد,3061 street no. 211 - Al Munisiyah Dist.,Al Munisiyah ,24.8287395398223,46.7781869526441,10100003140
372,مسجد,6666 al washm - Al Yarmuk Dist.,Al Yarmuk ,24.8124119820038,46.8042426402099,10100003139
373,مسجد,4037 abi sufian ibn harb - Al Nuzha Dist.,Al Nuzha ,24.7593208858942,46.7146873908064,10100003025
374,مسجد,7925  - Qurtubah Dist.,Qurtubah ,24.817493029994,46.7468736245236,10100003101
375,مسجد,3926 al khazam - Ishbiliyah Dist.,Ishbiliyah ,24.7885730632547,46.7852003401804,10100003137
376,مسجد,3469 al qarn al abyad - Al Shohda Dist.,Al Shohda ,24.7852650314438,46.7367664269907,10100003016
377,مسجد,8053 nahawnd - Qurtubah Dist.,Qurtubah ,24.8187548833818,46.7496725215073,10100003101
378,مسجد,3812 marj al qalaa - Al Rimal Dist.,Al Rimal ,24.8331479135682,46.8032577566959,10100003153
379,مسجد,6899 Al Morooj - Al Hamra Dist.,Al Hamra ,24.7680184579717,46.7380133441026,10100003129
380,مسجد,7616 kualalampur - Al Yarmuk Dist.,Al Yarmuk ,24.8136203776911,46.7818552790675,10100003139
381,مسجد,6535 dhahban - Al Quds Dist.,Al Quds ,24.7448576157221,46.7545566152597,10100003081
382,مسجد,8423 muhammad ibn ar rabi - Ishbiliyah Dist.,Ishbiliyah ,24.8030559413288,46.8103884310689,10100003137
383,مسجد,2769 al hafidh al amawi - King Faisal Dist.,King Faisal ,24.7636934513564,46.7667737596218,10100003027
384,مسجد,7836 Yusuf Al Aquli - Al Manar Dist.,Al Manar ,24.7290192849493,46.7996890749043,10100003079
385,مسجد,6713 Ibn Hibban - Al Yamamah Dist.,Al Yamamah ,24.5915457999112,46.7179624298786,10100003070
386,مسجد,3292 Prince Saud Ibn Mohammed Ibn Moqran - Al Rimal Dist.,Al Rimal ,24.8419002167083,46.7905289178687,10100003153
387,مسجد,7498 ad duah - Al Hamra Dist.,Al Hamra ,24.7732796048862,46.7416442231379,10100003129
388,مسجد,7489 al jibal - Al Hamra Dist.,Al Hamra ,24.7733662965824,46.7340872334429,10100003129
389,مسجد,7209 ahmad ibn al ashari - East Naseem Dist.,East Naseem ,24.7241653611053,46.8411351855341,10100003080
390,مسجد,7909 al baqrah - Al Yarmuk Dist.,Al Yarmuk ,24.8160189933581,46.7937460405793,10100003139
391,مسجد,6411 muhammad al anbari - Ishbiliyah Dist.,Ishbiliyah ,24.7800382538881,46.7783550819727,10100003137
392,مسجد,2815 qabis - Al Ezdihar Dist.,Al Ezdihar ,24.7837498307118,46.7126369200282,10100003086
393,مسجد,3656 ibn wadih - Al Hamra Dist.,Al Hamra ,24.7810112535219,46.7649676706673,10100003129
394,مسجد,7428 ahmad ibn muhammad as sadiri - Al Quds Dist.,Al Quds ,24.7533057005266,46.7541324871661,10100003081
395,مسجد,7401 wadi waj - West Naseem Dist.,West Naseem ,24.7156921153806,46.823565362068,10100003167
396,مسجد,2974 thabit ibn mari - West Naseem Dist.,West Naseem ,24.7414595039942,46.813458431603,10100003167
397,مسجد,8087 at tabarani - Al Khaleej Dist.,Al Khaleej ,24.7859688276089,46.82139158819,10100003055
398,مسجد,3202 al wajida - Al Yarmuk Dist.,Al Yarmuk ,24.8090603300446,46.8055612472134,10100003139
399,مسجد,6951 mani ibn salim - Ishbiliyah Dist.,Ishbiliyah ,24.7849107555051,46.785876954789,10100003137
400,مسجد,3004 al faradis - Ishbiliyah Dist.,Ishbiliyah ,24.7915826352783,46.7761850978077,10100003137
401,مسجد,3510 matuq ibn abi al baqa - Al Rayan Dist.,Al Rayan ,24.7183052168741,46.7765009449324,10100003090
402,مسجد,7183 abi huraiyrah - East Naseem Dist.,East Naseem ,24.7470225289626,46.8307950845555,10100003080
403,مسجد,7142 al shadida - Qurtubah Dist.,Qurtubah ,24.8190842081503,46.7294029070323,10100003101
404,مسجد,3460 uthman ibn isa - Al Ezdihar Dist.,Al Ezdihar ,24.7863339638319,46.7188476691809,10100003086
405,مسجد,4308 at tuwailah - King Faisal Dist.,King Faisal ,24.7650549722572,46.7820664157833,10100003027
406,مسجد,8507 sulaiman ibn batti - King Faisal Dist.,King Faisal ,24.769527764083,46.7789969110858,10100003027
407,مسجد,8609 asim ibn haram - King Faisal Dist.,King Faisal ,24.7705974507782,46.7694917575213,10100003027
408,مسجد,8387 amr ibn utab - Al Wahah Dist.,Al Wahah ,24.7418021837522,46.7135085364234,10100003042
409,مسجد,7050 ibn al qallas - Al Hamra Dist.,Al Hamra ,24.7772451814435,46.7639081065956,10100003129
410,مسجد,6697 al haysiyah - Al Olaya Dist.,Al Olaya ,24.686310011,46.697206907,10100003075
411,مسجد,7582 Shujaa Bin Wahab - Al Olaya Dist.,Al Olaya ,24.6943517630002,46.69242448,10100003075
412,مسجد,3190 sulaiman ibn ali ash shaikh - Al Olaya Dist.,Al Olaya ,24.6888676100002,46.6954697790002,10100003075
413,مسجد,2567 Al Rabea Bin Anas - Al Olaya Dist.,Al Olaya ,24.6910311260002,46.6893119330002,10100003075
414,مسجد,2828 prince fahad ibn saad ibn abdulrahman - Al Sulaimaniyah Dist.,Al Sulaimaniyah ,24.6902973890001,46.7071181650001,10100003063
415,مسجد,3560 ahmad at tartush - Al Olaya Dist.,Al Olaya ,24.692519614,46.6991643280001,10100003075
416,مسجد,2282 al bishari - Al Olaya Dist.,Al Olaya ,24.696916222,46.6866453280001,10100003075
417,مسجد,3033 abdullah ibn sulaiman al hamadan - Al Sulaimaniyah Dist.,Al Sulaimaniyah ,24.6990809440001,46.693883117,10100003063
418,مسجد,2678 al khawarazmi - Al Olaya Dist.,Al Olaya ,24.685900684,46.690403103,10100003075
419,مسجد,8074 king muhammad v - Al Sulaimaniyah Dist.,Al Sulaimaniyah ,24.6985069990001,46.7028043100001,10100003063
420,مسجد,7181 as sahabah - Ishbiliyah Dist.,Ishbiliyah ,24.7921690871241,46.7885046745963,10100003137
421,مسجد,7066 ash shaikh hasan ibn hussain ibn ali - Ghirnatah Dist.,Ghirnatah ,24.7931733265717,46.7646924557653,10100003155
422,مسجد,3060 al masani - Al Hamra Dist.,Al Hamra ,24.7726067668812,46.7589459950248,10100003129
423,مسجد,8151 al bayan - Al Hamra Dist.,Al Hamra ,24.7791380462584,46.7464450313653,10100003129
424,مسجد,4217 al umraniyah - West Naseem Dist.,West Naseem ,24.7253646094521,46.8371194881676,10100003167
425,مسجد,8533 iyad ibn mubad - Al Khaleej Dist.,Al Khaleej ,24.7795018268687,46.7973850218095,10100003055
426,مسجد,5072  - King Khalid International Airport,King Khalid International Airpo,24.8553390231035,46.7287743909533,10100003149
427,مسجد,4453 az zarqa - Al Nakheel Dist.,Al Nakheel ,24.7450496348695,46.6146628789438,10100003108
428,مسجد,6781 ghazwan - Al Munisiyah Dist.,Al Munisiyah ,24.8222830706713,46.7772701463185,10100003140
429,مسجد,3293 az zaytunah - Al Manar Dist.,Al Manar ,24.7331373556052,46.796175403666,10100003079
430,مسجد,8054  - King Khalid International Airport,King Khalid International Airpo,24.8634065616088,46.7233952528165,10100003149
431,مسجد,2951 al qamari - Ishbiliyah Dist.,Ishbiliyah ,24.7864837477752,46.7755784938821,10100003137
432,مسجد,7726 Othman Bin Sulayman - Ghirnatah Dist.,Ghirnatah ,24.7992164450328,46.7569479755542,10100003155
433,مسجد,7321 street no. 256 - Al Munisiyah Dist.,Al Munisiyah ,24.8271557309191,46.7728381622492,10100003140
434,مسجد,3167 no. 31 - Al Shohda Dist.,Al Shohda ,24.7912274848322,46.7339345669953,10100003016
435,مسجد,3094 al ukhaidarat - Al Manar Dist.,Al Manar ,24.7276648957448,46.7941696771551,10100003079
436,مسجد,3296 al qutn - Al Quds Dist.,Al Quds ,24.7518125887455,46.7513604150944,10100003081
437,مسجد,7387 yahya as sanhaji - Al Quds Dist.,Al Quds ,24.7524978140286,46.7606112835928,10100003081
438,مسجد,2701 hilwan - Qurtubah Dist.,Qurtubah ,24.8060514430336,46.7387377917693,10100003101
439,مسجد,4097 as suwaidawi - West Naseem Dist.,West Naseem ,24.7405806956781,46.8244073191671,10100003167
440,مسجد,3088 street no. 69 - Al Munisiyah Dist.,Al Munisiyah ,24.8124893717677,46.7599565277393,10100003140
441,مسجد,6811 himud ayid fahad al harbi - Al Shohda Dist.,Al Shohda ,24.7835164845237,46.7338324325975,10100003016
442,مسجد,6640 Mohammad Al Qurtubi - Al Khaleej Dist.,Al Khaleej ,24.7624422215453,46.796408321924,10100003055
443,مسجد,3631 street no. 357 - Al Munisiyah Dist.,Al Munisiyah ,24.8295455088237,46.7586071895724,10100003140
444,مسجد,4123 al wasiah - Al Yarmuk Dist.,Al Yarmuk ,24.8110670088263,46.7968940604997,10100003139
445,مسجد,6853 muhammad ad dimayati - Al Quds Dist.,Al Quds ,24.7477141059648,46.7496423649329,10100003081
446,مسجد,4053 ibn farhun - Al Olaya Dist.,Al Olaya ,24.684671893,46.6835747270001,10100003075
447,مسجد,3108 al adhra - North Mathar Dist.,North Mathar ,24.6812064660001,46.6741625690001,10100003011
448,مسجد,6470 Jebal Al Sarawat - North Mathar Dist.,North Mathar ,24.6790300210001,46.6770289680002,10100003011
449,مسجد,2588 al adhra - North Mathar Dist.,North Mathar ,24.6789615070001,46.6690064640001,10100003011
450,مسجد,2780 al adhra - North Mathar Dist.,North Mathar ,24.6797360510002,46.6709116100001,10100003011
451,مسجد,6971 skaka - Al Olaya Dist.,Al Olaya ,24.683556498,46.6772617560001,10100003075
452,مسجد,2657 raml al buhuth - North Mathar Dist.,North Mathar ,24.6799219760001,46.6696921460001,10100003011
453,مسجد,2938 ibn najm - North Mathar Dist.,North Mathar ,24.6792101300001,46.6724583430001,10100003011
454,مسجد,2922 ar raqah - North Mathar Dist.,North Mathar ,24.6827222260001,46.6722926940002,10100003011
455,مسجد,6263 al amir turki ibn abdul aziz (al awwal) branch roa - North Mathar Dist.,North Mathar ,24.6771939550002,46.66846508,10100003011
456,مسجد,3338 hasan ibn rahmah - West Umm Al Hamam Dist.,West Umm Al Hamam ,24.6841101110001,46.6427423460001,10100003012
457,مسجد,8061 ras as sad - West Umm Al Hamam Dist.,West Umm Al Hamam ,24.693173633,46.6482740500001,10100003012
458,مسجد,4862  - East Umm Al Hamam Dist.,East Umm Al Hamam ,24.6909974730001,46.6579497930001,10100003008
459,مسجد,8144 prince turki ibn abdulaziz al awwal rd - East Umm Al Hamam Dist.,East Umm Al Hamam ,24.693807884,46.659031532,10100003008
460,مسجد,7740 khalf al fara - West Umm Al Hamam Dist.,West Umm Al Hamam ,24.6902898270002,46.6457732260001,10100003012
461,مسجد,2978 ash shaikh muhammad ibn salih al uthaymin - West Umm Al Hamam Dist.,West Umm Al Hamam ,24.6852816180001,46.6390814300001,10100003012
462,مسجد,8390  - East Umm Al Hamam Dist.,East Umm Al Hamam ,24.6961163540001,46.6564059830001,10100003008
463,مسجد,4043 prince nawaf ibn abdulaziz - West Umm Al Hamam Dist.,West Umm Al Hamam ,24.6889374400001,46.6498107910001,10100003012
464,مسجد,8109 Thabit Bin Hazm - East Umm Al Hamam Dist.,East Umm Al Hamam ,24.6935285690001,46.6560070710001,10100003008
465,مسجد,7706 mhail - West Umm Al Hamam Dist.,West Umm Al Hamam ,24.6899850300001,46.6477446600002,10100003012
466,مسجد,6654 abi al qasim al ansari - King Faisal Dist.,King Faisal ,24.7529128206905,46.7804629763269,10100003027
467,مسجد,4151 hasan ibn rahmah - West Umm Al Hamam Dist.,West Umm Al Hamam ,24.6843922880001,46.6508306110001,10100003012
468,مسجد,2798 no 62 - Al Olaya Dist.,Al Olaya ,24.7002081510001,46.6797658420002,10100003075
469,مسجد,3370 al isa - West Umm Al Hamam Dist.,West Umm Al Hamam ,24.6873429820001,46.6431180320001,10100003012
470,مسجد,3430 Jabal Ali - Ghirnatah Dist.,Ghirnatah ,24.8016402373152,46.7544991114242,10100003155
471,مسجد,6891 al ulaya - Al Olaya Dist.,Al Olaya ,24.6881682430001,46.6886484710001,10100003075
472,مسجد,7855 shahir - East Umm Al Hamam Dist.,East Umm Al Hamam ,24.6912443320002,46.6509890990001,10100003008
473,مسجد,7011 abdulaziz an nashmi - Al Munisiyah Dist.,Al Munisiyah ,24.8242708961901,46.78644502673,10100003140
474,مسجد,2367 tahir zamakhshari - Al Olaya Dist.,Al Olaya ,24.6946748190001,46.6874939110002,10100003075
475,مسجد,4400 ahdath - East Umm Al Hamam Dist.,East Umm Al Hamam ,24.6907042900001,46.6533785180002,10100003008
476,مسجد,7863 hadhwi - Al Khaleej Dist.,Al Khaleej ,24.77368926281,46.7806946580565,10100003055
477,مسجد,3843 king abdullah ibn abdul aziz rd - Al Quds Dist.,Al Quds ,24.7662143944611,46.7574381900719,10100003081
478,مسجد,2687 al imam abdullah ibn saud ibn abdulaziz rd - Ishbiliyah Dist.,Ishbiliyah ,24.8013132415837,46.7911263112763,10100003137
479,مسجد,6548 ahmad ibn muhammad as sadiri - Al Quds Dist.,Al Quds ,24.7450217458367,46.7529563592486,10100003081
480,مسجد,3399 al amir saud ibn abdul aziz al saud al kabir - Al Quds Dist.,Al Quds ,24.7567920465065,46.7526939012626,10100003081
481,مسجد,3345 ibn sahim - Al Quds Dist.,Al Quds ,24.7635638543554,46.7522033391558,10100003081
482,مسجد,4075 al junaifi - Al Maseef Dist.,Al Maseef ,24.7594127894388,46.6887586653809,10100003084
483,مسجد,2240 al maymanah - Al Ezdihar Dist.,Al Ezdihar ,24.7828896655405,46.7068141629314,10100003086
484,مسجد,3506 ali al iraqi - Al Mughrazat Dist.,Al Mughrazat ,24.7607022623506,46.7275519368203,10100003105
485,مسجد,7669 Abi Al Azaem - Al Ezdihar Dist.,Al Ezdihar ,24.7835541002153,46.7157346253043,10100003086
486,مسجد,3245 al wedian - King Abdullah Dist.,King Abdullah ,24.7341592158487,46.7446846974693,10100003041
487,مسجد,7738 as sahah - Al Mughrazat Dist.,Al Mughrazat ,24.7675713759205,46.7210358456904,10100003105
488,مسجد,8283 al amir mishal ibn abdul aziz - Assafarat Dist.,Assafarat ,24.6888759540001,46.6138038400001,10100003099
489,مسجد,3424 al qamar - King Abdullah Dist.,King Abdullah ,24.7300189536985,46.7464633445712,10100003041
490,مسجد,2432 al hussain ibn ali - Al Ezdihar Dist.,Al Ezdihar ,24.7779948237288,46.7084349359804,10100003086
491,مسجد,4989 jabal al amirine - Irqah,Irqah,24.6896809610001,46.6119821560002,10100003142
492,مسجد,4858  - Irqah,Irqah,24.690434191,46.6106387780001,10100003142
493,مسجد,3770 al ladayed - Dhahrat Laban Dist.,hahrat Laban ,24.6549288480001,46.5741410250001,10100003143
494,مسجد,3847 as sihah - Irqah,Irqah,24.6892066520002,46.6005706340001,10100003142
495,مسجد,4079 wadi al baqar - Al Khuzama Dist.,Al Khuzama ,24.705658946,46.618348118,10100003141
496,مسجد,8358 said ibn al harith as sahmi - Irqah,Irqah,24.6899437150001,46.5965541890001,10100003142
497,مسجد,3868 ahmad ibn mani - Irqah,Irqah,24.6904272700001,46.6009243960001,10100003142
498,مسجد,2461 al ashira - Dhahrat Laban Dist.,hahrat Laban ,24.6555902690001,46.5819919570001,10100003143
499,مسجد,6973 Nahmoud Bin Al Mubarak - Al Zahrah Dist.,Al Zahrah ,24.5698711740002,46.6452815980001,10100003067
500,مسجد,3672 yehia almoalamy - Al Rimal Dist.,Al Rimal ,24.837492601162,46.8019542482994,10100003153
501,مسجد,7061 at taadiyn - Al Munisiyah Dist.,Al Munisiyah ,24.8337100555923,46.7601068355173,10100003140
502,مسجد,3515 muhammad an nuwairi - West Naseem Dist.,West Naseem ,24.7330445823824,46.8303046341177,10100003167
503,مسجد,6525 Ibn Al Manfaluti - Al Suwaidi Dist.,Al Suwaidi ,24.586096114,46.6574480150002,10100003018
504,مسجد,6457 ibn ghannam - East Naseem Dist.,East Naseem ,24.7404237107383,46.8298157943756,10100003080
505,مسجد,8387 abi falih al ansari - Al Suwaidi Dist.,Al Suwaidi ,24.5908941950001,46.6788409430001,10100003018
506,مسجد,7842 al manaqeb valley - Al Qadisiyah Dist.,Al Qadisiyah ,24.8229099711351,46.8132427632185,10100003073
507,مسجد,3289 abdul malik al qashuri - Al Shifa Dist.,Al Shifa ,24.5761660900002,46.7085696020001,10100003061
508,مسجد,6692 al hamadhani - Al Badeah Dist.,Al Badeah ,24.6109801190001,46.6744103140001,10100003071
509,مسجد,7779 ibn al mutamid - Al Suwaidi Dist.,Al Suwaidi ,24.5972579070001,46.6768922150002,10100003018
510,مسجد,3194 ash shujun - Al Badeah Dist.,Al Badeah ,24.6186354020001,46.686602092,10100003071
511,مسجد,8246 makki al mamuni - Dhahrat Al Badeah Dist.,hahrat Al Badeah ,24.6017032470001,46.6486130640001,10100003091
512,مسجد,2631 samahat ash shaikh abdul aziz ibn baz - Al Badeah Dist.,Al Badeah ,24.6206581250001,46.6811391920001,10100003071
513,مسجد,4076 ash shaikh abdul aziz ibn abdullah ibn baz - Dhahrat Al Badeah Dist.,hahrat Al Badeah ,24.6073511440001,46.6642972280001,10100003091
514,مسجد,5270 as suwaidi al am - Siyah Dist.,Siyah ,24.6033291390002,46.702300284,10100003068
515,مسجد,3771 Al Dir - Al Khuzama Dist.,Al Khuzama ,24.6995733410002,46.6152925050001,10100003141
516,مسجد,7593 al imam al shawkani - Al Murabba Dist.,Al Murabba ,24.6646448710002,46.7054602610001,10100003021
517,مسجد,3014 al zaid - Al Dirah Dist.,Al Dirah ,24.63586502,46.712082895,10100003007
518,مسجد,4410 al hadithah - Al Olaya Dist.,Al Olaya ,24.6951288200001,46.677710905,10100003075
519,مسجد,3234 abdul latif al khaimi - Al Murabba Dist.,Al Murabba ,24.6657678370001,46.700891347,10100003021
520,مسجد,7794 abdul halim ibn al faras - Al Futah Dist.,Al Futah ,24.6389713930001,46.710293989,10100003121
521,مسجد,7332 Al Balda - Al Khuzama Dist.,Al Khuzama ,24.7034622790001,46.6175910000001,10100003141
522,مسجد,7664 al hafidh al kabir - Al Wizarat Dist.,Al Wizarat ,24.6796122060002,46.7105853210001,10100003045
523,مسجد,2722 Shaddad Bin Aws - Al Olaya Dist.,Al Olaya ,24.6790455870001,46.696128913,10100003075
524,مسجد,6581 ibn an nadim - Al Murabba Dist.,Al Murabba ,24.6699977180001,46.7088065120001,10100003021
525,مسجد,7809 king fahd branch road - Al Futah Dist.,Al Futah ,24.6391728800002,46.7043687780001,10100003121
526,مسجد,2460 abi umran ar rashid - Al Dirah Dist.,Al Dirah ,24.636196453,46.7065606530002,10100003007
527,مسجد,2807 ash shaikh muhammad ibn ibrahim al bawardi - Al Dirah Dist.,Al Dirah ,24.634460237,46.709979462,10100003007
528,مسجد,7643 al malqa - Al Dirah Dist.,Al Dirah ,24.6376102670001,46.711055324,10100003007
529,مسجد,7227 king fahd branch road - Al Dirah Dist.,Al Dirah ,24.6339108770001,46.7050703450001,10100003007
530,مسجد,8100 ibrahim at tasan - Al Futah Dist.,Al Futah ,24.6417559080002,46.7044286010002,10100003121
531,مسجد,2705  - Al Dirah Dist.,Al Dirah ,24.6357588540001,46.709037392,10100003007
532,مسجد,7489 ibrahim az zamzami - Al Dirah Dist.,Al Dirah ,24.6362365850001,46.7104786740001,10100003007
533,مسجد,8174 ibrahim at tasan - Al Futah Dist.,Al Futah ,24.642469582,46.7041738230001,10100003121
534,مسجد,2946 muhammad ibn wahaib - Al Dirah Dist.,Al Dirah ,24.635162249,46.7113989950001,10100003007
535,مسجد,9030 ibn quzman - Al Murabba Dist.,Al Murabba ,24.650193218,46.704746987,10100003021
536,مسجد,8658 al amir abdullah ibn jalawi ibn turki - Al Murabba Dist.,Al Murabba ,24.6467670060002,46.7068574530001,10100003021
537,مسجد,8171 Sulayman Bin Hashem - Al Futah Dist.,Al Futah ,24.6423459020002,46.7071259920002,10100003121
538,مسجد,2808 ad dalam - Al Murabba Dist.,Al Murabba ,24.6502306720001,46.7102069020002,10100003021
539,مسجد,5689 ash sharqat lane - Irqah,Irqah,24.6913028710001,46.6128347640001,10100003142
540,مسجد,9052 prince abdulaziz ibn musaid ibn jalawi - Al Olaya Dist.,Al Olaya ,24.6777792610001,46.7002334450002,10100003075
541,مسجد,3482 hamad ibn muammar - Al Murabba Dist.,Al Murabba ,24.654601152,46.702918013,10100003021
542,مسجد,2844 as sahra al kubra - Irqah,Irqah,24.6906920020002,46.5852997520001,10100003142
543,مسجد,7356 al buwaib - Al Murabba Dist.,Al Murabba ,24.6625550220002,46.7014322100001,10100003021
544,مسجد,6845 sayhun - Irqah,Irqah,24.694615372,46.599517302,10100003142
545,مسجد,8746 al urfaj - Al Olaya Dist.,Al Olaya ,24.6750968040001,46.6953729660001,10100003075
546,مسجد,6609 jabal al amirine - Irqah,Irqah,24.6923857940001,46.609705467,10100003142
547,مسجد,8682 Kaab Bin Malek - Al Olaya Dist.,Al Olaya ,24.6746213670002,46.6929627600002,10100003075
548,مسجد,7111 al laban - Al Murabba Dist.,Al Murabba ,24.6603041550002,46.706119922,10100003021
549,مسجد,3562 qarnah - Al Khaleej Dist.,Al Khaleej ,24.7753219127854,46.7919464868879,10100003055
550,مسجد,3438 uthman al qadi - King Faisal Dist.,King Faisal ,24.7501192514771,46.7732538677039,10100003027
551,مسجد,4366 ad dammam rd - Al Munisiyah Dist.,Al Munisiyah ,24.8220492528076,46.7905904764866,10100003140
552,مسجد,6604 abi al atahiya - Al Manar Dist.,Al Manar ,24.7178932553902,46.8014735773733,10100003079
553,مسجد,3701 al khereiss - Qurtubah Dist.,Qurtubah ,24.8323260786354,46.7424283822143,10100003101
554,مسجد,4361 al fara - Al Ezdihar Dist.,Al Ezdihar ,24.7761522488432,46.7277392280562,10100003086
555,مسجد,3281 abdullah al jibai - Ishbiliyah Dist.,Ishbiliyah ,24.7844409805016,46.7787895765096,10100003137
556,مسجد,6877 shuja ibn aslam - East Naseem Dist.,East Naseem ,24.7442952127678,46.8262774565446,10100003080
557,مسجد,2386 as sayh al jadid - Al Rawdah Dist.,Al Rawdah ,24.7384447427186,46.7527099242237,10100003088
558,مسجد,2867 al hadiyah - Al Mughrazat Dist.,Al Mughrazat ,24.7547807642449,46.7210774571323,10100003105
559,مسجد,6326 al aqir - Ishbiliyah Dist.,Ishbiliyah ,24.7842924695697,46.7954823947587,10100003137
560,مسجد,4161 street no. 141 - Al Munisiyah Dist.,Al Munisiyah ,24.8275520242008,46.7885965056282,10100003140
561,مسجد,7127 ask shaikh hasan ibn hussain ibn ali - Al Yarmuk Dist.,Al Yarmuk ,24.801490614889,46.7620036163532,10100003139
562,مسجد,2275 wadi hauran - Al Andalus Dist.,Al Andalus ,24.7467898489485,46.7772285638342,10100003087
563,مسجد,8782 al shaikh jabir al ahmed al shaba - Ishbiliyah Dist.,Ishbiliyah ,24.8062717828781,46.809624624086,10100003137
564,مسجد,4368 king abdullah ibn abdul aziz rd - Al Hamra Dist.,Al Hamra ,24.766154015638,46.7538058833599,10100003129
565,مسجد,2640 jabal al ibra - Qurtubah Dist.,Qurtubah ,24.8298401362084,46.7318940260486,10100003101
566,مسجد,4590 abdul karim al husni - Al Sharafiyah Dist.,Al Sharafiyah ,24.6518943230001,46.6684744940001,10100003009
567,مسجد,3297 al amir fahd inm suliman ibn abdul aziz - Al Nasiriyah Dist.,Al Nasiriyah ,24.6540656450001,46.6831501770001,10100003037
568,مسجد,9307 rawdat al faras - Al Namudhajiyah Dist.,Al Namudhajiyah ,24.6634264090001,46.6962763430001,10100003002
569,مسجد,3332 Salama Bin Asem - Al Nasiriyah Dist.,Al Nasiriyah ,24.658815378,46.683186588,10100003037
570,مسجد,6548 Ibrahim Bin Al Harith - Al Sharafiyah Dist.,Al Sharafiyah ,24.6541210880001,46.6741761320001,10100003009
571,مسجد,4528 zain al amna - Al Namudhajiyah Dist.,Al Namudhajiyah ,24.6607099260001,46.6950349590001,10100003002
572,مسجد,3091 al amir fahd inm suliman ibn abdul aziz - Al Nasiriyah Dist.,Al Nasiriyah ,24.6538689850001,46.6806095900001,10100003037
573,مسجد,"""6680 Ibn Al Qari' - Al Sharafiyah Dist.""",Al Sharafiyah ,24.6552853090001,46.6756922930002,10100003009
574,مسجد,4550 dajlah - Al Namudhajiyah Dist.,Al Namudhajiyah ,24.6655703910002,46.6947272100001,10100003002
575,مسجد,8592  - Al Nasiriyah Dist.,Al Nasiriyah ,24.6570875750002,46.6861640970001,10100003037
576,مسجد,8611 al amir saad ibn abdul aziz - Al Namudhajiyah Dist.,Al Namudhajiyah ,24.6571069940001,46.698321151,10100003002
577,مسجد,8552 king fahd branch road - Al Namudhajiyah Dist.,Al Namudhajiyah ,24.6559367050001,46.7001092150002,10100003002
578,مسجد,2085  - Al Nasiriyah Dist.,Al Nasiriyah ,24.6494186150001,46.670721696,10100003037
579,مسجد,4681 abi hafs ibn bard - Al Namudhajiyah Dist.,Al Namudhajiyah ,24.657620901,46.6964948290001,10100003002
580,مسجد,2708 al amir fahd inm suliman ibn abdul aziz - Al Nasiriyah Dist.,Al Nasiriyah ,24.65407063,46.6769533290001,10100003037
581,مسجد,8112 khawlat bint hakim - Al Namudhajiyah Dist.,Al Namudhajiyah ,24.652588237,46.6991926310002,10100003002
582,مسجد,5100 Abbad Bin Sahl - Al Wisham Dist.,Al Wisham ,24.646195816,46.7006982290001,10100003114
583,مسجد,7938 Sahl Bin Qays - Al Nasiriyah Dist.,Al Nasiriyah ,24.6513330830001,46.6732422030001,10100003037
584,مسجد,8785 ibrahim ibn jamaah - Al Namudhajiyah Dist.,Al Namudhajiyah ,24.6586699190001,46.6996674860001,10100003002
585,مسجد,7530 king fahd branch road - Al Wisham Dist.,Al Wisham ,24.6472960310002,46.702194449,10100003114
586,مسجد,8505 huraimula - Al Nasiriyah Dist.,Al Nasiriyah ,24.6563449820001,46.6814347820001,10100003037
587,مسجد,4490 nakhal - Ishbiliyah Dist.,Ishbiliyah ,24.7995213678231,46.8087369935831,10100003137
588,مسجد,7157 al bahar al mayyit - Ishbiliyah Dist.,Ishbiliyah ,24.7917905941935,46.7978682105735,10100003137
589,مسجد,7457 anas al harithi - Al Rawdah Dist.,Al Rawdah ,24.7275382551666,46.7775466469899,10100003088
590,مسجد,7857 at tammar - Al Hamra Dist.,Al Hamra ,24.7765622202331,46.7476497465239,10100003129
591,مسجد,8377 al hajal - Al Quds Dist.,Al Quds ,24.7613634477903,46.7584716325988,10100003081
592,مسجد,2779 abdullah al rajihi - Al Yarmuk Dist.,Al Yarmuk ,24.7986364057413,46.765572290134,10100003139
593,مسجد,8454 al imam abdul aziz ibn muhammad ibn saud - Olaishah Dist.,Olaishah ,24.6349183590001,46.6920743120002,10100003053
594,مسجد,4506 al salih - Umm Saleem Dist.,Umm Saleem ,24.6353115690001,46.6997851520001,10100003122
595,مسجد,4823 al ajaliyah - Umm Saleem Dist.,Umm Saleem ,24.635694601,46.7030716300001,10100003122
596,مسجد,8095 ibrahim abdul latif al ash shaikh - Olaishah Dist.,Olaishah ,24.6316955930001,46.6888729700001,10100003053
597,مسجد,4055 yunis ibn abdul malik - Umm Saleem Dist.,Umm Saleem ,24.6310626110001,46.6954355600001,10100003122
598,مسجد,4894 ar rimah - Umm Saleem Dist.,Umm Saleem ,24.6327245670001,46.7035698110002,10100003122
599,مسجد,8287 al shuaibi - Olaishah Dist.,Olaishah ,24.633478515,46.6855507150001,10100003053
600,مسجد,4063 as saqati - Umm Saleem Dist.,Umm Saleem ,24.633730375,46.6954662290001,10100003122
601,مسجد,3033 al amran - Olaishah Dist.,Olaishah ,24.6308907610001,46.6852482190002,10100003053
602,مسجد,4521 shams ad din al hariri - Umm Saleem Dist.,Umm Saleem ,24.6316387240001,46.6998797280001,10100003122
603,مسجد,2999 Mousa Bin Naseer - North Mathar Dist.,North Mathar ,24.6960107070001,46.6637016290002,10100003011
604,مسجد,3965 at tawim - Al Olaya Dist.,Al Olaya ,24.7035962320001,46.6734667090001,10100003075
605,مسجد,6984 al hazimi - North Mathar Dist.,North Mathar ,24.6967929190002,46.6603052150002,10100003011
606,مسجد,6546 ashiqar - North Mathar Dist.,North Mathar ,24.692835732,46.6667451640002,10100003011
607,مسجد,8028 at takhassusi - North Mathar Dist.,North Mathar ,24.7067134600001,46.662932674,10100003011
608,مسجد,6300 uthman ad dani - North Mathar Dist.,North Mathar ,24.6905605820001,46.6642816360001,10100003011
609,مسجد,7886 utab al amawi - North Mathar Dist.,North Mathar ,24.7048775510002,46.663257743,10100003011
610,مسجد,6656 abdulrahim al maghribi - North Mathar Dist.,North Mathar ,24.6937879780002,46.6636073740001,10100003011
611,مسجد,3560 as safwi - Al Olaya Dist.,Al Olaya ,24.7094483560001,46.6695172870001,10100003075
612,مسجد,6993 al hijrah - Al Raed Dist.,Al Raed ,24.7029032190002,46.6471439770001,10100003125
613,مسجد,7019 ash shuwaiar al hanafi - Al Wizarat Dist.,Al Wizarat ,24.673921534,46.7111865800001,10100003045
614,مسجد,3303 dhahran al janub - Al Wizarat Dist.,Al Wizarat ,24.6688587,46.7123424340001,10100003045
615,مسجد,3154 assim ibn khalifah - Al Wizarat Dist.,Al Wizarat ,24.6719434280002,46.7109137590001,10100003045
616,مسجد,2391 al mutamid ibn ibad - Al Murabba Dist.,Al Murabba ,24.6584923560001,46.7116941280001,10100003021
617,مسجد,5415 al jabir - East Umm Al Hamam Dist.,East Umm Al Hamam ,24.6792580030001,46.6632573950002,10100003008
618,مسجد,6892 prince turki ibn abdulaziz al awwal rd - East Umm Al Hamam Dist.,East Umm Al Hamam ,24.6823053200001,46.6656866240002,10100003008
619,مسجد,7033 al amir turki ibn abdul aziz (al awwal) branch roa - North Mathar Dist.,North Mathar ,24.684242807,46.6661981010001,10100003011
620,مسجد,7126 Al Borod - East Umm Al Hamam Dist.,East Umm Al Hamam ,24.6845693500002,46.6643489960002,10100003008
621,مسجد,6442 prince turki ibn abdulaziz al awwal rd - East Umm Al Hamam Dist.,East Umm Al Hamam ,24.6784977880001,46.6664753910002,10100003008
622,مسجد,4384 king khalid rd - West Umm Al Hamam Dist.,West Umm Al Hamam ,24.6761025440001,46.6530173240001,10100003012
623,مسجد,7144 abdulwahid al maliqi - Al Sulaimaniyah Dist.,Al Sulaimaniyah ,24.6935212000001,46.7085047150001,10100003063
624,مسجد,2888 al amariyah - Al Sulaimaniyah Dist.,Al Sulaimaniyah ,24.698400076,46.7078014760001,10100003063
625,مسجد,8073 abdullah ibn wahb - Al Sulaimaniyah Dist.,Al Sulaimaniyah ,24.702023191,46.7083506690001,10100003063
626,مسجد,7073 prince abdulaziz ibn musaid ibn jalawi - Al Sulaimaniyah Dist.,Al Sulaimaniyah ,24.6930916310002,46.7021271130002,10100003063
627,مسجد,7139 ash shamiyah - Al Sulaimaniyah Dist.,Al Sulaimaniyah ,24.6936080910001,46.7046188010001,10100003063
628,مسجد,3343 Hassan Bin Al Dahdah - Al Badeah Dist.,Al Badeah ,24.6221405670001,46.6879524340002,10100003071
629,مسجد,6839 muslimah ibn abdul malik - Al Jarradiyah Dist.,Al Jarradiyah ,24.6203315500001,46.6924842530001,10100003003
630,مسجد,3703  - Al Jarradiyah Dist.,Al Jarradiyah ,24.6258957280001,46.6917574760001,10100003003
631,مسجد,3422 umar at tabrizi - Al Badeah Dist.,Al Badeah ,24.6203330390002,46.6890320440002,10100003071
632,مسجد,3281 ar ruqiyah - Al Badeah Dist.,Al Badeah ,24.6195051890001,46.6875633530001,10100003071
633,مسجد,3763 ibrahim ibn aidan - Al Jarradiyah Dist.,Al Jarradiyah ,24.624035636,46.6924127460001,10100003003
634,مسجد,4008 al madinah al munawarah - Al Jarradiyah Dist.,Al Jarradiyah ,24.6178387460001,46.6945147840001,10100003003
635,مسجد,7297 sariha - Al Jarradiyah Dist.,Al Jarradiyah ,24.6243928840001,46.6945286610001,10100003003
636,مسجد,6556 ibn ibadah - Al Badeah Dist.,Al Badeah ,24.617745502,46.6916225320001,10100003071
637,مسجد,3973 abbas al maliki - Al Jarradiyah Dist.,Al Jarradiyah ,24.6199610210001,46.69445111,10100003003
638,مسجد,7548 ibrahim ath thaqafi - Al Raed Dist.,Al Raed ,24.7081151690001,46.6281236440001,10100003125
639,مسجد,7714 at takhassusi - North Mathar Dist.,North Mathar ,24.6906928870001,46.6710673540001,10100003011
640,مسجد,2693 Al Jehad - North Mathar Dist.,North Mathar ,24.6891034830001,46.670179373,10100003011
641,مسجد,2842 al urayja - Al Uraija Dist.,Al Uraija ,24.6267353960001,46.6655533120002,10100003127
642,مسجد,6539 abi ath thana al hali - Al Badeah Dist.,Al Badeah ,24.6178895810002,46.674408134,10100003071
643,مسجد,6843  - Al Rafeah Dist.,Al Rafeah ,24.632873525,46.6658132540002,10100003015
644,مسجد,3332 al urayja - Al Uraija Dist.,Al Uraija ,24.626021162,46.6703174840002,10100003127
645,مسجد,3627 Al Matzri - Al Badeah Dist.,Al Badeah ,24.614254176,46.67314557,10100003071
646,مسجد,2437 harat an nuzha - Al Uraija Dist.,Al Uraija ,24.627499513,46.6615638590002,10100003127
647,مسجد,3433 as samrah - Al Uraija Dist.,Al Uraija ,24.6220454620002,46.6713352230001,10100003127
648,مسجد,6311 wadi al yasin - Al Rafeah Dist.,Al Rafeah ,24.6276743750001,46.6751895090001,10100003015
649,مسجد,7487 maan ibn hudhayfah - Al Uraija Dist.,Al Uraija ,24.6265732610001,46.669224926,10100003127
650,مسجد,6914 Al Maeer Sattam Bin Abdulaziz - Al Badeah Dist.,Al Badeah ,24.6213186980001,46.6759742470001,10100003071
651,مسجد,2822 at tawfiq - Al Murabba Dist.,Al Murabba ,24.6769010250001,46.707709503,10100003021
652,مسجد,7447 badr al janub - Middle Oraija Dist.,Middle Oraija ,24.6136394800001,46.6425941360001,10100003128
653,مسجد,4018 ibn barakah - Middle Oraija Dist.,Middle Oraija ,24.604269192,46.6482335850002,10100003128
654,مسجد,2671 al imam abi hanifah - Middle Oraija Dist.,Middle Oraija ,24.6131196660001,46.634945422,10100003128
655,مسجد,6198 al jainun - Middle Oraija Dist.,Middle Oraija ,24.6023192530001,46.6450658790001,10100003128
656,مسجد,5258 abi talib al kinani - Al Jarradiyah Dist.,Al Jarradiyah ,24.6168843850001,46.7023221060001,10100003003
657,مسجد,7355 at tawim - Middle Oraija Dist.,Middle Oraija ,24.612834137,46.6403445550001,10100003128
658,مسجد,6687 Ayshah Bin Abi Bakr - Middle Oraija Dist.,Middle Oraija ,24.6071698960001,46.6405444600002,10100003128
659,مسجد,3849 jabal ar raha - Middle Oraija Dist.,Middle Oraija ,24.6161756730001,46.6467011360002,10100003128
660,مسجد,5353 Al Kawthar - Middle Oraija Dist.,Middle Oraija ,24.6129149190001,46.6615266160001,10100003128
661,مسجد,5449 al anbar - Al Shumaisi Dist.,Al Shumaisi ,24.6208218190001,46.704394585,10100003113
662,مسجد,6870  - Siyah Dist.,Siyah ,24.6062394240001,46.6999141000001,10100003068
663,مسجد,7267 ash shaikh abdullah ibn muhammad - Sultanah Dist.,Sultanah ,24.608413705,46.6857162760001,10100003069
664,مسجد,6599 al malki - Sultanah Dist.,Sultanah ,24.6023749080002,46.6868069580001,10100003069
665,مسجد,4560 al khuzim - Sultanah Dist.,Sultanah ,24.6051965174888,46.6952813708363,10100003069
666,مسجد,6469 al fuqaha - Sultanah Dist.,Sultanah ,24.6012663300001,46.68071938,10100003069
667,مسجد,3700 ar rafi - Sultanah Dist.,Sultanah ,24.6087022670001,46.6868615130001,10100003069
668,مسجد,3902 shaibah - Sultanah Dist.,Sultanah ,24.6070408570001,46.688839392,10100003069
669,مسجد,5517  - Siyah Dist.,Siyah ,24.6113413520001,46.7048764400002,10100003068
670,مسجد,3428 at taimi - Sultanah Dist.,Sultanah ,24.6054511580001,46.6841196360002,10100003069
671,مسجد,3989  - Sultanah Dist.,Sultanah ,24.603353833,46.6895628130001,10100003069
672,مسجد,2660 umm tulaiha - Al Dirah Dist.,Al Dirah ,24.6327545310002,46.7085873190002,10100003007
673,مسجد,7202 Al Atayif - Al Dirah Dist.,Al Dirah ,24.6336613300001,46.7066567670001,10100003007
674,مسجد,7631 adh dhahirah - Al Dirah Dist.,Al Dirah ,24.6375007310001,46.7104936920001,10100003007
675,مسجد,7125 adh dhahirah - Al Dirah Dist.,Al Dirah ,24.632901912,46.711648288,10100003007
676,مسجد,4708 al fakhri - Umm Saleem Dist.,Umm Saleem ,24.6337211620001,46.701841046,10100003122
677,مسجد,8595 al salih - Umm Saleem Dist.,Umm Saleem ,24.6361364540001,46.7008937040002,10100003122
678,مسجد,8257 Thabit Bin Yasar - Umm Saleem Dist.,Umm Saleem ,24.6330652510001,46.6972438940002,10100003122
679,مسجد,3739 Al Hosam - Al Fakhiriyah Dist.,Al Fakhiriyah ,24.644484826,46.6870284400001,10100003006
680,مسجد,6979 al imam abdul aziz ibn muhammad ibn saud - Al Wisham Dist.,Al Wisham ,24.642437278,46.693279837,10100003114
681,مسجد,4088 al muhajir ibn abdullah - Al Fakhiriyah Dist.,Al Fakhiriyah ,24.6440464280001,46.69030367,10100003006
682,مسجد,2822 yaqub mansur - Utayqah Dist.,Utayqah ,24.5918504570002,46.7111322450001,10100003020
683,مسجد,3244 prince saud ibn nasir ibn farhan al saud - Al Mutamarat Dist.,Al Mutamarat ,24.6740239110001,46.6809883670002,10100003134
684,مسجد,2445 asad ibn zirarah - Utayqah Dist.,Utayqah ,24.6007082290002,46.7075304910001,10100003020
685,مسجد,2627 ibn as suri - Utayqah Dist.,Utayqah ,24.5943159280002,46.709245746,10100003020
686,مسجد,3377 Al Ahnaf Bin Qays - Al Mutamarat Dist.,Al Mutamarat ,24.6712089480001,46.6824404080001,10100003134
687,مسجد,6566 raida - Utayqah Dist.,Utayqah ,24.5903112660001,46.7085760330002,10100003020
688,مسجد,3894 ibrahim al harbi - Al Mutamarat Dist.,Al Mutamarat ,24.6731165770001,46.6873621830001,10100003134
689,مسجد,2765 al baladhiri - Utayqah Dist.,Utayqah ,24.5929966360001,46.7105331930001,10100003020
690,مسجد,7467 at takhassusi - Al Mutamarat Dist.,Al Mutamarat ,24.6688942800001,46.6815662400001,10100003134
691,مسجد,3517 makkah al mukarramah branch rd - Al Mutamarat Dist.,Al Mutamarat ,24.676011535,46.6838164590002,10100003134
692,مسجد,7239 sulaiman ibn ali al musharrif - Al Badeah Dist.,Al Badeah ,24.6240986810002,46.6786701860001,10100003071
693,مسجد,3565 al imam turki ibn abdullah ibn muhammad - Olaishah Dist.,Olaishah ,24.6297409768657,46.6905040526486,10100003053
694,مسجد,7311 al sulaiman - Al Badeah Dist.,Al Badeah ,24.6246793050001,46.6848604580002,10100003071
695,مسجد,6844 asir - Al Jarradiyah Dist.,Al Jarradiyah ,24.6203071850002,46.6974408950001,10100003003
696,مسجد,2811 Hudhayfah Bin Al Yaman - Olaishah Dist.,Olaishah ,24.6283716580002,46.6830273230001,10100003053
697,مسجد,7851 isa ibn jafar - Olaishah Dist.,Olaishah ,24.6296266160001,46.6787997560002,10100003053
698,مسجد,2692 al awwad - Olaishah Dist.,Olaishah ,24.6265013400001,46.681830028,10100003053
699,مسجد,6544 saida - Shubra Dist.,Shubra ,24.5747055300001,46.6692363590001,10100003066
700,مسجد,2867 Tameem Al Dari - Shubra Dist.,Shubra ,24.5761635420002,46.6664091600001,10100003066
701,مسجد,7073 al ihsa - Al Malaz Dist.,Al Malaz ,24.6704120410434,46.7371037065508,10100003051
702,مسجد,4640 southern ring branch rd - Shubra Dist.,Shubra ,24.580870234,46.6839105980001,10100003066
703,مسجد,6374 balaqah - Shubra Dist.,Shubra ,24.5731696330001,46.665423338,10100003066
704,مسجد,3667 umar ibn abdul aziz branch rd - Jareer Dist.,Jareer ,24.6826573422413,46.7432691279602,10100003048
705,مسجد,3018 dhahaban - Shubra Dist.,Shubra ,24.5716772750001,46.6678375680002,10100003066
706,مسجد,3575 Al Qasem Bin Main - Al Malaz Dist.,Al Malaz ,24.6782923296611,46.742120838548,10100003051
707,مسجد,6485 rana - Shubra Dist.,Shubra ,24.5741499810001,46.6718785710001,10100003066
708,مسجد,3139 umar ibn abdul aziz rd - Al Malaz Dist.,Al Malaz ,24.6804016530226,46.7376189790429,10100003051
709,مسجد,8244 king fahd branch road - Al Shumaisi Dist.,Al Shumaisi ,24.618538707,46.7058787840002,10100003113
710,مسجد,5050 ibn ad dabi - Al Shumaisi Dist.,Al Shumaisi ,24.6189069180001,46.7003925520001,10100003113
711,مسجد,5311 al ris - Al Shumaisi Dist.,Al Shumaisi ,24.620549054,46.7029106780001,10100003113
712,مسجد,5300 al hazani - Al Shumaisi Dist.,Al Shumaisi ,24.6182151740002,46.7028161890001,10100003113
713,مسجد,5015 zahwah - Al Jarradiyah Dist.,Al Jarradiyah ,24.6125139840001,46.6998822460001,10100003003
714,مسجد,5442 abdul malik ibn mahran - Al Jarradiyah Dist.,Al Jarradiyah ,24.6155928280001,46.70421343,10100003003
715,مسجد,4850 abdul aziz al qahimi - Al Jarradiyah Dist.,Al Jarradiyah ,24.6149776500002,46.6983784610002,10100003003
716,مسجد,3418 said al mundhiri - Al Malaz Dist.,Al Malaz ,24.6720417338856,46.7403674942388,10100003051
717,مسجد,7367 tathlith - Middle Oraija Dist.,Middle Oraija ,24.613381555,46.631032875,10100003128
718,مسجد,3191 al wadi - Laban Dist.,Laban ,24.633815853,46.5926085630001,10100003014
719,مسجد,6885 Al Henaidi - Jareer Dist.,Jareer ,24.6685402105441,46.7493189548956,10100003048
720,مسجد,7434 ar rubaydi - West Oraija Dist.,West Oraija ,24.6142549680001,46.6065264490001,10100003126
721,مسجد,6404 Al Khansaa - Laban Dist.,Laban ,24.6332775040001,46.5955300140002,10100003014
722,مسجد,7502 al wajh - Middle Oraija Dist.,Middle Oraija ,24.6140223350001,46.644789454,10100003128
723,مسجد,4156 al uraija - Al Uraija Dist.,Al Uraija ,24.6267469070001,46.6557279780001,10100003127
724,مسجد,3886 al amir musaid ibn abdul rahman ibn faisal rd - Middle Oraija Dist.,Middle Oraija ,24.6137976460001,46.6470623010001,10100003128
725,مسجد,3002 said ibn raja - Middle Oraija Dist.,Middle Oraija ,24.6125985600002,46.6383848810001,10100003128
726,مسجد,7427 as samat al akbar - Al Uraija Dist.,Al Uraija ,24.6261101960001,46.6639467880001,10100003127
727,مسجد,7245 muhammad as sana - Al Uraija Dist.,Al Uraija ,24.6243987140001,46.6684113570001,10100003127
728,مسجد,7738  - Laban Dist.,Laban ,24.6387066890001,46.6443811530001,10100003014
729,مسجد,3614 sabih ibn bakr - Al Badeah Dist.,Al Badeah ,24.6167837070001,46.6730617470001,10100003071
730,مسجد,6577 ahmad ibn ali al qastalani - Al Uraija Dist.,Al Uraija ,24.6281244680001,46.657280733,10100003127
731,مسجد,3388 al qaqa ibn tawbah - Al Uraija Dist.,Al Uraija ,24.6233253680001,46.670883841,10100003127
732,مسجد,6897 uhud - Al Fakhiriyah Dist.,Al Fakhiriyah ,24.6417828130002,46.6857451250001,10100003006
733,مسجد,6690 fahd ibn jabir - Sultanah Dist.,Sultanah ,24.6031354590001,46.6918370060001,10100003069
734,مسجد,8617 az zawriyah - Dhahrat Al Badeah Dist.,hahrat Al Badeah ,24.604861133,46.6663764650002,10100003091
735,مسجد,8282 tanjah - Dhahrat Al Badeah Dist.,hahrat Al Badeah ,24.6019134590001,46.65677306,10100003091
736,مسجد,3609 hudhafah al adawi - Sultanah Dist.,Sultanah ,24.598963355,46.6860646880002,10100003069
737,مسجد,3073 ahmad as sadafi - Dhahrat Al Badeah Dist.,hahrat Al Badeah ,24.6053751490002,46.6544535530001,10100003091
738,مسجد,6349 al malki - Sultanah Dist.,Sultanah ,24.600082049,46.6882445130001,10100003069
739,مسجد,8219 qays ibn masud - Dhahrat Al Badeah Dist.,hahrat Al Badeah ,24.6014407600001,46.6545269760002,10100003091
740,مسجد,6410 an nawar bint malik - Sultanah Dist.,Sultanah ,24.6004809790001,46.6926568530001,10100003069
741,مسجد,8797 ibn abbad - Dhahrat Al Badeah Dist.,hahrat Al Badeah ,24.6065866580001,46.660119223,10100003091
742,مسجد,3465 abdul rahman al haji - Dhahrat Al Badeah Dist.,hahrat Al Badeah ,24.596572252,46.658147006,10100003091
743,مسجد,7490 abdul aziz ibn ajlan - Dhahrat Al Badeah Dist.,hahrat Al Badeah ,24.5948957090001,46.6487051650001,10100003091
744,مسجد,5211 al warka - Al Suwaidi Dist.,Al Suwaidi ,24.6004259960002,46.6751756960002,10100003018
745,مسجد,7285 ubaidullah ibn abi al faraj - Al Suwaidi Dist.,Al Suwaidi ,24.5927005130002,46.673836662,10100003018
746,مسجد,2195 Mosab Bin Abdullah - Dhahrat Al Badeah Dist.,hahrat Al Badeah ,24.6006118720001,46.645695969,10100003091
747,مسجد,5578 al afadilah - Sultanah Dist.,Sultanah ,24.5999865150001,46.6791261090001,10100003069
748,مسجد,4427 al ajda al balawi - Al Suwaidi Dist.,Al Suwaidi ,24.5957042080001,46.6676474550001,10100003018
749,مسجد,7914 al thaniyan - Dhahrat Al Badeah Dist.,hahrat Al Badeah ,24.598702386,46.65119092,10100003091
750,مسجد,4755 yahya ibn khalid - Al Suwaidi Dist.,Al Suwaidi ,24.5980098340001,46.6709734400001,10100003018
751,مسجد,7495 Mohammad Al Beez - Al Suwaidi Dist.,Al Suwaidi ,24.5946073950001,46.677636784,10100003018
752,مسجد,4939 ibn awn at taibi - Al Suwaidi Dist.,Al Suwaidi ,24.5983538320002,46.6727050120002,10100003018
753,مسجد,6781 bab ash sham - Al Suwaidi Dist.,Al Suwaidi ,24.5884541720001,46.6538222620001,10100003018
754,مسجد,5355 ash sharman - Al Suwaidi Dist.,Al Suwaidi ,24.5977667090002,46.691321148,10100003018
755,مسجد,4737 muhyi ad din ibn suraqah - Al Suwaidi Dist.,Al Suwaidi ,24.594457996,46.685206824,10100003018
756,مسجد,2277 ibrahim ibn sayf - Al Suwaidi Dist.,Al Suwaidi ,24.5982947750002,46.6928863990001,10100003018
757,مسجد,9072 ar radifah - Al Suwaidi Dist.,Al Suwaidi ,24.597245237,46.6887672170002,10100003018
758,مسجد,6981 as sirr - Al Suwaidi Dist.,Al Suwaidi ,24.5901910110001,46.6597305620001,10100003018
759,مسجد,8394 lisan ad din al khatib - Shubra Dist.,Shubra ,24.5912024630001,46.68602888,10100003066
760,مسجد,8524 al abu ubaid - Shubra Dist.,Shubra ,24.5922773060001,46.6885043630001,10100003066
761,مسجد,3837 jabal arid - Al Suwaidi Dist.,Al Suwaidi ,24.5873589720001,46.6617412330002,10100003018
762,مسجد,9035 adma - Al Suwaidi Dist.,Al Suwaidi ,24.5969940800001,46.685467257,10100003018
763,مسجد,3440 abi al maali at tamimi - West Suwaidi Dist.,West Suwaidi ,24.5799552290001,46.6192196960001,10100003057
764,مسجد,7927 ibn shaibah - West Suwaidi Dist.,West Suwaidi ,24.577985187,46.609459852,10100003057
765,مسجد,7334 ahmad ibn abi al fath - West Suwaidi Dist.,West Suwaidi ,24.572512853,46.6207273680001,10100003057
766,مسجد,3261 al madinah al munawarah - West Suwaidi Dist.,West Suwaidi ,24.5839949590001,46.617528963,10100003057
767,مسجد,3358 ahmad ibn abi al fath - West Suwaidi Dist.,West Suwaidi ,24.5703511780001,46.618296342,10100003057
768,مسجد,7929 al khalifah an nasir li dinullah - West Suwaidi Dist.,West Suwaidi ,24.5778205720001,46.6262681380001,10100003057
769,مسجد,2587 al tanim - West Suwaidi Dist.,West Suwaidi ,24.5733051740001,46.6107807710002,10100003057
770,مسجد,8820 Hamzah Bin Abdulmuttaleb - West Suwaidi Dist.,West Suwaidi ,24.5849011740002,46.6261495360002,10100003057
771,مسجد,2475 thaluth al hazm - West Suwaidi Dist.,West Suwaidi ,24.5741134840002,46.609580302,10100003057
772,مسجد,7794 al fajr - West Suwaidi Dist.,West Suwaidi ,24.5766920690001,46.618580695,10100003057
773,مسجد,6139 al washam - West Suwaidi Dist.,West Suwaidi ,24.5614688610002,46.6386856340001,10100003057
774,مسجد,3309 al ataya - Al Rawdah Dist.,Al Rawdah ,24.7338306109092,46.7616729076838,10100003088
775,مسجد,7874 al qadi al ashbili - Al Rawdah Dist.,Al Rawdah ,24.731457812394,46.7643453993123,10100003088
776,مسجد,3177 Al Jabal Al Akhdar - Al Rawdah Dist.,Al Rawdah ,24.7367571100002,46.7603199461558,10100003088
777,مسجد,6688 al babeya - West Suwaidi Dist.,West Suwaidi ,24.5663405720001,46.639187948,10100003057
778,مسجد,2894 hafsa bint umar - Al Andalus Dist.,Al Andalus ,24.7392409444635,46.7834443802476,10100003087
779,مسجد,4730 Ibn Al Kurmani - Al Quds Dist.,Al Quds ,24.7537797486454,46.7656712074217,10100003081
780,مسجد,6348 Hamzah Bin Abdulmuttaleb - West Suwaidi Dist.,West Suwaidi ,24.5633863540001,46.642238472,10100003057
781,مسجد,6560 ar ribayi - Al Andalus Dist.,Al Andalus ,24.7352083134182,46.7923178613284,10100003087
782,مسجد,7989 ibn sukainah - Al Quds Dist.,Al Quds ,24.7580061163451,46.7422203719455,10100003081
783,مسجد,3916  - Middle Oraija Dist.,Middle Oraija ,24.6075604210001,46.6210121070001,10100003128
784,مسجد,3766 ayn qasari - Middle Oraija Dist.,Middle Oraija ,24.6048750020001,46.6194154120001,10100003128
785,مسجد,8463 Al Fadeel Bin Iyad - West Oraija Dist.,West Oraija ,24.6133534432103,46.6004819475837,10100003126
786,مسجد,3942 al imam abi hanifah - Middle Oraija Dist.,Middle Oraija ,24.6056704950001,46.6211477390002,10100003128
787,مسجد,3448 abdul karim ibn atik - Middle Oraija Dist.,Middle Oraija ,24.603010854,46.6162674620001,10100003128
788,مسجد,3034 as sawadi - King Faisal Dist.,King Faisal ,24.757195709022,46.7693210449813,10100003027
789,مسجد,7051 wadi al unayim - King Faisal Dist.,King Faisal ,24.7563999207945,46.7757023093772,10100003027
790,مسجد,4389 ibn abi al uyun - Al Quds Dist.,Al Quds ,24.7592683690542,46.7624805772732,10100003081
791,مسجد,6561 abi al hasan an nahawi - King Faisal Dist.,King Faisal ,24.7520980865989,46.7719510969401,10100003027
792,مسجد,3369 saadan ibn nasr - King Faisal Dist.,King Faisal ,24.7592349890964,46.7727176324644,10100003027
793,مسجد,3311 al bateha valley - King Faisal Dist.,King Faisal ,24.762170450824,46.7721120596384,10100003027
794,مسجد,4750 al muhaddathat bint abi ghalib - Shubra Dist.,Shubra ,24.58666708,46.6851729150002,10100003066
795,مسجد,8084 al milaha - Shubra Dist.,Shubra ,24.5883878040001,46.6864910090002,10100003066
796,مسجد,4391 Al Henaidi - Shubra Dist.,Shubra ,24.5806594410001,46.6815336350002,10100003066
797,مسجد,4946 Ibn asakir - Al Duraihemiyah Dist.,Al Duraihemiyah ,24.5847496980001,46.6870815630002,10100003076
798,مسجد,7559 nasir ad dawlah al hamadani - Shubra Dist.,Shubra ,24.5837110590002,46.6816571480002,10100003066
799,مسجد,5182 Bakr Bin Mohammad - Al Duraihemiyah Dist.,Al Duraihemiyah ,24.5865139710001,46.6894353460002,10100003076
800,مسجد,3845 al ibbad - Shubra Dist.,Shubra ,24.5835726130001,46.6761839350002,10100003066
801,مسجد,3542 abi mansur al bazzaz - Shubra Dist.,Shubra ,24.5769883080002,46.67308093,10100003066
802,مسجد,5123 jalal abad - Shubra Dist.,Shubra ,24.5905594610002,46.6889170460001,10100003066
803,مسجد,3741 qandahar - Shubra Dist.,Shubra ,24.576186347,46.6750623180002,10100003066
804,مسجد,7930 wahail bin rabiah - Al Rimal Dist.,Al Rimal ,24.8640889771242,46.8016906114893,10100003153
805,مسجد,4323 no. 344 - Al Narjis Dist.,Al Narjis ,24.839149162315,46.6742450436004,10100003150
806,مسجد,3612  - King Khalid International Airport,King Khalid International Airpo,24.8544901234133,46.765324683496,10100003149
807,مسجد,3148 Eisa Rawas - Al Falah Dist.,Al Falah ,24.7924790915376,46.7074663060454,10100003022
808,مسجد,3577  - King Khalid International Airport,King Khalid International Airpo,24.866723530251,46.715180163694,10100003149
809,مسجد,4744 northern ring rd - Al Ghadeer Dist.,Al Ghadeer ,24.769997782177,46.6659411819566,10100003109
810,مسجد,7459  - Al Arid Dist.,Al Arid ,24.8638698240412,46.6345038363152,10100003148
811,مسجد,8634 khuzam - Al Rimal Dist.,Al Rimal ,24.9224116862268,46.7772681539771,10100003153
812,مسجد,8276 street no. 56 - Al Yasmeen Dist.,Al Yasmeen ,24.8231117118107,46.6619940915477,10100003147
813,مسجد,3577  - King Khalid International Airport,King Khalid International Airpo,24.865512451834,46.7123845753282,10100003149
814,مسجد,6949 rahis - Sultanah Dist.,Sultanah ,24.6055173390002,46.687947369,10100003069
815,مسجد,6238 asim al anbari - Sultanah Dist.,Sultanah ,24.5990619300001,46.690362715,10100003069
816,مسجد,7323 no. 76 - Al Malqa Dist.,Al Malqa ,24.7865664783165,46.5842996991644,10100003145
817,مسجد,2969 wadi raqwan - Tuwaiq Dist.,Tuwaiq ,24.589024931,46.5318643290001,10100003102
818,مسجد,4083 jabal kanan - Tuwaiq Dist.,Tuwaiq ,24.5782127580001,46.5217941140001,10100003102
819,مسجد,7541 Dibaa - Dhahrat Laban Dist.,hahrat Laban ,24.6313865830001,46.5697755130001,10100003143
820,مسجد,4993 al badi - Tuwaiq Dist.,Tuwaiq ,24.5794384500001,46.5301738470001,10100003102
821,مسجد,4797 salam - Dhahrat Laban Dist.,hahrat Laban ,24.621141041,46.5716006460001,10100003143
822,مسجد,3911 wadi al baqar - Tuwaiq Dist.,Tuwaiq ,24.591236275,46.5406450170001,10100003102
823,مسجد,7068 al haris bin tabih alraeini - Al Qairawan Dist.,Al Qairawan ,24.8282825976052,46.6075170268948,10100003146
824,مسجد,3338 wadi al majardah - Tuwaiq Dist.,Tuwaiq ,24.589218083,46.5355021680001,10100003102
825,مسجد,7446 nahr abi la khasib - Tuwaiq Dist.,Tuwaiq ,24.5778854810001,46.517880932,10100003102
826,مسجد,2916 Al Aziz Bin Abi Bakr - West Oraija Dist.,West Oraija ,24.5900846730001,46.6040192130001,10100003126
827,مسجد,3302 shib al ada - West Oraija Dist.,West Oraija ,24.587741497,46.6077887120002,10100003126
828,مسجد,3641 muhammad al utabi - West Oraija Dist.,West Oraija ,24.5832792290001,46.6111815190001,10100003126
829,مسجد,7419 sajir - West Oraija Dist.,West Oraija ,24.5895264430001,46.6011009160001,10100003126
830,مسجد,6363 weastern ring rd - West Oraija Dist.,West Oraija ,24.5800584030001,46.6034951520002,10100003126
831,مسجد,4205 ali ibn sulaiman - Dhahrat Al Badeah Dist.,hahrat Al Badeah ,24.5927357100002,46.6460108510001,10100003091
832,مسجد,6907 Madain Saleh - West Oraija Dist.,West Oraija ,24.584936554,46.607017477,10100003126
833,مسجد,2708 al qalanisi - West Oraija Dist.,West Oraija ,24.5843796500001,46.6019246580001,10100003126
834,مسجد,6403 al katib - West Oraija Dist.,West Oraija ,24.5803731900001,46.607612165,10100003126
835,مسجد,6609 mahrah - West Oraija Dist.,West Oraija ,24.5821829110002,46.6034809280001,10100003126
836,مسجد,4577 al intisar - Tuwaiq Dist.,Tuwaiq ,24.5836450220001,46.5261084130001,10100003102
837,مسجد,3559 abi al hasan ali al jarjani - Al Rawabi Dist.,Al Rawabi ,24.6964559904927,46.7888836794087,10100003089
838,مسجد,2821 hydar shihab ad din - Al Manar Dist.,Al Manar ,24.7308324342357,46.7915180058102,10100003079
839,مسجد,4701 as safran - Al Rayan Dist.,Al Rayan ,24.715251875465,46.7882583262901,10100003090
840,مسجد,4796 Al Adel - Al Rawabi Dist.,Al Rawabi ,24.7000250630294,46.8012549730713,10100003089
841,مسجد,8488 ash shaikh umar ibn salim - Al Rayan Dist.,Al Rayan ,24.717162571095,46.7747166412384,10100003090
842,مسجد,7153 umar al azdi - Al Rawabi Dist.,Al Rawabi ,24.6900256577165,46.7790178519922,10100003089
843,مسجد,7735 al batr - Tuwaiq Dist.,Tuwaiq ,24.580491613,46.5253142310002,10100003102
844,مسجد,7612 al hajal - Al Rayan Dist.,Al Rayan ,24.7090092007643,46.7871670941689,10100003090
845,مسجد,2259 ibn abi laqmah - Al Manar Dist.,Al Manar ,24.7275384869229,46.7859478959531,10100003079
846,مسجد,2546 wahran - Al Aziziyah Dist.,Al Aziziyah ,24.5861589545158,46.7802032761201,10100003029
847,مسجد,8640  - Al Haer Dist.,Al Haer ,24.4279467892263,46.8566074965356,10100003159
848,مسجد,8165 ad daywaniyah - Al Aziziyah Dist.,Al Aziziyah ,24.6004324554818,46.7553502399629,10100003029
849,مسجد,6390 al jeresia - Al Dar Al Baida Dist.,Al Dar Al Baida ,24.5524545412279,46.7865271200264,10100003130
850,مسجد,7113 abi tammam - Al Shifa Dist.,Al Shifa ,24.5717076370001,46.7006176560001,10100003061
851,مسجد,7731 al shoaba al olia - Al Aziziyah Dist.,Al Aziziyah ,24.5964702420937,46.7568118682709,10100003029
852,مسجد,3537 no. 97 - Al Aziziyah Dist.,Al Aziziyah ,24.584227443941,46.7617175484306,10100003029
853,مسجد,6804 yusuf al basri - Al Shifa Dist.,Al Shifa ,24.5688867110002,46.7081586160002,10100003061
854,مسجد,7259 no.44 - Al Aziziyah Dist.,Al Aziziyah ,24.572790376141,46.7627969919454,10100003029
855,مسجد,3430 abi yahya al qafsi - Al Shifa Dist.,Al Shifa ,24.5793429390001,46.7100094610001,10100003061
856,مسجد,2872 bishr ibn safwan - Al Shifa Dist.,Al Shifa ,24.5749018180001,46.7044560070001,10100003061
857,مسجد,2793 Malek Bin Ameerah - Al Shifa Dist.,Al Shifa ,24.5716018670001,46.7036797620001,10100003061
858,مسجد,6722 Al Salt Bin Al Noaman - Al Shifa Dist.,Al Shifa ,24.568251891,46.7057557800001,10100003061
859,مسجد,3320 abi yahya al qafsi - Al Shifa Dist.,Al Shifa ,24.578631224,46.7089640790001,10100003061
860,مسجد,6565 Ali Bin Abi Al Bakr - Al Shifa Dist.,Al Shifa ,24.5667265470001,46.7068978070002,10100003061
861,مسجد,4333 mashil - West Oraija Dist.,West Oraija ,24.6095104440001,46.6061278780001,10100003126
862,مسجد,7472 artawi al hamamid - West Oraija Dist.,West Oraija ,24.6043657970001,46.6056009910001,10100003126
863,مسجد,7999 ar rawajih - West Oraija Dist.,West Oraija ,24.6090822970001,46.6084615090001,10100003126
864,مسجد,7383 abi abdullah muhammad ibn farhun - West Oraija Dist.,West Oraija ,24.603501695,46.6120078410001,10100003126
865,مسجد,8212 abi al khair - West Oraija Dist.,West Oraija ,24.6110786610001,46.6033574750001,10100003126
866,مسجد,7656  - West Oraija Dist.,West Oraija ,24.6059792380001,46.6094144690001,10100003126
867,مسجد,3918 awan - West Oraija Dist.,West Oraija ,24.605641436,46.6020434430001,10100003126
868,مسجد,4963 al mirbah - West Oraija Dist.,West Oraija ,24.6011098200001,46.612237049,10100003126
869,مسجد,4166 darah - West Oraija Dist.,West Oraija ,24.5956968610001,46.6043013990002,10100003126
870,مسجد,8463 asilah - Middle Oraija Dist.,Middle Oraija ,24.6107722550001,46.6320812860002,10100003128
871,مسجد,6887 abdullah ibn az zubairq - West Oraija Dist.,West Oraija ,24.5991381490001,46.6004047490002,10100003126
872,مسجد,6089 weastern ring rd - West Oraija Dist.,West Oraija ,24.5920588840002,46.595701627,10100003126
873,مسجد,4466 husn al qari - West Oraija Dist.,West Oraija ,24.598725806,46.6072690940002,10100003126
874,مسجد,6619 dabil - West Oraija Dist.,West Oraija ,24.5967412460001,46.598962437,10100003126
875,مسجد,3063 al imam abi hanifah - Middle Oraija Dist.,Middle Oraija ,24.604615817,46.6249261650001,10100003128
876,مسجد,3164 Al Khaif - West Oraija Dist.,West Oraija ,24.59611095,46.5944408820001,10100003126
877,مسجد,7049 abdullah ibn az zubairq - West Oraija Dist.,West Oraija ,24.6005785610001,46.6011654600002,10100003126
878,مسجد,8174 abdul rahman ibn mufairij - Middle Oraija Dist.,Middle Oraija ,24.60772336,46.6322267280001,10100003128
879,مسجد,8128 isa ibn fairuz - Middle Oraija Dist.,Middle Oraija ,24.6075950710002,46.6362175850001,10100003128
880,مسجد,3398 Nafees Bin Hilal - Middle Oraija Dist.,Middle Oraija ,24.6082653340001,46.6290276000001,10100003128
881,مسجد,7171 abi al badr al musili - Dhahrat Al Badeah Dist.,hahrat Al Badeah ,24.599043786,46.6390979450001,10100003091
882,مسجد,7939 abi al hasan as saati - Middle Oraija Dist.,Middle Oraija ,24.6061509200001,46.6303166320002,10100003128
883,مسجد,8402 ar rabiyah - Middle Oraija Dist.,Middle Oraija ,24.6101738090002,46.6343109320001,10100003128
884,مسجد,7521 Ghulam Bin Al Muna - Al Shifa Dist.,Al Shifa ,24.5530172200001,46.6816947040001,10100003061
885,مسجد,2626 quraysh al madani - Al Shifa Dist.,Al Shifa ,24.5564920750001,46.6765320560001,10100003061
886,مسجد,6910 ibn taimiah rd - Al Shifa Dist.,Al Shifa ,24.5474290970001,46.6949356000001,10100003061
887,مسجد,4150 AL Khaleel Bin Ahmad - Al Shifa Dist.,Al Shifa ,24.5452115590001,46.6915782960002,10100003061
888,مسجد,6934 ad dawid - Al Shifa Dist.,Al Shifa ,24.5476602020001,46.6921719210002,10100003061
889,مسجد,7218 zaid ibn thabit ibn muqllid - Al Shifa Dist.,Al Shifa ,24.550294244,46.6865414430001,10100003061
890,مسجد,8050 dar al hal - Al Shifa Dist.,Al Shifa ,24.5577838270001,46.6879236220001,10100003061
891,مسجد,7198 ibn sayyidah - Al Marwah Dist.,Al Marwah ,24.5501239400002,46.6787304180001,10100003064
892,مسجد,7444 ar rubayhi - Al Shifa Dist.,Al Shifa ,24.5521687430002,46.6961868330002,10100003061
893,مسجد,7576 sahil ash shaikh - Al Shifa Dist.,Al Shifa ,24.5535255410002,46.6935860270001,10100003061
894,مسجد,3555 al abbas al mudhakir - Dhahrat Al Badeah Dist.,hahrat Al Badeah ,24.5929316900001,46.6301889240001,10100003091
895,مسجد,4204 al manini - West Oraija Dist.,West Oraija ,24.5898421220001,46.616694836,10100003126
896,مسجد,"""6935 Ibn Al Muqafa' - West Oraija Dist.""",West Oraija ,24.5865380510001,46.61210898,10100003126
897,مسجد,7548 muhammad ibn sulayman al mahna - West Oraija Dist.,West Oraija ,24.5906786560001,46.6145856100001,10100003126
898,مسجد,7678 an naaim - West Oraija Dist.,West Oraija ,24.5917471490002,46.620716895,10100003126
899,مسجد,"""6935 Ibn Al Muqafa' - West Oraija Dist.""",West Oraija ,24.5853119070001,46.613305951,10100003126
900,مسجد,3962 abi bakr al hajib - West Oraija Dist.,West Oraija ,24.5883085940002,46.6142939900002,10100003126
901,مسجد,7105 muhammad ibn sulayman al mahna - West Oraija Dist.,West Oraija ,24.5864933600001,46.6180406590001,10100003126
902,مسجد,4367 ar ramithi al ulwi - West Oraija Dist.,West Oraija ,24.594461055,46.618373536,10100003126
903,مسجد,2220 thabit al jarjawi - West Oraija Dist.,West Oraija ,24.5908237800001,46.5971342890001,10100003126
904,مسجد,2568 al hera - Ghirnatah Dist.,Ghirnatah ,24.792800300455,46.7457554537319,10100003155
905,مسجد,7269 al taref - Qurtubah Dist.,Qurtubah ,24.8038877093397,46.719301009231,10100003101
906,مسجد,7331 ash shaikh hasan ibn hussain ibn ali - Al Munisiyah Dist.,Al Munisiyah ,24.8197228935678,46.7525920166109,10100003140
907,مسجد,7178 al jaminia - Al Yarmuk Dist.,Al Yarmuk ,24.8017288781608,46.7788015048101,10100003139
908,مسجد,3709 street no. 289 - Al Munisiyah Dist.,Al Munisiyah ,24.8278765871482,46.7664991036305,10100003140
909,مسجد,3379 skaka - Al Yarmuk Dist.,Al Yarmuk ,24.8087027852879,46.7716790381838,10100003139
910,مسجد,2964 ad dammam rd - Al Munisiyah Dist.,Al Munisiyah ,24.8086178616787,46.7588419548774,10100003140
911,مسجد,2545 as soyouti - Qurtubah Dist.,Qurtubah ,24.8211339094079,46.7190753687277,10100003101
912,مسجد,3070 abi jaafar al mansur - Al Yarmuk Dist.,Al Yarmuk ,24.8035924978883,46.768237632669,10100003139
913,مسجد,3410 street no. 58 - Al Munisiyah Dist.,Al Munisiyah ,24.815748432761,46.7630703181671,10100003140
914,مسجد,7140 abi ar rida al harbi - Dhahrat Al Badeah Dist.,hahrat Al Badeah ,24.5906375500001,46.6419491150002,10100003091
915,مسجد,6439 hadbat najd - Dhahrat Al Badeah Dist.,hahrat Al Badeah ,24.5843423700001,46.633958362,10100003091
916,مسجد,6597 abi zakariya al adl - Dhahrat Al Badeah Dist.,hahrat Al Badeah ,24.5857946300002,46.6304250260001,10100003091
917,مسجد,7251 abi kabir - Dhahrat Al Badeah Dist.,hahrat Al Badeah ,24.591685275,46.6332792200002,10100003091
918,مسجد,3243 al madinah al munawarah - Dhahrat Al Badeah Dist.,hahrat Al Badeah ,24.5956131250001,46.636624886,10100003091
919,مسجد,3137 ibn al jarud - Dhahrat Al Badeah Dist.,hahrat Al Badeah ,24.5897514430001,46.6355077590001,10100003091
920,مسجد,4121 ibn kinan - Dhahrat Al Badeah Dist.,hahrat Al Badeah ,24.5953549380002,46.645299081,10100003091
921,مسجد,7041 hadbat najd - Dhahrat Al Badeah Dist.,hahrat Al Badeah ,24.5898335650001,46.6299350840001,10100003091
922,مسجد,7422 al khalifah al mamun - Badr Dist.,Badr ,24.5412854910001,46.7026381040001,10100003164
923,مسجد,7898  - Badr Dist.,Badr ,24.5456227510002,46.7056534810001,10100003164
924,مسجد,4161 al imam malik rd - Badr Dist.,Badr ,24.5464472210002,46.7099936040001,10100003164
925,مسجد,6933 abi al fadail al amdi - Badr Dist.,Badr ,24.53695725,46.7013135140001,10100003164
926,مسجد,2653 Ahmad Shawqi - Badr Dist.,Badr ,24.5444271520001,46.6950548240001,10100003164
927,مسجد,4014 al hamdah - Badr Dist.,Badr ,24.536769973,46.7082852560001,10100003164
928,مسجد,3114 iyad ibn al qayt - Badr Dist.,Badr ,24.5496953930001,46.6996785580002,10100003164
929,مسجد,4159 al ashimiyyah - Badr Dist.,Badr ,24.53925444,46.7098582800001,10100003164
930,مسجد,3519 abdullah ibn zahim - Badr Dist.,Badr ,24.5457297210002,46.7036348640002,10100003164
931,مسجد,3795 abi bakr as safi - Badr Dist.,Badr ,24.5411114630001,46.7062988800001,10100003164
932,مسجد,8179 mawjud al kharsani - Al Zahrah Dist.,Al Zahrah ,24.5808299490002,46.638895576,10100003067
933,مسجد,7504 abdullah al matrudi - Al Zahrah Dist.,Al Zahrah ,24.574584947,46.6548035070001,10100003067
934,مسجد,7389 abi ahmad ar rumi - Al Zahrah Dist.,Al Zahrah ,24.5736624270001,46.6379559010002,10100003067
935,مسجد,8182 abdullah al matrudi - Al Zahrah Dist.,Al Zahrah ,24.580725219,46.6501272780001,10100003067
936,مسجد,7726 abdullah al matrudi - Al Zahrah Dist.,Al Zahrah ,24.5765897250002,46.6533001560001,10100003067
